rosbagTimestamp,header,seq,stamp,secs,nsecs,frame_id,pose,position,x,y,z,orientation,x,y,z,w
1511797064033007180,,16436,,1511797064,32306909,0,,,1987.6394043,188.330078125,359.259796143,,0.478892415762,-0.818735301495,0.108774632215,0.297494232655
1511797064052758013,,16437,,1511797064,52047014,0,,,1987.7902832,188.095703125,359.112030029,,0.478421360254,-0.818905949593,0.10845438391,0.297898799181
1511797064074859628,,16438,,1511797064,73043107,0,,,1987.77124023,188.06640625,359.156433105,,0.478516280651,-0.818875730038,0.108570940793,0.297787040472
1511797064104296920,,16439,,1511797064,102761030,0,,,1987.72045898,188.206542969,359.201568604,,0.479063630104,-0.818665981293,0.108797505498,0.29740101099
1511797064116911243,,16440,,1511797064,113997936,0,,,1987.68432617,188.081298828,359.212585449,,0.478543698788,-0.818849921227,0.108709409833,0.297763675451
1511797064135175253,,16441,,1511797064,131223917,0,,,1987.64941406,188.017089844,359.109954834,,0.478299200535,-0.818987250328,0.108545355499,0.297838449478
1511797064152364368,,16442,,1511797064,150867938,0,,,1987.64379883,188.008544922,359.177734375,,0.478493183851,-0.818913638592,0.108571738005,0.297719836235
1511797064173532493,,16443,,1511797064,171386957,0,,,1987.69775391,188.226074219,359.26574707,,0.478797852993,-0.818683326244,0.109332941473,0.297584801912
1511797064194170097,,16444,,1511797064,190953969,0,,,1987.77587891,188.145996094,359.209411621,,0.478696942329,-0.818828523159,0.10852380842,0.297643482685
1511797064213006607,,16445,,1511797064,211193084,0,,,1987.80297852,188.208496094,359.168426514,,0.478597819805,-0.818826198578,0.108477056026,0.297826588154
1511797064236076243,,16446,,1511797064,235002040,0,,,1987.67895508,188.300537109,359.192016602,,0.47863650322,-0.818782806396,0.108567737043,0.297850459814
1511797064251807388,,16447,,1511797064,250930070,0,,,1987.78076172,188.292236328,359.110321045,,0.478559285402,-0.818811237812,0.108704544604,0.29784694314
1511797064271925513,,16448,,1511797064,270586013,0,,,1987.63525391,188.284667969,359.153808594,,0.478689402342,-0.81883263588,0.108584344387,0.297622293234
1511797064290481086,,16449,,1511797064,289639949,0,,,1987.81005859,188.115478516,359.085968018,,0.478434622288,-0.81891721487,0.10849172622,0.297833174467
1511797064309748326,,16450,,1511797064,309062004,0,,,1987.80957031,188.064941406,359.102050781,,0.478705257177,-0.818798005581,0.10858476907,0.297692030668
1511797064330232284,,16451,,1511797064,329516887,0,,,1987.82275391,188.042480469,359.080322266,,0.478804826736,-0.818767428398,0.108716472983,0.297567874193
1511797064350193847,,16452,,1511797064,349193096,0,,,1987.70507812,188.136474609,359.153076172,,0.478806376457,-0.818798363209,0.108722530305,0.297478228807
1511797064370003065,,16453,,1511797064,368988990,0,,,1987.71899414,188.082519531,359.140563965,,0.478612422943,-0.818842887878,0.108538478613,0.297734409571
1511797064390513899,,16454,,1511797064,389475107,0,,,1987.65600586,188.077392578,359.228271484,,0.478756308556,-0.818773448467,0.108575202525,0.297680854797
1511797064413056815,,16455,,1511797064,411832094,0,,,1987.703125,188.126220703,359.193206787,,0.478823810816,-0.818736970425,0.108739480376,0.297612667084
1511797064430642284,,16456,,1511797064,428415060,0,,,1987.6887207,188.129150391,359.277160645,,0.478735685349,-0.81878387928,0.108673892915,0.297649472952
1511797064449442753,,16457,,1511797064,448322057,0,,,1987.78442383,188.073486328,359.168609619,,0.478753983974,-0.818772614002,0.108435280621,0.297738045454
1511797064469349888,,16458,,1511797064,468367099,0,,,1987.77319336,188.010498047,359.111297607,,0.478635311127,-0.81881403923,0.1085062325,0.297788769007
1511797064489415305,,16459,,1511797064,487766981,0,,,1987.67822266,188.118408203,359.145996094,,0.478928744793,-0.818755626678,0.108672387898,0.297417134047
1511797064509282597,,16460,,1511797064,508081912,0,,,1987.65600586,188.146240234,359.196746826,,0.478912860155,-0.818768978119,0.108593404293,0.297434598207
1511797064529197597,,16461,,1511797064,528229951,0,,,1987.74316406,188.084716797,359.185791016,,0.478640526533,-0.818816184998,0.108576342463,0.297748982906
1511797064547827336,,16462,,1511797064,546992063,0,,,1987.72460938,187.990478516,359.192687988,,0.478505849838,-0.818874061108,0.108498685062,0.297834455967
1511797064569252753,,16463,,1511797064,567544937,0,,,1987.72119141,188.107421875,359.170440674,,0.478961974382,-0.818724989891,0.108657054603,0.297453522682
1511797064598332753,,16464,,1511797064,597239017,0,,,1987.68676758,188.233642578,359.223144531,,0.47912311554,-0.818650901318,0.108708187938,0.297379046679
1511797064618812701,,16465,,1511797064,617613077,0,,,1987.87890625,188.099365234,359.034820557,,0.478415876627,-0.818909108639,0.108438946307,0.297904908657
1511797064633002284,,16466,,1511797064,631807088,0,,,1987.74194336,188.139892578,359.116760254,,0.478653997183,-0.81884086132,0.108438618481,0.297710120678
1511797064646681242,,16467,,1511797064,645819902,0,,,1987.73486328,188.163818359,359.197906494,,0.478950679302,-0.818730831146,0.108668781817,0.297451227903
1511797064666419420,,16468,,1511797064,665643930,0,,,1987.70361328,188.151123047,359.252044678,,0.479151248932,-0.818643808365,0.108546689153,0.297412276268
1511797064686755722,,16469,,1511797064,685770988,0,,,1987.77319336,188.004150391,359.113494873,,0.478567272425,-0.818841338158,0.108405761421,0.29785990715
1511797064707917857,,16470,,1511797064,707173109,0,,,1987.65966797,188.032714844,359.170440674,,0.478683054447,-0.818816900253,0.108587220311,0.297675073147
1511797064725727597,,16471,,1511797064,725017070,0,,,1987.65698242,188.072509766,359.278991699,,0.47891920805,-0.81871509552,0.108828306198,0.297487139702
1511797064745372544,,16472,,1511797064,744770050,0,,,1987.76367188,188.020263672,359.297546387,,0.478544771671,-0.818862318993,0.10860028863,0.297767758369
1511797064766480409,,16473,,1511797064,765635967,0,,,1987.74584961,188.013916016,359.289398193,,0.478380173445,-0.818928658962,0.108634144068,0.297837018967
1511797064784531294,,16474,,1511797064,783952951,0,,,1987.67724609,188.013916016,359.261322021,,0.478512793779,-0.818870723248,0.108562581241,0.29780960083
1511797064804988326,,16475,,1511797064,804229974,0,,,1987.64575195,188.129882812,359.158660889,,0.479254841805,-0.818586647511,0.108615517616,0.297377705574
1511797064824772076,,16476,,1511797064,823802947,0,,,1987.65576172,188.046630859,359.165710449,,0.478828191757,-0.818788170815,0.108492776752,0.297554939985
1511797064845409315,,16477,,1511797064,844142913,0,,,1987.76928711,188.041259766,359.135620117,,0.478709101677,-0.818817794323,0.108431354165,0.297687262297
1511797064872694940,,16478,,1511797064,866100072,0,,,1987.78466797,188.192626953,359.27532959,,0.478809654713,-0.818744421005,0.10853407532,0.297690153122
1511797064887307753,,16479,,1511797064,886626005,0,,,1987.8137207,188.369140625,359.32623291,,0.479265153408,-0.818543374538,0.109066843987,0.297314822674
1511797064904118222,,16480,,1511797064,903440952,0,,,1987.65991211,188.221191406,359.196807861,,0.478772342205,-0.818789839745,0.108678556979,0.297572374344
1511797064926565721,,16481,,1511797064,924535989,0,,,1987.72705078,188.100830078,359.053466797,,0.478380799294,-0.818929791451,0.108528263867,0.297871649265
1511797064948413013,,16482,,1511797064,947720050,0,,,1987.63818359,188.086181641,359.157775879,,0.478587985039,-0.818834364414,0.108550004661,0.297793239355
1511797064964449992,,16483,,1511797064,962811946,0,,,1987.77246094,188.049560547,359.226898193,,0.47874212265,-0.818769693375,0.108674019575,0.297678112984
1511797064982972805,,16484,,1511797064,982004880,0,,,1987.70849609,188.19140625,359.36505127,,0.478967696428,-0.818692326546,0.108749054372,0.297500371933
1511797065003306138,,16485,,1511797065,1800060,0,,,1987.84423828,188.178466797,359.237030029,,0.478571593761,-0.818818986416,0.108581699431,0.297850131989
1511797065031757440,,16486,,1511797065,30227899,0,,,1987.73168945,188.151611328,359.246185303,,0.478881895542,-0.818704366684,0.108631700277,0.29764854908
1511797065045972805,,16487,,1511797065,45033931,0,,,1987.64135742,188.023925781,359.204498291,,0.478932082653,-0.818707764149,0.108751639724,0.29751431942
1511797065062309055,,16488,,1511797065,61167955,0,,,1987.51586914,188.028076172,359.273254395,,0.478779166937,-0.818814873695,0.108575992286,0.297529995441
1511797065082439471,,16489,,1511797065,81831932,0,,,1987.6862793,188.028564453,359.20401001,,0.478752732277,-0.818774759769,0.108501054347,0.29771015048
1511797065103362701,,16490,,1511797065,101809024,0,,,1987.86938477,188.001953125,359.176696777,,0.478423804045,-0.818856775761,0.108541764319,0.297998011112
1511797065129576763,,16491,,1511797065,128937959,0,,,1987.83764648,188.149169922,359.194946289,,0.478884100914,-0.818697392941,0.108853571117,0.297582924366
1511797065144645513,,16492,,1511797065,142034053,0,,,1987.71728516,188.146240234,359.202545166,,0.478841543198,-0.818780958652,0.108748674393,0.297459959984
1511797065160376763,,16493,,1511797065,159832954,0,,,1987.66992188,188.1171875,359.202178955,,0.478472262621,-0.818854987621,0.10857667774,0.297912657261
1511797065180492076,,16494,,1511797065,179938077,0,,,1987.62915039,188.005126953,359.242797852,,0.478315740824,-0.818975865841,0.108465068042,0.297872364521
1511797065200777284,,16495,,1511797065,200068950,0,,,1987.67285156,188.131591797,359.263763428,,0.478805243969,-0.818789124489,0.108665585518,0.297525823116
1511797065227768794,,16496,,1511797065,225708007,0,,,1987.79125977,188.239501953,359.234832764,,0.478893578053,-0.818701922894,0.108761459589,0.29758888483
1511797065240412492,,16497,,1511797065,239761114,0,,,1987.94042969,188.204589844,359.157196045,,0.478725016117,-0.818698942661,0.108736231923,0.2978772223
1511797065260622648,,16498,,1511797065,259979009,0,,,1987.79272461,188.178222656,359.163757324,,0.478539288044,-0.818809151649,0.108645170927,0.297906041145
1511797065284207596,,16499,,1511797065,282624006,0,,,1987.70507812,188.180664062,359.132385254,,0.478871613741,-0.81872099638,0.108832344413,0.297545701265
1511797065299134992,,16500,,1511797065,298620939,0,,,1987.578125,188.164550781,359.23614502,,0.479048728943,-0.818623125553,0.108646675944,0.297597914934
1511797065318919471,,16501,,1511797065,318434953,0,,,1987.77563477,187.970214844,359.163818359,,0.478399455547,-0.818910777569,0.108432680368,0.297928929329
1511797065339025982,,16502,,1511797065,338458061,0,,,1987.72241211,188.009765625,359.267913818,,0.478565126657,-0.818843305111,0.108560189605,0.29780164361
1511797065358887023,,16503,,1511797065,358344078,0,,,1987.78417969,188.141357422,359.242004395,,0.478976666927,-0.818658769131,0.108917817473,0.29751676321
1511797065380295200,,16504,,1511797065,379777908,0,,,1987.67456055,188.227294922,359.33972168,,0.478981494904,-0.818681061268,0.108882918954,0.297460466623
1511797065397839680,,16505,,1511797065,397380113,0,,,1987.69604492,188.028808594,359.202331543,,0.478417217731,-0.818909347057,0.108615510166,0.297837674618
1511797065418308325,,16506,,1511797065,417540073,0,,,1987.61303711,188.006347656,359.254669189,,0.478501707315,-0.818906843662,0.108526073396,0.297741353512
1511797065438467544,,16507,,1511797065,437612056,0,,,1987.63867188,188.203369141,359.314544678,,0.479060769081,-0.818638443947,0.1087680161,0.297492086887
1511797065460990253,,16508,,1511797065,460046052,0,,,1987.77099609,188.15625,359.211639404,,0.478682518005,-0.818780183792,0.108659088612,0.297750771046
1511797065483946503,,16509,,1511797065,477133035,0,,,1987.89013672,188.157470703,359.045898438,,0.478717386723,-0.818764925003,0.108587794006,0.297762572765
1511797065497895617,,16510,,1511797065,496929883,0,,,1987.80126953,188.137939453,359.030731201,,0.47872120142,-0.818762004375,0.108615294099,0.297754228115
1511797065517774211,,16511,,1511797065,516805887,0,,,1987.72705078,188.244628906,359.136932373,,0.479124605656,-0.818590819836,0.10879817605,0.29750931263
1511797065538104836,,16512,,1511797065,537272930,0,,,1987.68725586,188.214599609,359.257507324,,0.478589653969,-0.818860590458,0.10859708488,0.297701567411
1511797065562759732,,16513,,1511797065,561599016,0,,,1987.78125,188.126708984,359.229766846,,0.478372961283,-0.818923830986,0.108465448022,0.297923862934
1511797065577208273,,16514,,1511797065,576163053,0,,,1987.73461914,188.1640625,359.245941162,,0.478657007217,-0.818802416325,0.108505219221,0.297786563635
1511797065597085409,,16515,,1511797065,595956087,0,,,1987.8137207,188.123291016,359.170898438,,0.478435397148,-0.818840146065,0.108749933541,0.297949671745
1511797065622921502,,16516,,1511797065,620830059,0,,,1987.67602539,188.194580078,359.231964111,,0.478642225266,-0.81883007288,0.10872053355,0.297655582428
1511797065642012180,,16517,,1511797065,640336036,0,,,1987.79711914,188.099365234,359.150970459,,0.478457868099,-0.818894088268,0.10856603086,0.297832399607
1511797065657772596,,16518,,1511797065,656718969,0,,,1987.7265625,188.043945312,359.194976807,,0.478884518147,-0.818722188473,0.108521305025,0.297635436058
1511797065681332596,,16519,,1511797065,679954051,0,,,1987.75170898,187.997314453,359.187469482,,0.478967428207,-0.818688154221,0.108589634299,0.297570645809
1511797065700165825,,16520,,1511797065,699192047,0,,,1987.64355469,188.052490234,359.228637695,,0.478945195675,-0.818703949451,0.108555994928,0.297575324774
1511797065715336242,,16521,,1511797065,714512109,0,,,1987.78100586,188.016845703,359.067565918,,0.478665798903,-0.818798303604,0.108611881733,0.297744989395
1511797065740457492,,16522,,1511797065,739749908,0,,,1987.73925781,188.064453125,359.112091064,,0.478738129139,-0.818784296513,0.108651801944,0.297652304173
1511797065757407127,,16523,,1511797065,755403041,0,,,1987.70776367,188.145019531,359.204986572,,0.478804767132,-0.818775653839,0.108775667846,0.297523975372
1511797065778540773,,16524,,1511797065,777458906,0,,,1987.66210938,188.171142578,359.331787109,,0.478747487068,-0.818809330463,0.108746871352,0.297533988953
1511797065799652961,,16525,,1511797065,798341989,0,,,1987.73388672,188.066650391,359.293792725,,0.478453397751,-0.818884670734,0.108410395682,0.297922044992
1511797065815110877,,16526,,1511797065,814094066,0,,,1987.79101562,187.983154297,359.222930908,,0.478289425373,-0.818919062614,0.108533397317,0.29804623127
1511797065842184211,,16527,,1511797065,840750932,0,,,1987.69018555,188.095214844,359.144256592,,0.478680878878,-0.818857729435,0.108799368143,0.297488391399
1511797065855788325,,16528,,1511797065,853861093,0,,,1987.69555664,188.108398438,359.100463867,,0.478950202465,-0.818718731403,0.108653508127,0.297490894794
1511797065878006346,,16529,,1511797065,874028921,0,,,1987.77514648,188.134765625,359.034179688,,0.478676438332,-0.818905234337,0.108385369182,0.297516047955
1511797065894696294,,16530,,1511797065,893774986,0,,,1987.78662109,188.009033203,359.163787842,,0.478542268276,-0.818865776062,0.10853934288,0.297784149647
1511797065914562127,,16531,,1511797065,913292884,0,,,1987.72338867,188.149414062,359.336517334,,0.478821098804,-0.818769752979,0.108746193349,0.297524452209
1511797065935506294,,16532,,1511797065,932790040,0,,,1987.64477539,188.280029297,359.376617432,,0.478945553303,-0.81865555048,0.108775436878,0.297627985477
1511797065961735825,,16533,,1511797065,959281921,0,,,1987.79370117,188.152832031,359.168579102,,0.47837048769,-0.818843483925,0.108654513955,0.298079311848
1511797065978545825,,16534,,1511797065,973426103,0,,,1987.5300293,188.276123047,359.097259521,,0.477615296841,-0.819132745266,0.109325043857,0.298250228167
1511797065994910617,,16535,,1511797065,992175102,0,,,1987.88989258,189.411376953,358.378601074,,0.480175256729,-0.817861616611,0.116989836097,0.294699311256
1511797066013965513,,16536,,1511797066,11950016,0,,,1987.88842773,188.390869141,359.270141602,,0.479853063822,-0.818295300007,0.108232654631,0.297354459763
1511797066036034315,,16537,,1511797066,31694889,0,,,1987.8347168,187.811523438,359.229156494,,0.47830671072,-0.819020092487,0.108229003847,0.297851026058
1511797066053976034,,16538,,1511797066,50884962,0,,,1987.74267578,187.927246094,359.252380371,,0.478441953659,-0.818898379803,0.108603030443,0.297832250595
1511797066073253950,,16539,,1511797066,70889949,0,,,1987.70068359,188.180175781,359.175537109,,0.478772461414,-0.818740010262,0.108951643109,0.297609508038
1511797066093333273,,16540,,1511797066,91626882,0,,,1987.49853516,187.797607422,358.865509033,,0.479899764061,-0.819078862667,0.106869481504,0.295609772205
1511797066113695096,,16541,,1511797066,111115932,0,,,1987.47314453,187.703613281,358.805847168,,0.479748725891,-0.819121539593,0.1068437621,0.295745670795
1511797066134220721,,16542,,1511797066,132350921,0,,,1987.6484375,187.778564453,358.971954346,,0.479336678982,-0.818972766399,0.107606843114,0.296547949314
1511797066150139836,,16543,,1511797066,149493932,0,,,1987.69506836,187.847900391,359.02142334,,0.480008333921,-0.818931519985,0.107225939631,0.295712590218
1511797066170058950,,16544,,1511797066,169437885,0,,,1987.73754883,187.797363281,358.929901123,,0.480232208967,-0.818930447102,0.106905139983,0.295467823744
1511797066192403846,,16545,,1511797066,189835071,0,,,1987.65649414,187.775390625,358.816314697,,0.480178236961,-0.818968117237,0.106666378677,0.295537531376
1511797066209779315,,16546,,1511797066,209017992,0,,,1987.61865234,187.979736328,358.909301758,,0.479369699955,-0.818713128567,0.107998020947,0.297068893909
1511797066230419315,,16547,,1511797066,229530096,0,,,1987.40014648,187.843994141,358.93939209,,0.480142056942,-0.818886160851,0.107320442796,0.295586645603
1511797066257264002,,16548,,1511797066,250880956,0,,,1987.60644531,187.922607422,359.153564453,,0.478857159615,-0.818856239319,0.10835006088,0.297372847795
1511797066269533950,,16549,,1511797066,268614053,0,,,1987.9074707,187.891601562,359.233215332,,0.478228986263,-0.81900280714,0.108511202037,0.297921180725
1511797066290076138,,16550,,1511797066,288978099,0,,,1987.91259766,187.9921875,359.277679443,,0.478707969189,-0.818791270256,0.108459636569,0.297751843929
1511797066309767544,,16551,,1511797066,308995962,0,,,1987.88085938,188.125488281,359.129272461,,0.478861689568,-0.818698465824,0.108836464584,0.297622412443
1511797066329076815,,16552,,1511797066,327965021,0,,,1987.55395508,188.205810547,359.163757324,,0.47857427597,-0.818858861923,0.108763031662,0.297670304775
1511797066349629731,,16553,,1511797066,348076105,0,,,1987.56347656,187.974121094,359.062408447,,0.478372335434,-0.818934977055,0.10855396837,0.297862231731
1511797066371081502,,16554,,1511797066,368467092,0,,,1987.65698242,187.902587891,359.118133545,,0.478580236435,-0.818835377693,0.108509078622,0.297817826271
1511797066389083221,,16555,,1511797066,388432979,0,,,1987.89941406,187.903076172,359.053710938,,0.479010671377,-0.81874370575,0.1083701998,0.297428667545
1511797066408813586,,16556,,1511797066,407958030,0,,,1987.94360352,188.132080078,359.153900146,,0.479308664799,-0.818572878838,0.108489491045,0.297374904156
1511797066428477544,,16557,,1511797066,427674055,0,,,1987.94848633,188.224121094,359.094116211,,0.47878113389,-0.818724989891,0.108597837389,0.297766208649
1511797066450392023,,16558,,1511797066,448719024,0,,,1987.79077148,188.120117188,359.116271973,,0.478285491467,-0.818891525269,0.108650460839,0.298085153103
1511797066467554263,,16559,,1511797066,466732978,0,,,1987.56713867,188.111328125,359.137145996,,0.478593349457,-0.818819880486,0.108859427273,0.297711640596
1511797066489459158,,16560,,1511797066,488498926,0,,,1987.56347656,188.000976562,359.221252441,,0.47847533226,-0.818858802319,0.108719751239,0.297845363617
1511797066509037544,,16561,,1511797066,507688045,0,,,1987.87597656,188.012695312,359.11807251,,0.47856131196,-0.81884521246,0.108401320875,0.29786029458
1511797066529085356,,16562,,1511797066,527517080,0,,,1987.97607422,188.049316406,359.13848877,,0.478455066681,-0.818883419037,0.108465380967,0.297902703285
1511797066548520981,,16563,,1511797066,547275066,0,,,1987.83642578,188.209960938,359.178985596,,0.479387760162,-0.818526566029,0.108822412789,0.297253191471
1511797066572109263,,16564,,1511797066,567363977,0,,,1987.64428711,188.187255859,359.222198486,,0.478940337896,-0.818727850914,0.108748406172,0.29744720459
1511797066596497908,,16565,,1511797066,594654083,0,,,1987.57983398,188.055908203,359.136474609,,0.478744983673,-0.818783044815,0.108630351722,0.297652393579
1511797066610350565,,16566,,1511797066,609437942,0,,,1987.55053711,187.842529297,359.053344727,,0.47855553031,-0.81887704134,0.108397446573,0.297783941031
1511797066626436502,,16567,,1511797066,625272035,0,,,1987.67822266,187.862792969,359.064239502,,0.478874593973,-0.818808019161,0.10853266716,0.29741114378
1511797066646096658,,16568,,1511797066,644948005,0,,,1987.7824707,187.947998047,359.172332764,,0.479091525078,-0.818722248077,0.108389861882,0.297349870205
1511797066666878325,,16569,,1511797066,665561914,0,,,1987.99414062,187.903808594,359.08303833,,0.478581547737,-0.818884849548,0.10838739574,0.297723919153
1511797066694313377,,16570,,1511797066,686810016,0,,,1987.81152344,188.088623047,359.127044678,,0.47865742445,-0.818856298923,0.108544580638,0.297623425722
1511797066706130096,,16571,,1511797066,705065965,0,,,1987.63623047,188.256835938,359.175018311,,0.478777974844,-0.81877797842,0.108754470944,0.297567933798
1511797066730696294,,16572,,1511797066,729465961,0,,,1987.44824219,188.288330078,359.312164307,,0.478981673717,-0.818714976311,0.108685769141,0.297438502312
1511797066745896971,,16573,,1511797066,744709968,0,,,1987.62084961,187.911865234,359.152587891,,0.478428572416,-0.818951308727,0.108274482191,0.297828048468
1511797066765648117,,16574,,1511797066,764463901,0,,,1987.7878418,187.806396484,359.132843018,,0.478654503822,-0.81886947155,0.108349576592,0.297662764788
1511797066788121815,,16575,,1511797066,785054922,0,,,1987.95898438,188.157470703,359.063262939,,0.479304224253,-0.818647623062,0.108504883945,0.297170460224
1511797066807000304,,16576,,1511797066,803662061,0,,,1987.97680664,188.268798828,358.956268311,,0.478828549385,-0.818806529045,0.108521714807,0.29749366641
1511797066824819627,,16577,,1511797066,823600053,0,,,1987.77612305,188.228271484,359.030944824,,0.4785618186,-0.818896889687,0.108459927142,0.297696113586
1511797066852002335,,16578,,1511797066,849370956,0,,,1987.50805664,187.953613281,359.152374268,,0.478866815567,-0.818858444691,0.108177706599,0.297413885593
1511797066867293377,,16579,,1511797066,863959074,0,,,1987.51171875,187.965820312,359.247680664,,0.479106545448,-0.818650782108,0.10849570483,0.297483861446
1511797066886994106,,16580,,1511797066,884202957,0,,,1987.60351562,187.870361328,359.296600342,,0.478794157505,-0.818848192692,0.108382493258,0.297484874725
1511797066903971762,,16581,,1511797066,902874946,0,,,1987.91381836,188.009033203,359.099090576,,0.478645026684,-0.818870902061,0.108411096036,0.297651439905
1511797066923639887,,16582,,1511797066,922377109,0,,,1987.89282227,188.239990234,359.05456543,,0.478712469339,-0.818800628185,0.108668297529,0.297642707825
1511797066944527648,,16583,,1511797066,942946910,0,,,1987.87866211,188.251464844,359.051177979,,0.478341788054,-0.818776488304,0.109124533832,0.2981377244
1511797066968660721,,16584,,1511797066,963793992,0,,,1987.48999023,188.066162109,359.285888672,,0.478725731373,-0.818890690804,0.10870077461,0.297361642122
1511797066983018794,,16585,,1511797066,981633901,0,,,1987.48120117,187.834716797,359.274108887,,0.478274941444,-0.819012880325,0.108605705202,0.297784805298
1511797067003039783,,16586,,1511797067,1193046,0,,,1987.49951172,187.929443359,359.215179443,,0.478467613459,-0.818874001503,0.108646661043,0.297842741013
1511797067024044627,,16587,,1511797067,22363901,0,,,1987.77490234,188.104492188,359.0574646,,0.478507876396,-0.818892359734,0.108874894679,0.297643631697
1511797067044649783,,16588,,1511797067,40787935,0,,,1987.80004883,188.252685547,359.124298096,,0.478724241257,-0.818845689297,0.108859948814,0.297429919243
1511797067069551814,,16589,,1511797067,67632913,0,,,1987.85205078,188.260986328,359.183746338,,0.478446781635,-0.818907380104,0.10875954479,0.297742456198
1511797067083100929,,16590,,1511797067,81877946,0,,,1987.64746094,188.183837891,359.34085083,,0.478522658348,-0.818863034248,0.10862955451,0.297790437937
1511797067101075721,,16591,,1511797067,100020885,0,,,1987.45947266,188.038085938,359.300231934,,0.478587299585,-0.818889558315,0.108698733151,0.297588139772
1511797067123801241,,16592,,1511797067,119709014,0,,,1987.45385742,187.965087891,359.200164795,,0.478597790003,-0.81884431839,0.108699537814,0.297695815563
1511797067140926658,,16593,,1511797067,139636993,0,,,1987.67236328,188.034912109,359.024963379,,0.478606969118,-0.81885355711,0.108520388603,0.297720700502
1511797067163703429,,16594,,1511797067,160962104,0,,,1987.90820312,188.097167969,358.984283447,,0.478271842003,-0.818981349468,0.1086210832,0.29787132144
1511797067181659575,,16595,,1511797067,180648088,0,,,1987.81030273,188.282714844,359.102966309,,0.478793770075,-0.818816840649,0.108923025429,0.297374308109
1511797067201767596,,16596,,1511797067,199431896,0,,,1987.60913086,188.187255859,359.302703857,,0.479136765003,-0.818749368191,0.108665958047,0.297101020813
1511797067219578689,,16597,,1511797067,218564033,0,,,1987.53515625,188.031494141,359.307373047,,0.478704988956,-0.818855643272,0.108650289476,0.297509878874
1511797067239595669,,16598,,1511797067,238573074,0,,,1987.37329102,187.950439453,359.193481445,,0.478130936623,-0.81900036335,0.108868435025,0.297954618931
1511797067259671241,,16599,,1511797067,258615016,0,,,1987.41333008,188.129638672,359.253540039,,0.478574216366,-0.818868160248,0.10905508697,0.297537893057
1511797067279071346,,16600,,1511797067,278069972,0,,,1987.515625,188.274169922,359.286895752,,0.478736430407,-0.818788230419,0.109122946858,0.297471761703
1511797067308506137,,16601,,1511797067,306977987,0,,,1987.92651367,188.099609375,359.104797363,,0.478285551071,-0.818951129913,0.108627282083,0.297930121422
1511797067318678481,,16602,,1511797067,317691087,0,,,1987.75463867,188.035400391,359.188720703,,0.478547096252,-0.818940520287,0.108497209847,0.297586172819
1511797067337978741,,16603,,1511797067,337317943,0,,,1987.58007812,188.052246094,359.227844238,,0.479009568691,-0.818780720234,0.10889647156,0.297135442495
1511797067358310721,,16604,,1511797067,357713937,0,,,1987.40844727,188.368652344,359.190002441,,0.478555291891,-0.818463027477,0.109652779996,0.298461765051
1511797067378773377,,16605,,1511797067,377482891,0,,,1987.44458008,187.862304688,359.12020874,,0.477597177029,-0.819375991821,0.108015522361,0.298088490963
1511797067398122700,,16606,,1511797067,397104978,0,,,1987.24609375,188.076416016,359.440429688,,0.47756510973,-0.819279909134,0.109582774341,0.297831684351
1511797067423067908,,16607,,1511797067,417037963,0,,,1987.40771484,188.330322266,359.617584229,,0.477847754955,-0.819212734699,0.110212028027,0.297330766916
1511797067438677543,,16608,,1511797067,437768936,0,,,1987.61816406,188.306396484,359.592163086,,0.477919459343,-0.819184720516,0.109796114266,0.297446370125
1511797067457745877,,16609,,1511797067,456804990,0,,,1987.45166016,188.194091797,359.555999756,,0.477585315704,-0.819291651249,0.109671086073,0.297734677792
1511797067477349991,,16610,,1511797067,476417064,0,,,1987.28540039,187.999267578,359.38470459,,0.477700889111,-0.819226861,0.109302833676,0.297862499952
1511797067497166137,,16611,,1511797067,496052026,0,,,1987.09521484,188.034912109,359.349395752,,0.478476583958,-0.818964660168,0.109554424882,0.297245740891
1511797067520606293,,16612,,1511797067,519527912,0,,,1987.1550293,188.008300781,359.553039551,,0.477538466454,-0.819278419018,0.109999239445,0.297725468874
1511797067537575668,,16613,,1511797067,536448001,0,,,1987.38305664,188.075439453,359.501403809,,0.477236241102,-0.819466531277,0.1097631827,0.297778874636
1511797067556823637,,16614,,1511797067,555706024,0,,,1987.57836914,188.262451172,359.445861816,,0.477561116219,-0.819273114204,0.109447568655,0.297906517982
1511797067578602283,,16615,,1511797067,577559947,0,,,1987.51318359,188.441162109,359.417877197,,0.4790828228,-0.818755626678,0.109515078366,0.296859532595
1511797067603982283,,16616,,1511797067,602807044,0,,,1987.18457031,188.249511719,359.646209717,,0.477475345135,-0.819243431091,0.110112175345,0.297880649567
1511797067615858116,,16617,,1511797067,614665985,0,,,1987.14794922,188.024169922,359.535400391,,0.476977914572,-0.819412112236,0.110025346279,0.298245608807
1511797067640342387,,16618,,1511797067,639167070,0,,,1987.02954102,187.961425781,359.299926758,,0.478329598904,-0.819209218025,0.108608283103,0.297155201435
1511797067662259835,,16619,,1511797067,661159038,0,,,1987.3996582,188.322265625,359.581115723,,0.477399647236,-0.819227397442,0.110058166087,0.298066139221
1511797067676966450,,16620,,1511797067,674303054,0,,,1987.33911133,188.354003906,359.708282471,,0.4772580266,-0.819436609745,0.110097557306,0.297703146935
1511797067696055148,,16621,,1511797067,694641113,0,,,1987.53076172,188.197021484,359.509368896,,0.477602422237,-0.819285273552,0.109528936446,0.297776728868
1511797067716638845,,16622,,1511797067,714519023,0,,,1987.44848633,188.058349609,359.408508301,,0.478190660477,-0.818965613842,0.109501950443,0.297722071409
1511797067737285981,,16623,,1511797067,734612941,0,,,1987.18408203,187.938720703,359.386383057,,0.477644145489,-0.819335699081,0.109751664102,0.297489136457
1511797067755643377,,16624,,1511797067,753310918,0,,,1986.99536133,188.116943359,359.50213623,,0.477494180202,-0.81932592392,0.110058829188,0.297643452883
1511797067776187908,,16625,,1511797067,773296117,0,,,1987.32788086,188.380371094,359.251953125,,0.47852987051,-0.818676710129,0.10955619067,0.297951519489
1511797067795344262,,16626,,1511797067,793801069,0,,,1987.59155273,188.185302734,359.41317749,,0.477559506893,-0.819210886955,0.109318204224,0.298127382994
1511797067818256502,,16627,,1511797067,817317962,0,,,1987.41699219,188.109375,359.743560791,,0.477464079857,-0.81936866045,0.1100435853,0.29757925868
1511797067835639887,,16628,,1511797067,833055973,0,,,1987.22851562,188.002685547,359.764678955,,0.47761875391,-0.81927472353,0.109903037548,0.297642052174
1511797067854936554,,16629,,1511797067,852444887,0,,,1987.20947266,188.146972656,359.396789551,,0.47838845849,-0.818744540215,0.109554409981,0.297992944717
1511797067882218012,,16630,,1511797067,880901098,0,,,1987.1940918,187.839111328,359.484100342,,0.477070957422,-0.819509387016,0.109349198639,0.298077881336
1511797067900772439,,16631,,1511797067,899465084,0,,,1987.14794922,187.938232422,359.567687988,,0.477252453566,-0.819466710091,0.109940119088,0.297687113285
1511797067913941814,,16632,,1511797067,912164926,0,,,1987.22973633,188.077880859,359.626190186,,0.477507442236,-0.819318890572,0.109909333289,0.297696232796
1511797067932445304,,16633,,1511797067,931376934,0,,,1987.4934082,188.129882812,359.562591553,,0.477700352669,-0.819165408611,0.109779782593,0.297856837511
1511797067952562127,,16634,,1511797067,951258897,0,,,1987.40722656,188.026855469,359.518188477,,0.477269262075,-0.819361031055,0.109349675477,0.298168301582
1511797067971926606,,16635,,1511797067,970936059,0,,,1987.20410156,188.105224609,359.500305176,,0.477390706539,-0.819387078285,0.10989677906,0.297700762749
1511797067997993324,,16636,,1511797067,997071027,0,,,1987.05786133,188.153808594,359.45916748,,0.477916955948,-0.819063425064,0.109819427133,0.297775477171
1511797068016949835,,16637,,1511797068,15068054,0,,,1987.3203125,187.984619141,359.387481689,,0.477093040943,-0.819392681122,0.109711289406,0.298230439425
1511797068030563481,,16638,,1511797068,29822111,0,,,1987.37915039,188.0078125,359.385101318,,0.47716242075,-0.819430649281,0.109445512295,0.298113018274
1511797068050173897,,16639,,1511797068,49551010,0,,,1987.42285156,188.140625,359.588226318,,0.477410376072,-0.819358050823,0.109826862812,0.297774493694
1511797068074311554,,16640,,1511797068,69458007,0,,,1987.34545898,188.231201172,359.756774902,,0.478072106838,-0.819074392319,0.110049910843,0.297410905361
1511797068090418116,,16641,,1511797068,89835882,0,,,1987.21020508,187.854980469,359.504150391,,0.477129399776,-0.819451749325,0.109490610659,0.298091322184
1511797068110552856,,16642,,1511797068,109837055,0,,,1987.05249023,187.829345703,359.219421387,,0.477181255817,-0.819295585155,0.109447255731,0.298452913761
1511797068129540199,,16643,,1511797068,128803014,0,,,1986.89428711,188.134033203,358.924438477,,0.478064239025,-0.818944811821,0.109668217599,0.297921359539
1511797068149285512,,16644,,1511797068,148561954,0,,,1986.81201172,188.150146484,358.63973999,,0.477544248104,-0.819135546684,0.110035158694,0.298095375299
1511797068169991033,,16645,,1511797068,168859004,0,,,1986.60791016,188.155517578,358.446807861,,0.477294027805,-0.819229841232,0.110169030726,0.298187583685
1511797068192935147,,16646,,1511797068,190946102,0,,,1986.55419922,188.09765625,358.135467529,,0.477493464947,-0.819029450417,0.109751276672,0.298572450876
1511797068209371033,,16647,,1511797068,207859992,0,,,1986.39868164,188.271728516,357.984344482,,0.478178501129,-0.818724095821,0.110328197479,0.298100560904
1511797068230590824,,16648,,1511797068,229644060,0,,,1986.23339844,188.1015625,357.917449951,,0.477065563202,-0.819136738777,0.110209934413,0.298792988062
1511797068249835824,,16649,,1511797068,248877048,0,,,1986.38500977,188.065673828,357.756652832,,0.476791799068,-0.819157242775,0.110121101141,0.299206286669
1511797068269120824,,16650,,1511797068,267832994,0,,,1986.52758789,188.159667969,357.676300049,,0.477303385735,-0.818927288055,0.10990742594,0.299098521471
1511797068290539418,,16651,,1511797068,289578914,0,,,1986.61987305,188.217773438,357.919952393,,0.477408289909,-0.818990707397,0.110409244895,0.298572540283
1511797068310214210,,16652,,1511797068,309003114,0,,,1986.23266602,188.242431641,358.240081787,,0.477423876524,-0.818967521191,0.110779196024,0.298473834991
1511797068328412595,,16653,,1511797068,327560901,0,,,1986.29370117,188.245361328,357.977935791,,0.477553248405,-0.818430662155,0.110489375889,0.299843639135
1511797068348577804,,16654,,1511797068,347342967,0,,,1986.34082031,188.619384766,357.632171631,,0.478685319424,-0.81750524044,0.11083111167,0.300436764956
1511797068368684887,,16655,,1511797068,367713928,0,,,1986.2668457,188.858886719,357.232330322,,0.478772073984,-0.817228078842,0.111817359924,0.300686866045
1511797068389442647,,16656,,1511797068,388422012,0,,,1986.34277344,189.046875,356.809387207,,0.479301005602,-0.816710889339,0.111809805036,0.30125156045
1511797068407455460,,16657,,1511797068,406158924,0,,,1986.68164062,189.170898438,356.405273438,,0.479885965586,-0.816168904305,0.111858204007,0.30177089572
1511797068427430772,,16658,,1511797068,426062107,0,,,1986.89233398,189.378173828,356.290893555,,0.480978012085,-0.81514775753,0.11203981936,0.302723318338
1511797068446148637,,16659,,1511797068,445455074,0,,,1987.22363281,189.363037109,356.041473389,,0.482387930155,-0.813853919506,0.111095890403,0.304305076599
1511797068467108845,,16660,,1511797068,466015100,0,,,1987.92651367,189.430908203,355.621063232,,0.484499841928,-0.811634063721,0.109494969249,0.307442694902
1511797068486710981,,16661,,1511797068,485369920,0,,,1989.49584961,189.806396484,354.656158447,,0.486054182053,-0.808632075787,0.10811932385,0.313330233097
1511797068508952699,,16662,,1511797068,506877899,0,,,1991.29052734,189.9296875,353.525512695,,0.488021492958,-0.805828511715,0.104812309146,0.318574905396
1511797068526833376,,16663,,1511797068,525619029,0,,,1993.2878418,190.289794922,352.087280273,,0.490881562233,-0.802519917488,0.101286441088,0.323633313179
1511797068545632387,,16664,,1511797068,544610977,0,,,1996.24243164,190.936767578,349.974700928,,0.495071440935,-0.797150909901,0.0965945124626,0.331849873066
1511797068567194574,,16665,,1511797068,564925909,0,,,2000.09375,191.784912109,347.488464355,,0.497924417257,-0.790982186794,0.0919878706336,0.343448162079
1511797068587288064,,16666,,1511797068,584958076,0,,,2004.17260742,192.308349609,344.572845459,,0.501621186733,-0.784527480602,0.085036881268,0.354488193989
1511797068605121606,,16667,,1511797068,604087114,0,,,2008.44873047,193.2578125,341.47454834,,0.50590634346,-0.777020037174,0.0787228047848,0.366198807955
1511797068625565876,,16668,,1511797068,624455928,0,,,2013.15673828,193.8515625,338.032501221,,0.509337186813,-0.768842339516,0.0698897689581,0.380227267742
1511797068645574158,,16669,,1511797068,644438982,0,,,2018.40405273,194.747314453,334.491638184,,0.508522212505,-0.760931432247,0.0634857714176,0.39794242382
1511797068666751501,,16670,,1511797068,665322065,0,,,2024.80761719,194.825195312,330.066467285,,0.511375486851,-0.752123355865,0.052784986794,0.412333965302
1511797068684863480,,16671,,1511797068,683626890,0,,,2031.19360352,195.494628906,325.431365967,,0.512526929379,-0.743339598179,0.0449306070805,0.427485466003
1511797068709660668,,16672,,1511797068,708230018,0,,,2037.36621094,196.109863281,320.736572266,,0.513038754463,-0.733695149422,0.0348574779928,0.444148272276
1511797068729477960,,16673,,1511797068,728010892,0,,,2043.92456055,196.336669922,315.682434082,,0.511201202869,-0.724333643913,0.0273950137198,0.461804777384
1511797068749105564,,16674,,1511797068,747901916,0,,,2050.61157227,197.821044922,309.983093262,,0.507838010788,-0.715625286102,0.0205267481506,0.479123800993
1511797068766599314,,16675,,1511797068,764466047,0,,,2056.53662109,198.224609375,306.456451416,,0.506824672222,-0.707113742828,0.0148555934429,0.492847084999
1511797068785396085,,16676,,1511797068,783380031,0,,,2063.39941406,198.019287109,299.737121582,,0.508537352085,-0.69488722086,0.00285493209958,0.508442163467
1511797068804431553,,16677,,1511797068,802916049,0,,,2069.75,198.370361328,294.802886963,,0.508120059967,-0.685275375843,-0.00718944519758,0.521689593792
1511797068828369053,,16678,,1511797068,826651096,0,,,2075.57910156,199.165039062,291.336151123,,0.503986954689,-0.678360044956,-0.011016163975,0.534512400627
1511797068850026501,,16679,,1511797068,848927974,0,,,2081.7512207,199.379150391,286.342651367,,0.502529680729,-0.669149816036,-0.0180751997977,0.547152459621
1511797068866044001,,16680,,1511797068,863027095,0,,,2086.90942383,198.789794922,282.086761475,,0.501799762249,-0.660794615746,-0.026118606329,0.557553172112
1511797068881515668,,16681,,1511797068,880907058,0,,,2091.75073242,198.315673828,278.931335449,,0.499500066042,-0.654445469379,-0.0326795317233,0.566685914993
1511797068901969626,,16682,,1511797068,901204109,0,,,2096.95117188,197.727050781,275.785522461,,0.498058855534,-0.647420883179,-0.0421549081802,0.575331807137
1511797068923159991,,16683,,1511797068,921485900,0,,,2103.33007812,196.476806641,270.544311523,,0.502019166946,-0.637028157711,-0.0563191100955,0.582237243652
1511797068944673116,,16684,,1511797068,943588018,0,,,2107.93041992,195.630615234,268.552581787,,0.502400636673,-0.631218969822,-0.0644887238741,0.587364912033
1511797068962667126,,16685,,1511797068,961452007,0,,,2112.27075195,195.183349609,265.485626221,,0.500376164913,-0.625537395477,-0.069978646934,0.594499588013
1511797068980888585,,16686,,1511797068,979810953,0,,,2116.07250977,195.249755859,262.618164062,,0.497068613768,-0.621676206589,-0.0743674039841,0.600758612156
1511797069001094730,,16687,,1511797068,999697923,0,,,2119.6784668,196.121582031,262.952972412,,0.489945292473,-0.6193369627,-0.0687526911497,0.609629750252
1511797069022454001,,16688,,1511797069,20886898,0,,,2123.59375,195.009277344,259.99786377,,0.4884801507,-0.61359167099,-0.0792230963707,0.615317940712
1511797069041564835,,16689,,1511797069,40380954,0,,,2129.73413086,193.026611328,255.469329834,,0.493366956711,-0.607089936733,-0.0927162468433,0.615982592106
1511797069061075147,,16690,,1511797069,60008049,0,,,2133.00073242,193.614746094,254.080474854,,0.489652752876,-0.605433046818,-0.0913214087486,0.620766878128
1511797069079784418,,16691,,1511797069,78856945,0,,,2135.84204102,193.555419922,253.205444336,,0.484163850546,-0.604536890984,-0.0895495787263,0.626180052757
1511797069102311189,,16692,,1511797069,99585056,0,,,2139.20751953,192.47265625,250.806182861,,0.483554840088,-0.600987553596,-0.0959019511938,0.629119634628
1511797069119558428,,16693,,1511797069,118851900,0,,,2142.93041992,191.185546875,248.440582275,,0.484006762505,-0.597977280617,-0.103934779763,0.630363643169
1511797069139759939,,16694,,1511797069,139173984,0,,,2145.77294922,191.101074219,247.840118408,,0.47912093997,-0.598915994167,-0.102517135441,0.633429527283
1511797069158213741,,16695,,1511797069,157655954,0,,,2148.43066406,190.184814453,247.124755859,,0.477610856295,-0.598780751228,-0.104579932988,0.634359955788
1511797069178310928,,16696,,1511797069,177551031,0,,,2151.12548828,189.473632812,245.647094727,,0.476165443659,-0.598241686821,-0.104545213282,0.635958909988
1511797069198397334,,16697,,1511797069,197629928,0,,,2152.7746582,189.402099609,245.643157959,,0.471661627293,-0.60016977787,-0.101347461343,0.638012826443
1511797069221068689,,16698,,1511797069,217892885,0,,,2154.61401367,188.909423828,245.031860352,,0.467487931252,-0.602502405643,-0.100628808141,0.638999044895
1511797069237864262,,16699,,1511797069,237238883,0,,,2155.49975586,188.937011719,246.354003906,,0.466167509556,-0.6055560112,-0.0981573835015,0.637459754944
1511797069261968637,,16700,,1511797069,261100053,0,,,2156.73779297,188.491210938,246.180511475,,0.468358695507,-0.603683650494,-0.101699016988,0.637074232101
1511797069277251397,,16701,,1511797069,276738882,0,,,2157.79858398,188.366943359,247.195159912,,0.468735843897,-0.604011774063,-0.104639358819,0.636008858681
1511797069298549522,,16702,,1511797069,297286033,0,,,2158.20996094,187.958251953,247.123748779,,0.469680011272,-0.603171110153,-0.107514373958,0.635630369186
1511797069319180459,,16703,,1511797069,318295955,0,,,2158.22314453,188.464355469,246.692260742,,0.47141456604,-0.601627647877,-0.105402752757,0.63616257906
1511797069337543064,,16704,,1511797069,336455106,0,,,2157.77856445,188.322753906,246.389343262,,0.471764206886,-0.601080477238,-0.106310300529,0.636269748211
1511797069357401814,,16705,,1511797069,356570005,0,,,2157.94506836,188.071044922,246.490142822,,0.469219863415,-0.602108001709,-0.105280518532,0.637349784374
1511797069377210928,,16706,,1511797069,376080036,0,,,2157.78637695,187.612060547,246.263214111,,0.467965424061,-0.604103028774,-0.105996541679,0.636264622211
1511797069397385876,,16707,,1511797069,396460056,0,,,2157.46606445,188.288330078,246.794311523,,0.465918064117,-0.605202555656,-0.102264925838,0.63733202219
1511797069421101084,,16708,,1511797069,417377948,0,,,2157.38647461,187.787353516,246.294006348,,0.464922636747,-0.604317963123,-0.104199714959,0.638583779335
1511797069438710668,,16709,,1511797069,438069105,0,,,2157.85644531,186.248535156,245.77633667,,0.463207632303,-0.606467843056,-0.109697140753,0.636868953705
1511797069455134261,,16710,,1511797069,454632997,0,,,2157.9128418,186.278076172,244.278259277,,0.463343948126,-0.605908155441,-0.109204687178,0.637386977673
1511797069476517855,,16711,,1511797069,474927902,0,,,2157.20898438,186.942626953,244.47845459,,0.464594483376,-0.605717360973,-0.10709965229,0.637014985085
1511797069496492022,,16712,,1511797069,494847059,0,,,2157.07128906,186.813964844,244.999420166,,0.465676903725,-0.604447484016,-0.107746839523,0.637321710587
1511797069516643116,,16713,,1511797069,515615940,0,,,2156.90258789,186.856689453,246.442596436,,0.465058237314,-0.604955554008,-0.106617189944,0.637481331825
1511797069537502022,,16714,,1511797069,534315109,0,,,2156.91845703,187.147460938,246.195709229,,0.464322894812,-0.605305671692,-0.107131436467,0.637598872185
1511797069554797959,,16715,,1511797069,553956031,0,,,2157.18505859,187.1875,245.956787109,,0.466104358435,-0.604575395584,-0.107052333653,0.637004971504
1511797069579804782,,16716,,1511797069,578895092,0,,,2157.04003906,186.53125,246.061950684,,0.464839667082,-0.604157328606,-0.105966620147,0.638505339622
1511797069603347074,,16717,,1511797069,600950002,0,,,2157.66064453,186.094238281,245.055175781,,0.466330081224,-0.605306327343,-0.107309110463,0.636101663113
1511797069615579626,,16718,,1511797069,614989042,0,,,2157.47167969,186.864501953,245.559020996,,0.464193046093,-0.605318546295,-0.107635192573,0.63759636879
1511797069638345043,,16719,,1511797069,637672901,0,,,2157.36474609,187.609619141,246.12487793,,0.463719964027,-0.605075120926,-0.10440389812,0.638707876205
1511797069654494157,,16720,,1511797069,653757095,0,,,2157.11401367,187.404052734,246.561187744,,0.463326871395,-0.604919075966,-0.103268176317,0.639325499535
1511797069673463845,,16721,,1511797069,672696113,0,,,2158.07739258,186.460693359,244.95401001,,0.465706259012,-0.60420358181,-0.108490251005,0.637405455112
1511797069695682438,,16722,,1511797069,693681001,0,,,2157.96289062,186.653564453,245.143432617,,0.465163141489,-0.605175733566,-0.108399704099,0.636894881725
1511797069715506709,,16723,,1511797069,713958024,0,,,2157.65625,187.143066406,246.652801514,,0.463725686073,-0.605569958687,-0.104045733809,0.638293087482
1511797069741617595,,16724,,1511797069,740648031,0,,,2157.57250977,186.619628906,246.452941895,,0.464308619499,-0.604828834534,-0.105765581131,0.63828933239
1511797069753651553,,16725,,1511797069,752521991,0,,,2157.89941406,186.731445312,246.46484375,,0.46511554718,-0.604997873306,-0.105569899082,0.637573719025
1511797069776515563,,16726,,1511797069,775346994,0,,,2157.73999023,187.349609375,247.143371582,,0.462330490351,-0.606816232204,-0.103910267353,0.638143718243
1511797069793932803,,16727,,1511797069,791785955,0,,,2157.73974609,186.650146484,246.532501221,,0.462483733892,-0.606435835361,-0.106814906001,0.637914657593
1511797069812494261,,16728,,1511797069,811419963,0,,,2157.45947266,186.392089844,244.840270996,,0.465704470873,-0.604326367378,-0.107508376241,0.637456655502
1511797069832966553,,16729,,1511797069,831737041,0,,,2157.53881836,186.640380859,245.384796143,,0.465234935284,-0.604635000229,-0.105656966567,0.637816309929
1511797069851919470,,16730,,1511797069,850812911,0,,,2157.35107422,187.453613281,246.258453369,,0.460407137871,-0.606597304344,-0.102342002094,0.639993131161
1511797069874231032,,16731,,1511797069,871648073,0,,,2158.01879883,186.286376953,246.814422607,,0.462594300508,-0.606573224068,-0.10527498275,0.637959897518
1511797069893469886,,16732,,1511797069,891104936,0,,,2157.76391602,186.677246094,245.923431396,,0.465508878231,-0.603958845139,-0.104773044586,0.638402700424
1511797069912909157,,16733,,1511797069,910980939,0,,,2157.61523438,187.099853516,246.898284912,,0.464371234179,-0.604676246643,-0.102304331958,0.63895213604
1511797069932152959,,16734,,1511797069,931427955,0,,,2157.4543457,187.194824219,246.907897949,,0.460082024336,-0.606552898884,-0.10182724148,0.640350937843
1511797069950262334,,16735,,1511797069,949562072,0,,,2157.44726562,187.170898438,247.663848877,,0.461741000414,-0.606544673443,-0.101202972233,0.639262855053
1511797069970738220,,16736,,1511797069,970025062,0,,,2157.59277344,186.502929688,245.516998291,,0.465133905411,-0.60415583849,-0.106718927622,0.638167202473
1511797069993839730,,16737,,1511797069,990843057,0,,,2157.73144531,186.801757812,245.885284424,,0.463609009981,-0.605050623417,-0.10402739048,0.638873100281
1511797070017189105,,16738,,1511797070,9391069,0,,,2157.72753906,186.685791016,246.358764648,,0.461645752192,-0.606250345707,-0.10514190793,0.638975024223
1511797070030300511,,16739,,1511797070,29011964,0,,,2157.96459961,186.861083984,246.533477783,,0.463683605194,-0.605584859848,-0.103617846966,0.63837903738
1511797070049733115,,16740,,1511797070,48748016,0,,,2157.89257812,186.674072266,246.299743652,,0.465403437614,-0.604222595692,-0.103694759309,0.63840585947
1511797070069472959,,16741,,1511797070,68825006,0,,,2158.12475586,186.034912109,246.412261963,,0.463874220848,-0.604862749577,-0.104640424252,0.638758480549
1511797070091071032,,16742,,1511797070,89441061,0,,,2157.79418945,186.453369141,246.433135986,,0.461657583714,-0.606209933758,-0.105310879648,0.638977050781
1511797070109919886,,16743,,1511797070,108201980,0,,,2157.97924805,186.982666016,246.701141357,,0.463472515345,-0.605082988739,-0.103600777686,0.639010846615
1511797070129078688,,16744,,1511797070,128055095,0,,,2157.67553711,186.811767578,246.66305542,,0.463860213757,-0.604406654835,-0.103820472956,0.639333844185
1511797070148945876,,16745,,1511797070,148025989,0,,,2157.77368164,186.203857422,247.236114502,,0.462227374315,-0.605586469173,-0.105576574802,0.639112234116
1511797070174384053,,16746,,1511797070,172703027,0,,,2157.76098633,186.760986328,246.763641357,,0.461144447327,-0.605778455734,-0.103689715266,0.640021026134
1511797070191042178,,16747,,1511797070,188334941,0,,,2158.1472168,186.484375,246.375457764,,0.463148713112,-0.605423390865,-0.104960896075,0.638701200485
1511797070208311553,,16748,,1511797070,207549095,0,,,2158.29199219,185.770263672,244.77645874,,0.467307388783,-0.603865683079,-0.108831442893,0.636494934559
1511797070227534678,,16749,,1511797070,226748943,0,,,2157.87060547,186.080078125,246.013824463,,0.463138610125,-0.605637192726,-0.106872528791,0.638188481331
1511797070251687438,,16750,,1511797070,250504970,0,,,2157.76855469,186.653808594,245.866210938,,0.46244263649,-0.605516850948,-0.105554796755,0.639026284218
1511797070278515251,,16751,,1511797070,277465105,0,,,2157.53027344,187.311279297,246.827697754,,0.462977409363,-0.605801522732,-0.10349996388,0.638705193996
1511797070296744678,,16752,,1511797070,294740915,0,,,2157.98803711,185.769775391,246.307434082,,0.463761508465,-0.605604410172,-0.109585553408,0.637306451797
1511797070307474105,,16753,,1511797070,306910037,0,,,2157.83300781,186.330810547,246.306518555,,0.464014977217,-0.604917883873,-0.105266608298,0.638500988483
1511797070327695511,,16754,,1511797070,326833963,0,,,2157.51269531,186.921630859,246.402923584,,0.460970461369,-0.60650485754,-0.103144936264,0.63954615593
1511797070346485459,,16755,,1511797070,345294952,0,,,2157.49072266,187.102294922,246.070465088,,0.46067610383,-0.606055498123,-0.104445889592,0.639972925186
1511797070372547542,,16756,,1511797070,371077060,0,,,2157.28540039,186.207275391,246.433502197,,0.462895542383,-0.60570538044,-0.10587605834,0.638466238976
1511797070395493167,,16757,,1511797070,394018888,0,,,2157.4519043,186.486328125,246.69619751,,0.462853729725,-0.605470120907,-0.104513987899,0.638943970203
1511797070406066553,,16758,,1511797070,405195951,0,,,2157.48071289,187.030517578,246.466125488,,0.461226284504,-0.606241464615,-0.104104101658,0.639456033707
1511797070425800303,,16759,,1511797070,424967050,0,,,2157.35205078,186.816894531,247.389434814,,0.460588514805,-0.607296705246,-0.103444173932,0.639021217823
1511797070445971813,,16760,,1511797070,444926023,0,,,2157.48071289,186.140625,246.144195557,,0.463547706604,-0.604798436165,-0.105316452682,0.638945281506
1511797070466663636,,16761,,1511797070,465523958,0,,,2158.33203125,185.557861328,245.260345459,,0.466117739677,-0.604196727276,-0.109579630196,0.636924564838
1511797070487538115,,16762,,1511797070,484296083,0,,,2157.39501953,186.99609375,246.234527588,,0.460650086403,-0.606610298157,-0.103986389935,0.639540851116
1511797070505697803,,16763,,1511797070,504129886,0,,,2157.40673828,186.575439453,246.798706055,,0.461476564407,-0.606683909893,-0.105980753899,0.638546943665
1511797070525805563,,16764,,1511797070,524698972,0,,,2157.65527344,186.278076172,246.038665771,,0.463750332594,-0.604775905609,-0.106469281018,0.6386282444
1511797070548307334,,16765,,1511797070,547341108,0,,,2157.70825195,186.513427734,246.414031982,,0.463559389114,-0.605231046677,-0.104830697179,0.638606905937
1511797070565018428,,16766,,1511797070,563896894,0,,,2157.43408203,186.973388672,247.036407471,,0.459042221308,-0.606303274632,-0.102148510516,0.641281723976
1511797070583898271,,16767,,1511797070,582995891,0,,,2157.43945312,186.805419922,247.216400146,,0.460492044687,-0.607036113739,-0.102221958339,0.639535009861
1511797070604743688,,16768,,1511797070,603720903,0,,,2157.78027344,185.985839844,245.692962646,,0.4639082551,-0.604910492897,-0.107437357306,0.63822388649
1511797070627479573,,16769,,1511797070,626323938,0,,,2157.64477539,186.413574219,246.248016357,,0.462906181812,-0.605768978596,-0.104792155325,0.638576984406
1511797070645077126,,16770,,1511797070,642870903,0,,,2157.84106445,186.134277344,246.33480835,,0.461213618517,-0.606483101845,-0.107666306198,0.638645589352
1511797070665994313,,16771,,1511797070,664639949,0,,,2157.59057617,186.765625,247.02645874,,0.461706459522,-0.606183171272,-0.104269042611,0.639137804508
1511797070683841032,,16772,,1511797070,682694911,0,,,2157.74536133,186.159667969,246.129455566,,0.463341116905,-0.604994595051,-0.105405889452,0.638894557953
1511797070703507386,,16773,,1511797070,702624082,0,,,2157.97949219,186.212402344,245.659606934,,0.462592929602,-0.60543680191,-0.105708383024,0.638967990875
1511797070723501344,,16774,,1511797070,722271919,0,,,2157.57348633,186.098632812,245.980224609,,0.461958318949,-0.60627502203,-0.105651736259,0.638641476631
1511797070743676501,,16775,,1511797070,742449045,0,,,2157.69140625,186.417724609,246.144348145,,0.462926179171,-0.605471491814,-0.107013009489,0.638476371765
1511797070771301917,,16776,,1511797070,770387887,0,,,2157.79125977,186.152099609,246.101531982,,0.464422374964,-0.604462623596,-0.106797292829,0.638381540775
1511797070782441240,,16777,,1511797070,781615018,0,,,2158.11303711,185.765136719,245.969207764,,0.46269968152,-0.605570971966,-0.108704246581,0.638260424137
1511797070802699782,,16778,,1511797070,801264047,0,,,2157.82202148,186.341308594,246.075744629,,0.461602568626,-0.605858445168,-0.10608536005,0.639221727848
1511797070827124417,,16779,,1511797070,825366973,0,,,2157.58666992,186.672607422,246.323974609,,0.462508380413,-0.605730116367,-0.105411559343,0.638799905777
1511797070843243323,,16780,,1511797070,840893030,0,,,2157.66235352,186.22265625,245.815704346,,0.462931066751,-0.605434477329,-0.106211937964,0.63864159584
1511797070867577438,,16781,,1511797070,865402936,0,,,2157.89770508,185.773193359,245.866027832,,0.463303267956,-0.605068743229,-0.107865765691,0.638441085815
1511797070881285980,,16782,,1511797070,879985094,0,,,2157.85913086,186.618652344,245.97869873,,0.461616367102,-0.605942308903,-0.106342963874,0.639089584351
1511797070901595250,,16783,,1511797070,900089025,0,,,2157.84643555,187.035888672,246.602905273,,0.46268004179,-0.605672478676,-0.105448901653,0.638724207878
1511797070922490615,,16784,,1511797070,919754028,0,,,2157.84912109,186.302734375,246.857391357,,0.462502032518,-0.60545527935,-0.10538944602,0.63906878233
1511797070942513375,,16785,,1511797070,941251993,0,,,2157.84423828,185.938720703,245.745605469,,0.463302522898,-0.604997932911,-0.106263712049,0.638777315617
1511797070960323792,,16786,,1511797070,959312915,0,,,2157.57788086,186.608642578,246.22366333,,0.461358964443,-0.606190741062,-0.105167344213,0.639234483242
1511797070979808219,,16787,,1511797070,978781938,0,,,2157.56420898,186.948486328,246.902008057,,0.461129069328,-0.606281757355,-0.104322306812,0.639452576637
1511797071005462855,,16788,,1511797071,4513978,0,,,2158.21313477,185.712890625,245.805053711,,0.464131653309,-0.60488396883,-0.109696745872,0.637702047825
1511797071019740459,,16789,,1511797071,18709897,0,,,2158.42797852,186.068847656,245.157196045,,0.465440273285,-0.604123771191,-0.108525276184,0.637669324875
1511797071039679730,,16790,,1511797071,38672924,0,,,2158.07324219,186.739990234,245.419006348,,0.464082211256,-0.605195105076,-0.10802923888,0.637727499008
1511797071059526709,,16791,,1511797071,58742046,0,,,2157.76977539,186.978759766,245.730010986,,0.463174849749,-0.60478579998,-0.106753692031,0.638988912106
1511797071078453427,,16792,,1511797071,77601909,0,,,2157.9831543,186.174560547,245.232727051,,0.465714156628,-0.604115188122,-0.108340226114,0.637508869171
1511797071098144990,,16793,,1511797071,97448110,0,,,2158.21191406,186.150146484,245.061553955,,0.465683758259,-0.60412979126,-0.109127528965,0.637383103371
1511797071117937646,,16794,,1511797071,117306947,0,,,2158.1105957,186.918212891,245.709655762,,0.463050663471,-0.6052749753,-0.106725133955,0.638620495796
1511797071142822386,,16795,,1511797071,141731977,0,,,2157.85522461,187.091796875,246.343200684,,0.463121026754,-0.605096459389,-0.106412157416,0.638790726662
1511797071158158323,,16796,,1511797071,157381057,0,,,2158.32324219,186.258056641,245.313598633,,0.466099768877,-0.603947043419,-0.108355671167,0.637383878231
1511797071183904105,,16797,,1511797071,182724952,0,,,2158.24658203,186.026611328,244.955078125,,0.465774923563,-0.604256153107,-0.108077116311,0.637375593185
1511797071198038323,,16798,,1511797071,196813106,0,,,2157.52734375,187.156738281,245.857086182,,0.460567861795,-0.606500148773,-0.10454197228,0.639613866806
1511797071218333532,,16799,,1511797071,217181921,0,,,2157.5378418,187.058349609,245.858428955,,0.462633311749,-0.605588793755,-0.106384247541,0.638682305813
1511797071238466657,,16800,,1511797071,236740112,0,,,2158.11425781,186.578857422,245.144348145,,0.466197133064,-0.603936135769,-0.108745619655,0.63725656271
1511797071257488792,,16801,,1511797071,256587982,0,,,2158.23583984,186.721435547,246.023071289,,0.465732634068,-0.604170382023,-0.106311067939,0.637784719467
1511797071277332229,,16802,,1511797071,276086091,0,,,2158.0402832,186.988525391,246.011627197,,0.462213337421,-0.605140805244,-0.105093464255,0.63962417841
1511797071299775979,,16803,,1511797071,298849105,0,,,2158.10473633,187.112060547,246.594512939,,0.464338511229,-0.604741811752,-0.105987839401,0.638313233852
1511797071318276032,,16804,,1511797071,316656112,0,,,2158.08032227,186.335693359,245.481384277,,0.46616101265,-0.603643238544,-0.107495322824,0.637772321701
1511797071337159625,,16805,,1511797071,335309028,0,,,2158.15942383,186.177246094,245.342895508,,0.464826107025,-0.60437387228,-0.107071563601,0.638125896454
1511797071357023063,,16806,,1511797071,355110883,0,,,2158.08984375,186.556152344,245.645385742,,0.462992727757,-0.604995965958,-0.106058783829,0.639037787914
1511797071376559417,,16807,,1511797071,374888896,0,,,2158.19287109,186.845458984,245.992980957,,0.464644789696,-0.604467153549,-0.107178173959,0.638151824474
1511797071396302542,,16808,,1511797071,394980907,0,,,2158.61669922,186.212158203,244.992950439,,0.467752069235,-0.603121638298,-0.109310261905,0.636791706085
1511797071423910719,,16809,,1511797071,423095941,0,,,2158.09521484,186.203613281,246.244354248,,0.463982224464,-0.603583335876,-0.105464413762,0.639753878117
1511797071435268167,,16810,,1511797071,434587955,0,,,2158.04516602,186.575439453,245.978820801,,0.462516844273,-0.605072259903,-0.106462001801,0.639243066311
1511797071455452386,,16811,,1511797071,453818082,0,,,2157.9375,187.158203125,246.549499512,,0.464660227299,-0.604514300823,-0.106268763542,0.638247966766
1511797071478430979,,16812,,1511797071,477579116,0,,,2158.18725586,186.760498047,245.918884277,,0.465206086636,-0.603821754456,-0.107028059661,0.638378858566
1511797071495091240,,16813,,1511797071,493630886,0,,,2158.23950195,186.426513672,246.189788818,,0.464394450188,-0.603724062443,-0.106472380459,0.639154613018
1511797071514454781,,16814,,1511797071,513545989,0,,,2158.30249023,186.626953125,245.505157471,,0.463711112738,-0.604610919952,-0.107468120754,0.63864582777
1511797071534113688,,16815,,1511797071,533137083,0,,,2158.11035156,186.994384766,245.807434082,,0.464686661959,-0.604437470436,-0.106859378517,0.638202786446
