rosbagTimestamp,header,seq,stamp,secs,nsecs,frame_id,pose,position,x,y,z,orientation,x,y,z,w
1511796649171617703,,1,,1511796649,170676946,0,,,2486.55151367,207.934326172,59.2850036621,,0.00329154729843,0.650114536285,0.00545147061348,-0.759809613228
1511796649193225568,,2,,1511796649,190335988,0,,,2486.41552734,208.054443359,59.3568725586,,0.00381417572498,0.650054693222,0.0048431456089,-0.759862422943
1511796649211133172,,3,,1511796649,210287094,0,,,2486.41723633,207.968505859,59.4719238281,,0.00353798270226,0.649934589863,0.0056436508894,-0.759961009026
1511796649231175776,,4,,1511796649,230151891,0,,,2486.50585938,208.051269531,59.4748535156,,0.0036436766386,0.64993596077,0.00546195358038,-0.759960711002
1511796649251933640,,5,,1511796649,250230073,0,,,2486.57666016,207.978027344,59.4331054688,,0.00341123342514,0.650004088879,0.00559612363577,-0.759902596474
1511796649272332182,,6,,1511796649,270198106,0,,,2486.58178711,207.902832031,59.3500366211,,0.00344148278236,0.650119841099,0.0054282695055,-0.759804606438
1511796649295637078,,7,,1511796649,293915033,0,,,2486.48828125,207.909423828,59.2907714844,,0.00335623323917,0.650050520897,0.00574061274529,-0.759861946106
1511796649311945568,,8,,1511796649,309912919,0,,,2486.50024414,208.001708984,59.361907959,,0.00327754020691,0.650121748447,0.00546681880951,-0.759803414345
1511796649331732182,,9,,1511796649,330363988,0,,,2486.44580078,208.029296875,59.396484375,,0.0035502910614,0.650016307831,0.00524496287107,-0.7598939538
1511796649355867651,,10,,1511796649,349934101,0,,,2486.42260742,207.999511719,59.4703369141,,0.00373688340187,0.649970412254,0.0053063929081,-0.759931921959
1511796649371295047,,11,,1511796649,369812965,0,,,2486.47924805,207.966064453,59.483215332,,0.00346378982067,0.649943709373,0.00530000030994,-0.759956002235
1511796649391238120,,12,,1511796649,389976978,0,,,2486.48632812,207.998535156,59.334564209,,0.00349701941013,0.650012671947,0.00512355566025,-0.759898126125
1511796649410419005,,13,,1511796649,409081935,0,,,2486.47338867,207.910888672,59.3155822754,,0.00332291424274,0.650079488754,0.00540844351053,-0.759839773178
1511796649431455567,,14,,1511796649,429109096,0,,,2486.37451172,207.939697266,59.3702697754,,0.00344121456146,0.649997889996,0.00542379170656,-0.759908914566
1511796649449823953,,15,,1511796649,448452949,0,,,2486.3581543,207.973632812,59.4313659668,,0.00344184041023,0.649898648262,0.00532285869122,-0.759994566441
1511796649472098380,,16,,1511796649,470592975,0,,,2486.42724609,207.960449219,59.4826965332,,0.00348389148712,0.649990618229,0.00503617525101,-0.759917616844
1511796649491911817,,17,,1511796649,489628076,0,,,2486.47875977,207.916992188,59.4469299316,,0.00356738269329,0.649982452393,0.00527999550104,-0.759922623634
1511796649512664109,,18,,1511796649,509150028,0,,,2486.51220703,207.905029297,59.3602905273,,0.0033428221941,0.650066971779,0.00537773966789,-0.759850561619
1511796649529643797,,19,,1511796649,528136014,0,,,2486.50854492,207.944580078,59.2993469238,,0.00334070622921,0.650047540665,0.00537333637476,-0.759867310524
1511796649549703380,,20,,1511796649,547696113,0,,,2486.41381836,207.96484375,59.3728027344,,0.00349800288677,0.650040686131,0.00528094172478,-0.759873151779
1511796649570019265,,21,,1511796649,567775964,0,,,2486.37597656,207.998779297,59.4286499023,,0.00347396731377,0.649935483932,0.00537791103125,-0.759962439537
1511796649593688797,,22,,1511796649,588615894,0,,,2486.45117188,207.995849609,59.4920959473,,0.00358940660954,0.649949073792,0.00534722208977,-0.759950459003
1511796649609260411,,23,,1511796649,606759071,0,,,2486.53198242,208.034667969,59.4286804199,,0.00344750285149,0.649879515171,0.00528653711081,-0.760011136532
1511796649632341609,,24,,1511796649,626743078,0,,,2486.52075195,207.954345703,59.3659973145,,0.00352817773819,0.650008141994,0.00537051260471,-0.759900152683
1511796649647789369,,25,,1511796649,646259069,0,,,2486.48876953,207.932373047,59.3082885742,,0.00318087637424,0.650052607059,0.00562611967325,-0.759861707687
1511796649669870567,,26,,1511796649,666114091,0,,,2486.41552734,207.964599609,59.3453674316,,0.00313200056553,0.650082290173,0.00542058050632,-0.759838044643
1511796649689096869,,27,,1511796649,686700105,0,,,2486.34204102,207.988037109,59.4435119629,,0.00353725254536,0.650021314621,0.00506526976824,-0.759890913963
1511796649708529942,,28,,1511796649,706540107,0,,,2486.00463867,208.244873047,59.361907959,,0.00365667045116,0.648928165436,0.00249593704939,-0.760836839676
1511796649726925932,,29,,1511796649,725615024,0,,,2486.49536133,207.963134766,59.4892272949,,0.00363737344742,0.649922609329,0.00509670376778,-0.759974718094
1511796649746641817,,30,,1511796649,745059013,0,,,2486.5300293,207.895996094,59.3656311035,,0.00325104594231,0.649932920933,0.00547453761101,-0.759964942932
1511796649776899526,,31,,1511796649,773706912,0,,,2486.44726562,207.90625,59.3067321777,,0.00321462750435,0.650099933147,0.00537464022636,-0.759822964668
1511796649784598380,,32,,1511796649,783745050,0,,,2486.37915039,207.920166016,59.3331298828,,0.00320899486542,0.650049507618,0.00561110675335,-0.759864330292
1511796649806974942,,33,,1511796649,805057048,0,,,2486.41137695,207.979248047,59.4482421875,,0.00322133302689,0.650007069111,0.005147382617,-0.759904026985
1511796649825068119,,34,,1511796649,823803901,0,,,2486.40649414,207.963134766,59.5026245117,,0.00348441302776,0.649954497814,0.00491473823786,-0.759949326515
1511796649846053119,,35,,1511796649,843213081,0,,,2486.42871094,207.988525391,59.4941101074,,0.00356206297874,0.64990478754,0.00507332384586,-0.75999045372
1511796649865887599,,36,,1511796649,863224029,0,,,2486.51269531,208.022705078,59.3520202637,,0.00332301855087,0.649943351746,0.00530651956797,-0.75995695591
1511796649883363328,,37,,1511796649,882432937,0,,,2486.48413086,207.957275391,59.2292480469,,0.0031945258379,0.649995923042,0.00536654144526,-0.759912073612
1511796649903768901,,38,,1511796649,902729034,0,,,2486.38793945,207.888671875,59.2823791504,,0.00332063436508,0.650014281273,0.00518164038658,-0.759897172451
1511796649924279474,,39,,1511796649,923197984,0,,,2486.34350586,207.865966797,59.4309692383,,0.00339041650295,0.649908423424,0.00509551912546,-0.759987950325
1511796649943279942,,40,,1511796649,942195892,0,,,2486.48461914,208.059326172,59.5602416992,,0.00361199676991,0.649685978889,0.00403873622417,-0.76018345356
1511796649963179682,,41,,1511796649,962029933,0,,,2486.43310547,207.987060547,59.5375061035,,0.00330294668674,0.649882793427,0.00525280833244,-0.760009288788
1511796649982797651,,42,,1511796649,981807947,0,,,2486.38549805,207.976318359,59.4201965332,,0.00340573489666,0.649988055229,0.00539537519217,-0.759917736053
1511796650003053588,,43,,1511796650,2067089,0,,,2486.36352539,207.973876953,59.2988891602,,0.00317206978798,0.650040626526,0.00552078336477,-0.759872913361
1511796650023884942,,44,,1511796650,22034883,0,,,2486.36035156,207.913085938,59.2983703613,,0.00325688719749,0.649899125099,0.00516978651285,-0.759996056557
1511796650041852494,,45,,1511796650,40931940,0,,,2486.36230469,207.918457031,59.421661377,,0.0034012645483,0.64992827177,0.00485942512751,-0.759972453117
1511796650061880619,,46,,1511796650,60914039,0,,,2486.39868164,208.025146484,59.478729248,,0.00351528823376,0.649811983109,0.00503061711788,-0.760070264339
1511796650081968380,,47,,1511796650,80849885,0,,,2486.47509766,208.110351562,59.4694824219,,0.00346300005913,0.649924635887,0.00521709769964,-0.759972989559
1511796650109393015,,48,,1511796650,101249933,0,,,2486.45117188,208.079589844,59.375213623,,0.00321623682976,0.649930357933,0.00539588183165,-0.75996786356
1511796650120934473,,49,,1511796650,120121002,0,,,2486.3581543,207.982666016,59.3517150879,,0.00342409312725,0.649982988834,0.00535704940557,-0.759922266006
1511796650141308744,,50,,1511796650,140096902,0,,,2486.32568359,207.927001953,59.4026184082,,0.00321850180626,0.649942755699,0.00541023164988,-0.759957134724
1511796650161309421,,51,,1511796650,160038948,0,,,2486.39868164,208.020263672,59.4829406738,,0.00317232310772,0.649928867817,0.00517482310534,-0.759970903397
1511796650181396348,,52,,1511796650,180514097,0,,,2486.38012695,208.103515625,59.5399169922,,0.00348007678986,0.649880468845,0.00496855378151,-0.76001226902
1511796650201116348,,53,,1511796650,199863910,0,,,2486.36376953,208.065673828,59.4382324219,,0.00337946414948,0.649817585945,0.00517977774143,-0.76006513834
1511796650223043015,,54,,1511796650,219854116,0,,,2486.33374023,207.990722656,59.3426208496,,0.00322833657265,0.649939358234,0.00514081865549,-0.759961903095
1511796650240867963,,55,,1511796650,239926099,0,,,2486.35839844,207.927490234,59.2980957031,,0.00317335128784,0.649936497211,0.00518077611923,-0.759964287281
1511796650260853796,,56,,1511796650,259917020,0,,,2486.33349609,207.938720703,59.3740234375,,0.00318570435047,0.649944841862,0.00516010075808,-0.759957373142
1511796650279292338,,57,,1511796650,278392076,0,,,2486.36767578,208.029785156,59.4427185059,,0.00330050289631,0.649804651737,0.00509211421013,-0.760077178478
1511796650300679578,,58,,1511796650,299205064,0,,,2486.36523438,208.068847656,59.4626159668,,0.00336168706417,0.649753689766,0.00496853888035,-0.760121226311
1511796650319428067,,59,,1511796650,318403005,0,,,2486.34692383,208.031005859,59.4516906738,,0.00326301157475,0.649936556816,0.00475967675447,-0.759966611862
1511796650339369994,,60,,1511796650,338277101,0,,,2486.29345703,207.966552734,59.3332214355,,0.00340384244919,0.649959087372,0.00500047951937,-0.75994515419
1511796650369213484,,61,,1511796650,365531921,0,,,2486.38525391,207.974853516,59.2890014648,,0.00311706960201,0.649984002113,0.00530260056257,-0.759922981262
1511796650378858119,,62,,1511796650,377882003,0,,,2486.44726562,208.060302734,59.3728027344,,0.00308005511761,0.649905204773,0.00534986704588,-0.759990215302
1511796650398695567,,63,,1511796650,397597074,0,,,2486.38232422,208.075439453,59.4868469238,,0.00334823131561,0.649890959263,0.00512339919806,-0.760002791882
1511796650421256609,,64,,1511796650,419663906,0,,,2486.33203125,207.984619141,59.5234985352,,0.00336669385433,0.649797081947,0.00505872815847,-0.760083556175
1511796650438284473,,65,,1511796650,436706066,0,,,2486.33349609,207.966552734,59.443939209,,0.00328816473484,0.649779975414,0.00500886887312,-0.760098814964
1511796650457671453,,66,,1511796650,456644058,0,,,2486.35717773,207.969238281,59.3153686523,,0.00326198339462,0.649839937687,0.00499940663576,-0.760047733784
1511796650478372755,,67,,1511796650,477195024,0,,,2486.35888672,207.963623047,59.2862854004,,0.00335459411144,0.64994686842,0.00518319755793,-0.759954690933
1511796650498698380,,68,,1511796650,497509956,0,,,2486.48266602,208.055419922,59.3952636719,,0.00321173667908,0.650007069111,0.00503147393465,-0.759904742241
1511796650518580984,,69,,1511796650,516941070,0,,,2486.46191406,208.027587891,59.452911377,,0.00331147015095,0.649896085262,0.0047472268343,-0.760001063347
1511796650538345202,,70,,1511796650,536626100,0,,,2486.27270508,207.949707031,59.5581665039,,0.00333416461945,0.649879693985,0.00490515679121,-0.76001393795
1511796650559947130,,71,,1511796650,557935953,0,,,2486.2487793,207.913085938,59.6127929688,,0.00350999832153,0.649734318256,0.00444163382053,-0.760140299797
1511796650577408432,,72,,1511796650,576031923,0,,,2486.3203125,208.0078125,59.4424438477,,0.00368720293045,0.649905383587,0.00429005175829,-0.759994149208
1511796650598888536,,73,,1511796650,597790002,0,,,2486.31787109,207.96484375,59.2500915527,,0.00316235423088,0.649849355221,0.00518357753754,-0.760038852692
1511796650618045984,,74,,1511796650,615530014,0,,,2486.39916992,207.896240234,59.2890014648,,0.00293512642384,0.649957120419,0.00536067038774,-0.759946346283
1511796650637660775,,75,,1511796650,635818004,0,,,2486.3659668,207.974121094,59.3541870117,,0.0032060444355,0.649856448174,0.00487228482962,-0.760034739971
1511796650660145671,,76,,1511796650,659159898,0,,,2486.38793945,207.973632812,59.5594787598,,0.00299546122551,0.64988297224,0.00496055930853,-0.760012209415
1511796650675492130,,77,,1511796650,674412012,0,,,2486.27197266,208.019042969,59.5057678223,,0.00339403748512,0.64977735281,0.00458259880543,-0.760103225708
1511796650697607442,,78,,1511796650,694135904,0,,,2486.21777344,208.012939453,59.3898620605,,0.00359570980072,0.649677872658,0.00497295707464,-0.760184884071
1511796650716180046,,79,,1511796650,714041948,0,,,2486.24633789,208.127685547,59.1833496094,,0.00341737270355,0.649880886078,0.00487489998341,-0.760012865067
1511796650735005255,,80,,1511796650,733932018,0,,,2486.42626953,208.016113281,59.2767333984,,0.00294242799282,0.649863481522,0.0053139179945,-0.760026693344
1511796650758781140,,81,,1511796650,756808996,0,,,2486.49536133,208.019042969,59.4009094238,,0.00312596559525,0.649862408638,0.00477223098278,-0.760030567646
1511796650775748067,,82,,1511796650,773318052,0,,,2486.42016602,208.042480469,59.4528808594,,0.00339162349701,0.649789214134,0.00486613810062,-0.760091423988
1511796650794461140,,83,,1511796650,793258905,0,,,2486.33496094,208.080078125,59.5023498535,,0.00325955450535,0.649638712406,0.00491309165955,-0.76022028923
1511796650815050723,,84,,1511796650,813030004,0,,,2486.18945312,207.997558594,59.5107727051,,0.00329074263573,0.64983779192,0.00469596683979,-0.760051429272
1511796650834329994,,85,,1511796650,832902908,0,,,2486.14941406,207.872070312,59.369934082,,0.00334037840366,0.649843931198,0.00492915511131,-0.760044395924
1511796650854287286,,86,,1511796650,852545976,0,,,2486.18530273,208.203613281,59.0363464355,,0.0031920671463,0.649103045464,0.0027781277895,-0.760688900948
1511796650873463275,,87,,1511796650,872400999,0,,,2486.43188477,207.982910156,59.2580566406,,0.00305999815464,0.649861693382,0.00497820973396,-0.760030150414
1511796650893982286,,88,,1511796650,892096996,0,,,2486.43334961,208.065185547,59.394317627,,0.0030282586813,0.649782657623,0.00497043132782,-0.760097801685
1511796650913515515,,89,,1511796650,912094116,0,,,2486.26123047,208.216552734,59.3731079102,,0.00357092916965,0.649548411369,0.00402819365263,-0.760301232338
1511796650933453952,,90,,1511796650,932466983,0,,,2486.19335938,208.033447266,59.4791870117,,0.00349089503288,0.649761021137,0.0047073662281,-0.760116040707
1511796650952514994,,91,,1511796650,951524019,0,,,2486.15966797,207.962402344,59.4021911621,,0.00323425233364,0.649722218513,0.00464811176062,-0.76015073061
1511796650973173119,,92,,1511796650,971400976,0,,,2486.25732422,207.897460938,59.3426513672,,0.00336900353432,0.649840831757,0.00480635464191,-0.760047733784
1511796650991495931,,93,,1511796650,990818977,0,,,2486.41870117,207.975830078,59.3458862305,,0.00288072228432,0.649795532227,0.00523430109024,-0.760085582733
1511796651011140984,,94,,1511796651,10437011,0,,,2486.50488281,208.105957031,59.4426879883,,0.00276438891888,0.649877429008,0.00499145686626,-0.760017693043
1511796651031426765,,95,,1511796651,30688047,0,,,2486.30883789,208.142822266,59.4772338867,,0.00326539576054,0.649802565575,0.00465241074562,-0.76008194685
1511796651052395775,,96,,1511796651,50951004,0,,,2486.08374023,208.188720703,59.309173584,,0.00368827581406,0.64939981699,0.00377604365349,-0.760428965092
1511796651072544056,,97,,1511796651,71073055,0,,,2486.16479492,207.929199219,59.4142456055,,0.00337685644627,0.649766266346,0.00476872175932,-0.760111629963
1511796651092573171,,98,,1511796651,90982913,0,,,2486.19726562,207.828125,59.2658081055,,0.00261078774929,0.649747014046,0.00539297610521,-0.760127067566
1511796651112151296,,99,,1511796651,110965013,0,,,2486.41748047,208.103759766,59.3876037598,,0.00300541520119,0.64977657795,0.00484425574541,-0.760103940964
1511796651131645463,,100,,1511796651,130404949,0,,,2486.38378906,208.183349609,59.3459472656,,0.00294059514999,0.649755358696,0.00512929260731,-0.760120511055
1511796651151894473,,101,,1511796651,150947093,0,,,2486.29467773,208.148193359,59.3289794922,,0.00290510058403,0.649811089039,0.00481247901917,-0.760074973106
1511796651170089109,,102,,1511796651,169414997,0,,,2486.12915039,208.005126953,59.4235534668,,0.00313138961792,0.649779200554,0.00459734350443,-0.760102748871
1511796651189755983,,103,,1511796651,189088106,0,,,2486.04492188,208.123291016,59.2563781738,,0.00330911576748,0.649443864822,0.00397425889969,-0.760392069817
1511796651211864525,,104,,1511796651,210886955,0,,,2486.28198242,207.945556641,59.4725646973,,0.00309051573277,0.649772942066,0.00480239838362,-0.760107040405
1511796651230166608,,105,,1511796651,229130983,0,,,2486.38305664,208.044189453,59.3792419434,,0.00293973088264,0.649731636047,0.00483556836843,-0.760142683983
1511796651250419161,,106,,1511796651,249372959,0,,,2486.30444336,208.135253906,59.3945922852,,0.00309212505817,0.649776875973,0.00471995770931,-0.760104060173
1511796651271651192,,107,,1511796651,270605087,0,,,2486.15234375,208.085449219,59.4339904785,,0.00311979651451,0.649684906006,0.00473034381866,-0.76018255949
1511796651293599108,,108,,1511796651,292530059,0,,,2486.14990234,208.010009766,59.4339294434,,0.00298660993576,0.649534225464,0.00466407835484,-0.760312318802
1511796651309914890,,109,,1511796651,308954000,0,,,2486.24731445,207.957275391,59.4050598145,,0.00306186079979,0.64962053299,0.00462214648724,-0.760238528252
1511796651328896817,,110,,1511796651,328099966,0,,,2486.31518555,207.980224609,59.3583984375,,0.00333800911903,0.649731636047,0.00467102229595,-0.760142028332
1511796651349797390,,111,,1511796651,348650932,0,,,2486.35693359,208.104980469,59.3583984375,,0.00299346446991,0.649786770344,0.00484445691109,-0.76009529829
1511796651370198900,,112,,1511796651,368534088,0,,,2486.2956543,208.132080078,59.3541564941,,0.00293511152267,0.649565458298,0.00489321351051,-0.760284304619
1511796651394835515,,113,,1511796651,393140077,0,,,2486.19165039,208.118896484,59.4643249512,,0.00309211015701,0.649713754654,0.00464566797018,-0.760158479214
1511796651412482858,,114,,1511796651,411489963,0,,,2486.09619141,208.146484375,59.3625793457,,0.00333966314793,0.649435162544,0.00403859466314,-0.760399103165
1511796651432902025,,115,,1511796651,431833028,0,,,2486.24707031,207.955078125,59.3890380859,,0.00335584580898,0.649593055248,0.00476691871881,-0.760259747505
1511796651452552129,,116,,1511796651,451646089,0,,,2486.3359375,208.010253906,59.3499755859,,0.0029111802578,0.6496078372,0.00474631786346,-0.760249137878
1511796651470308223,,117,,1511796651,468883991,0,,,2486.22753906,207.981689453,59.3541564941,,0.00322857499123,0.649775624275,0.00469072163105,-0.760104894638
1511796651492183171,,118,,1511796651,491529941,0,,,2486.14892578,208.069091797,59.4184265137,,0.00291059911251,0.649757504463,0.00494109839201,-0.760119915009
1511796651511529265,,119,,1511796651,510668039,0,,,2486.15576172,208.180908203,59.4589233398,,0.00285218656063,0.64979827404,0.00478565692902,-0.760086357594
1511796651526591869,,120,,1511796651,525723934,0,,,2486.18359375,208.182128906,59.4847106934,,0.003153398633,0.649676144123,0.00445412099361,-0.760191559792
1511796651547927910,,121,,1511796651,546150922,0,,,2486.28491211,208.106445312,59.4376220703,,0.00318141281605,0.649485945702,0.00452513992786,-0.760353565216
1511796651573408431,,122,,1511796651,572134971,0,,,2486.34228516,208.038574219,59.3605651855,,0.00300344824791,0.649583399296,0.00450117886066,-0.760271072388
1511796651588072598,,123,,1511796651,585561037,0,,,2486.26708984,208.005371094,59.3153991699,,0.00294318795204,0.649644970894,0.00464843213558,-0.760217905045
1511796651609172025,,124,,1511796651,605108022,0,,,2486.01269531,208.353271484,59.1468200684,,0.00324909389019,0.648984193802,0.00230892747641,-0.760791540146
1511796651626056712,,125,,1511796651,624917984,0,,,2486.11474609,208.111083984,59.393157959,,0.00312796235085,0.649686217308,0.00463377684355,-0.760182023048
1511796651647876348,,126,,1511796651,644548892,0,,,2486.24462891,208.083496094,59.461730957,,0.00302048027515,0.649555206299,0.00467788428068,-0.760294020176
1511796651668141556,,127,,1511796651,664989948,0,,,2486.30786133,208.008544922,59.5325012207,,0.00294931232929,0.649661660194,0.00433380901814,-0.760205388069
1511796651687185931,,128,,1511796651,684534072,0,,,2486.24731445,207.956787109,59.4425048828,,0.00316655635834,0.649629473686,0.00453174859285,-0.760231018066
1511796651705161921,,129,,1511796651,703744888,0,,,2486.203125,207.998779297,59.3031005859,,0.00297351181507,0.64974886179,0.00481761991978,-0.760127842426
1511796651729645098,,130,,1511796651,726517915,0,,,2486.16455078,208.171630859,59.2492675781,,0.00313340127468,0.64959025383,0.00437451899052,-0.760265469551
1511796651744363848,,131,,1511796651,742913007,0,,,2486.15063477,208.174316406,59.3834533691,,0.00307025015354,0.649668872356,0.00452919304371,-0.76019769907
1511796651765320046,,132,,1511796651,763096094,0,,,2486.17675781,208.129150391,59.4762878418,,0.00301256775856,0.649505138397,0.00440655648708,-0.760338425636
1511796651784753535,,133,,1511796651,782885074,0,,,2486.27978516,208.101318359,59.4962768555,,0.00294052064419,0.649462461472,0.00441704690456,-0.760375142097
1511796651804215671,,134,,1511796651,802994966,0,,,2486.2878418,208.110595703,59.4417419434,,0.00293616950512,0.649524152279,0.00440432876348,-0.76032269001
1511796651826897546,,135,,1511796651,825861930,0,,,2486.17358398,208.020019531,59.3461303711,,0.00326345860958,0.64966750145,0.00453178584576,-0.760197997093
1511796651843051035,,136,,1511796651,842086076,0,,,2486.10644531,208.001953125,59.3207397461,,0.00284035503864,0.649703323841,0.00475286692381,-0.760167777538
1511796651863855827,,137,,1511796651,861999988,0,,,2486.13647461,208.055908203,59.4013671875,,0.00285156071186,0.649686455727,0.00446172058582,-0.760183930397
1511796651888015150,,138,,1511796651,886739969,0,,,2486.17333984,208.083740234,59.5011901855,,0.00298339128494,0.649669647217,0.00435551255941,-0.760198354721
1511796651902346139,,139,,1511796651,901403903,0,,,2486.24316406,208.067382812,59.493560791,,0.00305189192295,0.649511694908,0.00437562167645,-0.760333061218
1511796651923082546,,140,,1511796651,921804904,0,,,2486.29760742,208.030517578,59.4555664062,,0.0030858963728,0.649566650391,0.00438608974218,-0.760285794735
1511796651942695150,,141,,1511796651,941292047,0,,,2486.22583008,207.978271484,59.3296813965,,0.00286547839642,0.649595379829,0.0046024993062,-0.760260879993
1511796651964116764,,142,,1511796651,962589979,0,,,2486.13671875,207.953125,59.262878418,,0.00291168689728,0.649649739265,0.00444769859314,-0.760215163231
1511796651987147962,,143,,1511796651,980973958,0,,,2486.05029297,208.316894531,59.1095275879,,0.00311017036438,0.648875653744,0.00245580077171,-0.760884284973
1511796652002587077,,144,,1511796652,998020,0,,,2486.25366211,208.190673828,59.4468383789,,0.00290261209011,0.649651050568,0.00440261512995,-0.760214269161
1511796652022660567,,145,,1511796652,21037101,0,,,2486.23950195,208.064208984,59.5063476562,,0.00295892357826,0.649421811104,0.00434450805187,-0.760410189629
1511796652041869733,,146,,1511796652,40481090,0,,,2486.17236328,207.995605469,59.3866271973,,0.00332812964916,0.649450004101,0.00360821187496,-0.760388553143
1511796652061551712,,147,,1511796652,60441017,0,,,2486.19921875,207.93359375,59.3687744141,,0.00288678705692,0.649662971497,0.00458719581366,-0.760203182697
1511796652081425983,,148,,1511796652,80112934,0,,,2486.44775391,208.200439453,59.330871582,,0.00302472710609,0.649458169937,0.003846347332,-0.760381698608
1511796652100776504,,149,,1511796652,99841117,0,,,2486.14672852,208.233886719,59.2170715332,,0.0029278844595,0.649489939213,0.00451295077801,-0.76035118103
1511796652122460931,,150,,1511796652,120326042,0,,,2485.96484375,208.389404297,59.0657958984,,0.00345243513584,0.649257719517,0.0035382732749,-0.760552465916
1511796652143144160,,151,,1511796652,140074014,0,,,2486.19677734,208.112792969,59.4943237305,,0.00308515131474,0.649402141571,0.0039282515645,-0.760428786278
1511796652160515306,,152,,1511796652,159527063,0,,,2486.23461914,208.037353516,59.4110412598,,0.00274641811848,0.649630129337,0.00408946722746,-0.760234475136
1511796652181761296,,153,,1511796652,179510116,0,,,2486.17749023,208.032470703,59.3070678711,,0.00293318927288,0.649632334709,0.00449115782976,-0.760229706764
1511796652199763587,,154,,1511796652,198748111,0,,,2486.16870117,208.100341797,59.3073425293,,0.00279097259045,0.649671316147,0.00459904968739,-0.760196328163
1511796652218638535,,155,,1511796652,217894077,0,,,2486.11181641,208.064208984,59.391998291,,0.00286450982094,0.649409472942,0.00450286269188,-0.760420203209
1511796652238504108,,156,,1511796652,237807035,0,,,2486.07421875,207.998535156,59.5215454102,,0.00302249193192,0.649584054947,0.00401274114847,-0.760273218155
1511796652265090879,,157,,1511796652,263140916,0,,,2486.13330078,207.971679688,59.4934082031,,0.00300639867783,0.649450838566,0.00410735607147,-0.760386705399
1511796652280114421,,158,,1511796652,278558015,0,,,2486.24707031,208.027832031,59.3953857422,,0.00299163162708,0.649539709091,0.00431886315346,-0.760309576988
1511796652303157806,,159,,1511796652,301760911,0,,,2486.21313477,208.138183594,59.2933654785,,0.0027524381876,0.649551153183,0.00454308837652,-0.760299444199
1511796652324745254,,160,,1511796652,323762893,0,,,2486.05444336,208.077392578,59.3063049316,,0.00305970013142,0.649654090405,0.00443504750729,-0.760210871696
1511796652337963900,,161,,1511796652,337038993,0,,,2486.00292969,208.06640625,59.3657531738,,0.00277796387672,0.649649322033,0.00444503873587,-0.760216116905
1511796652358657858,,162,,1511796652,357386112,0,,,2486.10473633,208.199462891,59.4890441895,,0.00295270979404,0.649561226368,0.0040577352047,-0.760292828083
1511796652379241296,,163,,1511796652,377974987,0,,,2486.21972656,208.277832031,59.5333557129,,0.00315986573696,0.64951390028,0.00381401926279,-0.760333657265
1511796652397941816,,164,,1511796652,396848917,0,,,2486.24462891,208.195068359,59.4047546387,,0.00303086638451,0.649441003799,0.00423638522625,-0.760394155979
1511796652418219681,,165,,1511796652,417154073,0,,,2486.21630859,208.037353516,59.2865905762,,0.00284361839294,0.649623334408,0.00440315902233,-0.760238170624
1511796652438275566,,166,,1511796652,437082052,0,,,2486.08618164,207.951171875,59.2496032715,,0.00270821154118,0.649642169476,0.0044442564249,-0.760222375393
1511796652459590983,,167,,1511796652,458475112,0,,,2486.03369141,208.040283203,59.3459472656,,0.00285476446152,0.649656832218,0.00430250912905,-0.760210216045
1511796652476886139,,168,,1511796652,475801944,0,,,2486.08007812,208.155517578,59.4793701172,,0.00293688476086,0.649545013905,0.00446880608797,-0.760304331779
1511796652496824420,,169,,1511796652,495671987,0,,,2486.21044922,208.248779297,59.560333252,,0.00285476446152,0.649518191814,0.00404545664787,-0.760330080986
1511796652517056087,,170,,1511796652,515811920,0,,,2486.22070312,208.077148438,59.5335693359,,0.00291047990322,0.649397909641,0.00432160496712,-0.760431051254
1511796652537450045,,171,,1511796652,535880088,0,,,2486.04956055,208.270751953,59.1544189453,,0.00324775278568,0.648903369904,0.0017881244421,-0.760861873627
1511796652560136816,,172,,1511796652,559009075,0,,,2486.02392578,208.165283203,59.0390625,,0.00325956940651,0.649479568005,0.00335893034935,-0.760364770889
1511796652575757962,,173,,1511796652,574455022,0,,,2486.140625,208.093994141,59.2840881348,,0.00272101163864,0.649600148201,0.00449362397194,-0.760257959366
1511796652595132493,,174,,1511796652,594259023,0,,,2486.03173828,208.439208984,59.2312927246,,0.00313466787338,0.648843467236,0.00215443223715,-0.760912537575
1511796652615891764,,175,,1511796652,614614963,0,,,2486.10180664,208.076660156,59.5294494629,,0.00323091447353,0.649415910244,0.00373903661966,-0.760417580605
1511796652636229993,,176,,1511796652,634340047,0,,,2486.08251953,207.968261719,59.4454650879,,0.00308358669281,0.649228274822,0.00406590104103,-0.760576605797
1511796652656924889,,177,,1511796652,653959989,0,,,2486.16040039,208.078613281,59.4022521973,,0.00275836884975,0.649474740028,0.00405897945166,-0.760367512703
1511796652675716764,,178,,1511796652,673851966,0,,,2485.95288086,208.021972656,59.3086547852,,0.00291745364666,0.649654388428,0.00440463423729,-0.760211467743
1511796652694718535,,179,,1511796652,693706989,0,,,2486.02978516,208.132324219,59.2804260254,,0.0027202218771,0.649652719498,0.00444906949997,-0.760213255882
1511796652714348587,,180,,1511796652,713212966,0,,,2486.12939453,208.161376953,59.3621520996,,0.00280778110027,0.649439871311,0.00402541458607,-0.760397136211
1511796652734434472,,181,,1511796652,733258962,0,,,2486.14282227,208.119873047,59.5441894531,,0.00292652845383,0.649472773075,0.00377260893583,-0.760369956493
1511796652757151087,,182,,1511796652,755059003,0,,,2486.10107422,208.076904297,59.5136413574,,0.00298354029655,0.649356603622,0.0041012018919,-0.760467290878
1511796652773805150,,183,,1511796652,772826910,0,,,2486.1105957,208.099853516,59.4100036621,,0.002894744277,0.649562001228,0.00413277000189,-0.760291874409
1511796652793112129,,184,,1511796652,792175054,0,,,2486.07348633,208.123291016,59.2238769531,,0.00277890264988,0.649553954601,0.00415053963661,-0.760299146175
1511796652814187650,,185,,1511796652,812908887,0,,,2486.02832031,208.067871094,59.222076416,,0.0030429661274,0.649644136429,0.00411193072796,-0.760221362114
1511796652833937858,,186,,1511796652,832565069,0,,,2486.09082031,208.12109375,59.3764953613,,0.00283300876617,0.649570584297,0.00413087755442,-0.760284900665
1511796652853799941,,187,,1511796652,852606058,0,,,2486.17431641,208.185546875,59.5251159668,,0.00272260606289,0.649509072304,0.00388138741255,-0.760339140892
1511796652873378691,,188,,1511796652,872067928,0,,,2486.13867188,208.109375,59.6177978516,,0.00283025205135,0.649516701698,0.00392758101225,-0.760331988335
1511796652893643743,,189,,1511796652,891545057,0,,,2486.13256836,207.873779297,59.4149169922,,0.00208139419556,0.6495885849,0.0044716745615,-0.760270059109
1511796652911823587,,190,,1511796652,910851955,0,,,2485.99707031,208.081787109,59.2982177734,,0.00294418632984,0.649597525597,0.00406038016081,-0.760261774063
1511796652931724629,,191,,1511796652,930680990,0,,,2486.35351562,208.173583984,59.2774658203,,0.00281326472759,0.649342298508,0.00337279587984,-0.76048374176
1511796652954646087,,192,,1511796652,951721906,0,,,2486.05078125,208.096435547,59.3536376953,,0.00273941457272,0.649583995342,0.00395882129669,-0.760274648666
1511796652972223014,,193,,1511796652,970948934,0,,,2486.07299805,208.099121094,59.4847717285,,0.00266443192959,0.649394929409,0.00398866832256,-0.760436177254
1511796652992154264,,194,,1511796652,990906000,0,,,2486.05566406,208.129882812,59.4473571777,,0.00272737443447,0.649400889874,0.00400446355343,-0.760430932045
1511796653016288952,,195,,1511796653,10763883,0,,,2486.07250977,208.164306641,59.3997497559,,0.00269293785095,0.649573802948,0.00398415327072,-0.760283470154
1511796653032849368,,196,,1511796653,30606985,0,,,2485.96508789,208.380859375,59.1329956055,,0.00311879813671,0.648864030838,0.00205548852682,-0.760895252228
1511796653055432441,,197,,1511796653,51222085,0,,,2486.07763672,208.137695312,59.2827148438,,0.00287529826164,0.649643719196,0.00394209474325,-0.760223209858
1511796653070869577,,198,,1511796653,69951057,0,,,2486.12060547,208.109863281,59.4019775391,,0.00267070531845,0.649495899677,0.00406371057034,-0.760349571705
1511796653096517545,,199,,1511796653,94371080,0,,,2486.08837891,208.133544922,59.5172424316,,0.00285531580448,0.64949297905,0.00393408536911,-0.760352015495
1511796653111214420,,200,,1511796653,109955072,0,,,2486.08642578,208.183349609,59.496673584,,0.00267301499844,0.649454891682,0.00425834953785,-0.760383605957
1511796653131507910,,201,,1511796653,130160093,0,,,2486.07543945,208.251708984,59.3206481934,,0.00289230048656,0.649295389652,0.00363340973854,-0.760522186756
1511796653152202337,,202,,1511796653,151494979,0,,,2486.05200195,208.092041016,59.3259277344,,0.00273711979389,0.649486601353,0.00404719263315,-0.760357439518
1511796653170444212,,203,,1511796653,168889999,0,,,2486.01269531,208.046142578,59.3284301758,,0.00304451584816,0.649515032768,0.00382272899151,-0.760333120823
1511796653193862233,,204,,1511796653,192739963,0,,,2486.07104492,208.144042969,59.3712158203,,0.00268492102623,0.649540543556,0.00401812791824,-0.760311663151
1511796653209009212,,205,,1511796653,208061933,0,,,2486.12890625,208.251708984,59.4258422852,,0.00271572172642,0.649486660957,0.00390365719795,-0.760358154774
1511796653233632024,,206,,1511796653,232713937,0,,,2486.07885742,208.200927734,59.5226745605,,0.0028535425663,0.649474084377,0.00375236570835,-0.760369181633
1511796653248191399,,207,,1511796653,247401952,0,,,2486.02246094,208.078613281,59.4284667969,,0.00282786786556,0.649393796921,0.00385749340057,-0.760437369347
1511796653270192962,,208,,1511796653,268142938,0,,,2486.14111328,208.053222656,59.4239196777,,0.00282090902328,0.64956599474,0.00369051098824,-0.760291099548
1511796653293502493,,209,,1511796653,292090892,0,,,2486.00488281,208.095703125,59.2595214844,,0.00273905694485,0.649497270584,0.00393231958151,-0.760348916054
1511796653308216347,,210,,1511796653,307105064,0,,,2486.0246582,208.16796875,59.365447998,,0.00281524658203,0.649535596371,0.00385281443596,-0.760316252708
1511796653328609733,,211,,1511796653,327164888,0,,,2485.99951172,208.141845703,59.501953125,,0.00276093184948,0.649469196796,0.00410234183073,-0.760371983051
1511796653347997910,,212,,1511796653,346769094,0,,,2486.17724609,208.152587891,59.6047973633,,0.00263683497906,0.649534106255,0.00354140251875,-0.760319769382
1511796653368884472,,213,,1511796653,367122888,0,,,2486.07617188,208.288330078,59.1346435547,,0.00293312966824,0.648553490639,0.00238153338432,-0.761159777641
1511796653388359681,,214,,1511796653,386843919,0,,,2486.08276367,208.099365234,59.3114013672,,0.00285297632217,0.649560213089,0.00401452183723,-0.760294318199
1511796653406956139,,215,,1511796653,405917882,0,,,2486.11621094,208.1484375,59.3170776367,,0.0026593208313,0.649544119835,0.00403815507889,-0.760308623314
1511796653426656712,,216,,1511796653,425698995,0,,,2486.05761719,208.159423828,59.3512573242,,0.00280557572842,0.649374902248,0.0040311217308,-0.760452747345
1511796653446448535,,217,,1511796653,445334911,0,,,2486.0065918,208.160400391,59.4426269531,,0.00293366611004,0.649455845356,0.00370946526527,-0.760384678841
1511796653466993483,,218,,1511796653,465914011,0,,,2486.00805664,208.142333984,59.4927062988,,0.00285944342613,0.649370789528,0.00385190546513,-0.760456860065
1511796653486657806,,219,,1511796653,485657930,0,,,2486.1003418,208.207763672,59.430847168,,0.0026663094759,0.649332761765,0.00395500659943,-0.760489583015
1511796653506024993,,220,,1511796653,505002021,0,,,2485.82714844,208.589111328,59.037902832,,0.00358261168003,0.64934694767,0.00179103016853,-0.760481834412
1511796653524236712,,221,,1511796653,523797988,0,,,2485.99194336,208.003662109,59.3082885742,,0.00301094353199,0.649383306503,0.00403451919556,-0.760444641113
1511796653544119628,,222,,1511796653,543564081,0,,,2485.97827148,208.004150391,59.3091125488,,0.00244843959808,0.649581313133,0.00401793420315,-0.760277688503
1511796653565536451,,223,,1511796653,565094947,0,,,2485.98901367,208.173583984,59.380859375,,0.00271989405155,0.649386763573,0.00368131697178,-0.760444581509
1511796653583459524,,224,,1511796653,583051919,0,,,2485.99365234,208.291503906,59.5094604492,,0.00289086997509,0.649391889572,0.0035882294178,-0.760439932346
1511796653603238170,,225,,1511796653,602835893,0,,,2486.02075195,208.200683594,59.5113220215,,0.00264884531498,0.649366080761,0.00390937924385,-0.760461390018
1511796653625487753,,226,,1511796653,625144004,0,,,2486.08447266,208.112304688,59.417388916,,0.00268760323524,0.649421751499,0.00389747321606,-0.760413765907
1511796653642809472,,227,,1511796653,642451047,0,,,2486.03222656,208.102539062,59.269744873,,0.00252671539783,0.649428427219,0.00378923863173,-0.760409116745
1511796653665590097,,228,,1511796653,662139892,0,,,2485.96142578,208.088134766,59.2984924316,,0.00297960639,0.649483501911,0.00370278209448,-0.760360956192
1511796653683210462,,229,,1511796653,682405948,0,,,2485.98510742,208.178955078,59.3913879395,,0.00269041955471,0.649468660355,0.00392426550388,-0.760373592377
1511796653702561660,,230,,1511796653,702025890,0,,,2486.01342773,208.270751953,59.5253601074,,0.00266544520855,0.649433612823,0.00380177795887,-0.760404169559
1511796653722275774,,231,,1511796653,721796035,0,,,2485.99780273,208.228515625,59.6376342773,,0.00288160145283,0.649436414242,0.0035612359643,-0.760402202606
1511796653743344420,,232,,1511796653,742448091,0,,,2485.99658203,208.071533203,59.4610900879,,0.00284966826439,0.649317085743,0.00381229817867,-0.760502934456
1511796653763152701,,233,,1511796653,762120008,0,,,2486.0612793,208.074707031,59.263092041,,0.00271981954575,0.649349808693,0.0039194971323,-0.760474920273
1511796653782660149,,234,,1511796653,781533002,0,,,2485.90795898,208.476074219,59.0921630859,,0.00284814834595,0.648949086666,0.00192119181156,-0.760824143887
1511796653802709680,,235,,1511796653,801723003,0,,,2485.9074707,208.31640625,59.3451538086,,0.00289225578308,0.649514317513,0.00373677164316,-0.760334730148
1511796653826064837,,236,,1511796653,822315931,0,,,2485.86157227,208.260986328,59.4874267578,,0.0026913434267,0.649343669415,0.00405472517014,-0.760479688644
1511796653843391764,,237,,1511796653,841984033,0,,,2485.99121094,208.264648438,59.5263061523,,0.00253131985664,0.649355590343,0.00368931144476,-0.760471940041
1511796653863106555,,238,,1511796653,861274003,0,,,2486.04003906,208.181884766,59.4690856934,,0.00268089771271,0.649387300014,0.00351767241955,-0.76044511795
1511796653882155514,,239,,1511796653,880920886,0,,,2486.02978516,208.125244141,59.3385009766,,0.00276872515678,0.649435043335,0.00369662791491,-0.760403156281
1511796653902224524,,240,,1511796653,900749921,0,,,2485.99804688,208.153564453,59.2658996582,,0.00261324644089,0.649488449097,0.00386030972004,-0.760357260704
1511796653922503899,,241,,1511796653,920675992,0,,,2485.93603516,208.168701172,59.3247070312,,0.00259943306446,0.649410009384,0.00379950553179,-0.760424554348
1511796653941827285,,242,,1511796653,940398931,0,,,2485.87255859,208.177490234,59.5093078613,,0.00278709828854,0.64942252636,0.00358263403177,-0.760414302349
1511796653961634055,,243,,1511796653,960541963,0,,,2485.94238281,208.176757812,59.5596313477,,0.0027816593647,0.649277806282,0.0036356151104,-0.760537743568
1511796653981260462,,244,,1511796653,980304002,0,,,2486.08520508,208.260986328,59.4733276367,,0.00263239443302,0.649226427078,0.00369433313608,-0.760581672192
1511796654003930410,,245,,1511796654,2769947,0,,,2486.0925293,208.2421875,59.3547363281,,0.00260384380817,0.649329185486,0.00378125160933,-0.760493755341
1511796654020707805,,246,,1511796654,19629955,0,,,2485.93334961,208.257324219,59.086730957,,0.00217041373253,0.649213254452,0.00435248762369,-0.760590910912
1511796654039515722,,247,,1511796654,38815021,0,,,2485.91870117,208.175537109,59.3356933594,,0.00255650281906,0.649560570717,0.00393178313971,-0.760295510292
1511796654065401920,,248,,1511796654,61019897,0,,,2485.97998047,208.321533203,59.4120178223,,0.00285738706589,0.64927303791,0.00326450914145,-0.760542988777
1511796654081290982,,249,,1511796654,80416917,0,,,2486.0234375,208.304931641,59.5491333008,,0.00286118686199,0.649333059788,0.00348948687315,-0.760490894318
1511796654103397805,,250,,1511796654,99999904,0,,,2486.02856445,208.282470703,59.5059509277,,0.00277104973793,0.649230778217,0.00373782217503,-0.760577321053
1511796654122503326,,251,,1511796654,121701002,0,,,2486.00561523,208.203369141,59.451171875,,0.00270363688469,0.649329781532,0.00381879508495,-0.760492742062
1511796654138531920,,252,,1511796654,137883901,0,,,2485.90087891,208.115966797,59.3283081055,,0.00245487689972,0.649366974831,0.00379122048616,-0.760461807251
1511796654158340514,,253,,1511796654,157543897,0,,,2485.80615234,208.063964844,59.3258361816,,0.00281251966953,0.649473071098,0.00373014807701,-0.760370373726
1511796654186855045,,254,,1511796654,181613922,0,,,2485.86083984,208.201660156,59.3900146484,,0.00259451568127,0.649423956871,0.00385817885399,-0.760412395
1511796654201287441,,255,,1511796654,199785947,0,,,2485.984375,208.305664062,59.4812927246,,0.00260157883167,0.649343967438,0.00341229885817,-0.760482728481
1511796654219705357,,256,,1511796654,217906951,0,,,2485.92651367,208.325683594,59.4336547852,,0.00294381380081,0.648812413216,0.00251169502735,-0.760938644409
1511796654239424159,,257,,1511796654,237852096,0,,,2485.94140625,208.072509766,59.4685974121,,0.00267659127712,0.649329543114,0.00362574309111,-0.76049387455
1511796654258085097,,258,,1511796654,257091045,0,,,2485.95727539,208.057861328,59.299621582,,0.00248549878597,0.649413943291,0.00379591435194,-0.76042163372
1511796654279320618,,259,,1511796654,277667999,0,,,2485.9765625,208.163818359,59.2387390137,,0.00254853069782,0.649409413338,0.00372574478388,-0.760425567627
1511796654300387493,,260,,1511796654,298763990,0,,,2485.96289062,208.299560547,59.3394775391,,0.0027561634779,0.649393677711,0.00347526371479,-0.760439515114
1511796654319054993,,261,,1511796654,316663026,0,,,2486.00024414,208.330322266,59.485534668,,0.00271670520306,0.649238228798,0.0035358145833,-0.760572075844
1511796654339262389,,262,,1511796654,336695909,0,,,2486.01025391,208.242431641,59.5551452637,,0.00264002382755,0.649196624756,0.0035400018096,-0.760607838631
1511796654357681034,,263,,1511796654,356556892,0,,,2486.00073242,208.232177734,59.5059204102,,0.00254884362221,0.649383068085,0.0035999789834,-0.760448753834
1511796654377034472,,264,,1511796654,375871896,0,,,2485.96826172,208.244384766,59.3724060059,,0.00272135436535,0.649405181408,0.00381988286972,-0.760428130627
1511796654396641243,,265,,1511796654,395550966,0,,,2485.92724609,208.373535156,59.2041320801,,0.00281699001789,0.649285316467,0.00307520478964,-0.760533630848
1511796654417204732,,266,,1511796654,415863990,0,,,2485.9675293,208.291503906,59.3276977539,,0.00267398357391,0.649360060692,0.00359084457159,-0.760468006134
1511796654437829055,,267,,1511796654,436115026,0,,,2485.96166992,208.406494141,59.4652099609,,0.00304841995239,0.649109601974,0.00241513550282,-0.760684967041
1511796654457035722,,268,,1511796654,455780029,0,,,2485.88012695,208.281494141,59.5488586426,,0.00291326642036,0.649245381355,0.00321957468987,-0.760566711426
1511796654485173795,,269,,1511796654,482707977,0,,,2485.93359375,208.204101562,59.4221496582,,0.00248003005981,0.649212479591,0.00361608713865,-0.76059448719
1511796654495874211,,270,,1511796654,494466066,0,,,2485.92407227,208.197021484,59.2861938477,,0.00243428349495,0.649284005165,0.00362186133862,-0.760533571243
1511796654515523274,,271,,1511796654,514458894,0,,,2485.83837891,208.155029297,59.3308410645,,0.00273314118385,0.649389505386,0.0035101249814,-0.760442972183
1511796654534883482,,272,,1511796654,533801078,0,,,2485.82348633,208.135009766,59.4168395996,,0.0024733543396,0.649392008781,0.00343385338783,-0.760441958904
1511796654556727076,,273,,1511796654,555322885,0,,,2485.70507812,207.895019531,59.403717041,,0.00163872539997,0.649423718452,0.00404527783394,-0.760414242744
1511796654575272128,,274,,1511796654,573837995,0,,,2485.91577148,208.292236328,59.5576171875,,0.00274364650249,0.649336338043,0.00328341126442,-0.760489523411
1511796654598771816,,275,,1511796654,594662904,0,,,2485.94018555,208.263671875,59.4362487793,,0.0028213262558,0.649229049683,0.00340835750103,-0.760580182076
1511796654613923274,,276,,1511796654,612961053,0,,,2486.02197266,208.196289062,59.3485412598,,0.00267603993416,0.649422168732,0.00359531491995,-0.760414838791
1511796654633452961,,277,,1511796654,632688045,0,,,2486.00244141,208.258056641,59.3126831055,,0.00242231786251,0.649334788322,0.00374243408442,-0.760489583015
1511796654653592441,,278,,1511796654,652512073,0,,,2485.91674805,208.373291016,59.3412780762,,0.00266233086586,0.649345099926,0.00340101867914,-0.760481595993
1511796654674566659,,279,,1511796654,672720909,0,,,2485.84912109,208.522216797,59.366607666,,0.00279818475246,0.649211108685,0.00318977981806,-0.760596513748
1511796654698732076,,280,,1511796654,694524049,0,,,2485.95092773,208.520996094,59.5337219238,,0.00258456170559,0.649292767048,0.0036723613739,-0.760525405407
1511796654713063326,,281,,1511796654,712052106,0,,,2485.98510742,208.417724609,59.501159668,,0.0026703774929,0.649240374565,0.00329676270485,-0.760571479797
1511796654734391607,,282,,1511796654,732173919,0,,,2485.91894531,208.236083984,59.4432067871,,0.00270242989063,0.649294614792,0.00345575064421,-0.760524392128
1511796654753267961,,283,,1511796654,751658916,0,,,2485.90209961,208.155517578,59.3532409668,,0.00237488746643,0.649388074875,0.00365971028805,-0.760444641113
1511796654772322440,,284,,1511796654,771214962,0,,,2485.8918457,208.232910156,59.2911071777,,0.00245915353298,0.649384081364,0.00360499322414,-0.760448098183
1511796654792501868,,285,,1511796654,791130065,0,,,2485.82080078,208.310058594,59.3953552246,,0.00269459187984,0.649350941181,0.00333116203547,-0.760476946831
1511796654812609003,,286,,1511796654,811248064,0,,,2485.81591797,208.207275391,59.533203125,,0.00275394320488,0.649197280407,0.00318952649832,-0.760608494282
1511796654832512076,,287,,1511796654,831079006,0,,,2485.85791016,208.098388672,59.5155029297,,0.00266858935356,0.649055838585,0.00299994647503,-0.760730266571
1511796654852501295,,288,,1511796654,851032018,0,,,2485.90649414,208.094970703,59.4404602051,,0.002416908741,0.649290263653,0.00308755040169,-0.76053071022
1511796654871606607,,289,,1511796654,870501995,0,,,2485.86962891,208.104736328,59.3733520508,,0.00249940156937,0.64937800169,0.00351015478373,-0.760453701019
1511796654891174524,,290,,1511796654,890199899,0,,,2485.93676758,208.224365234,59.3276977539,,0.00231766700745,0.64942908287,0.00379912555218,-0.760409295559
1511796654911256555,,291,,1511796654,910248994,0,,,2485.95385742,208.268066406,59.3699951172,,0.00244407355785,0.649284362793,0.00351995229721,-0.760533690453
1511796654931375878,,292,,1511796654,929799079,0,,,2485.84423828,208.249023438,59.5295715332,,0.00274980068207,0.649284183979,0.00300293415785,-0.760535061359
1511796654951394628,,293,,1511796654,950253963,0,,,2485.92016602,208.248535156,59.4171447754,,0.0027186870575,0.648927748203,0.00318273901939,-0.760838568211
1511796654971976815,,294,,1511796654,970485925,0,,,2485.95947266,208.301513672,59.4977416992,,0.00267460942268,0.649309694767,0.00348918884993,-0.760511517525
1511796654991928847,,295,,1511796654,990570068,0,,,2486.01855469,208.390869141,59.4051208496,,0.00229370594025,0.649255990982,0.00390640646219,-0.760556459427
1511796655015750305,,296,,1511796655,9968042,0,,,2485.92236328,208.394287109,59.322479248,,0.00264593958855,0.649416565895,0.00365273654461,-0.760419428349
1511796655030993742,,297,,1511796655,29689073,0,,,2485.83496094,208.386474609,59.3286743164,,0.00240179896355,0.649391233921,0.00368894636631,-0.760441720486
1511796655050853378,,298,,1511796655,49534082,0,,,2485.80175781,208.405273438,59.4499816895,,0.00259146094322,0.649254560471,0.00321530550718,-0.760560035706
1511796655072417857,,299,,1511796655,70514917,0,,,2485.79589844,208.343505859,59.6426086426,,0.00276882946491,0.649222254753,0.00297171622515,-0.760587990284
1511796655094452440,,300,,1511796655,93236923,0,,,2485.83276367,208.264404297,59.5663452148,,0.00256690382957,0.649196147919,0.00345079600811,-0.760608971119
1511796655109163326,,301,,1511796655,108364105,0,,,2485.90234375,208.200927734,59.4146728516,,0.00243365764618,0.649326264858,0.00355613976717,-0.760497927666
1511796655129788378,,302,,1511796655,128153085,0,,,2485.84936523,208.134765625,59.2315673828,,0.00234320759773,0.64935028553,0.0035295188427,-0.760477721691
1511796655150421347,,303,,1511796655,149116992,0,,,2485.75878906,208.139648438,59.2433166504,,0.00249126553535,0.649355709553,0.00308508425951,-0.76047462225
1511796655173223690,,304,,1511796655,168844938,0,,,2485.72241211,208.133056641,59.4590759277,,0.00260026752949,0.64923620224,0.00324457883835,-0.760575592518
1511796655190267024,,305,,1511796655,188082933,0,,,2485.83447266,208.176025391,59.6434936523,,0.0024257004261,0.649186789989,0.00307647883892,-0.760619103909
1511796655210316347,,306,,1511796655,207727909,0,,,2485.88964844,208.175537109,59.6328735352,,0.0024491250515,0.649264514446,0.00318273901939,-0.760552167892
1511796655238542128,,307,,1511796655,235820055,0,,,2486.04589844,207.997558594,59.3612976074,,0.00146369636059,0.649500250816,0.00370718538761,-0.760351061821
1511796655251197909,,308,,1511796655,250256061,0,,,2485.87670898,208.380859375,59.2568664551,,0.00256851315498,0.649383723736,0.00336313247681,-0.760449171066
1511796655273230253,,309,,1511796655,272042989,0,,,2485.84594727,208.442138672,59.3111572266,,0.00241306424141,0.649278104305,0.00353722274303,-0.76053917408
1511796655293257076,,310,,1511796655,292207956,0,,,2485.81005859,208.434814453,59.456451416,,0.00261852145195,0.649242758751,0.00322380661964,-0.760569930077
1511796655307753378,,311,,1511796655,307091951,0,,,2485.87231445,208.408935547,59.5407714844,,0.00272272527218,0.649084627628,0.00329408794641,-0.760704219341
1511796655329775930,,312,,1511796655,328378915,0,,,2485.92895508,208.405761719,59.4706726074,,0.0024815350771,0.649094998837,0.00327102839947,-0.760696291924
1511796655348043951,,313,,1511796655,346149921,0,,,2485.90283203,208.385742188,59.33203125,,0.00245624780655,0.649203598499,0.00329401344061,-0.760603666306
1511796655365907596,,314,,1511796655,365128040,0,,,2485.82299805,208.329833984,59.2776794434,,0.00257635116577,0.64934015274,0.00337740033865,-0.760486364365
1511796655401161138,,315,,1511796655,400167942,0,,,2485.71679688,208.256591797,59.3457336426,,0.00237798690796,0.649383485317,0.00359891355038,-0.760448992252
1511796655407237909,,316,,1511796655,404908895,0,,,2485.72875977,208.22265625,59.4615478516,,0.00232829153538,0.649199724197,0.0034423917532,-0.760606586933
1511796655429840253,,317,,1511796655,427700042,0,,,2485.77758789,208.204101562,59.5562133789,,0.00259298086166,0.649183213711,0.00296492129564,-0.760622024536
1511796655446848899,,318,,1511796655,444941043,0,,,2485.85131836,208.147460938,59.5003967285,,0.00274789333344,0.649078726768,0.00296529382467,-0.760710537434
1511796655464627753,,319,,1511796655,463692903,0,,,2485.91479492,208.148193359,59.4147949219,,0.00259283185005,0.649238467216,0.00306087732315,-0.760574400425
1511796655484844784,,320,,1511796655,483911991,0,,,2485.83959961,208.180908203,59.332611084,,0.00226624310017,0.649274885654,0.00320462137461,-0.760543823242
1511796655506191242,,321,,1511796655,503541946,0,,,2485.72167969,208.123535156,59.3243408203,,0.00260798633099,0.649357259274,0.00313100963831,-0.760472536087
1511796655524714003,,322,,1511796655,523448944,0,,,2485.71435547,208.211181641,59.374420166,,0.00248266756535,0.649348556995,0.00335112959146,-0.760479569435
1511796655544822023,,323,,1511796655,543144941,0,,,2485.83349609,208.332275391,59.4831237793,,0.00256907939911,0.64918589592,0.00311123579741,-0.760619163513
1511796655565001034,,324,,1511796655,563348054,0,,,2485.91088867,208.400146484,59.563659668,,0.00269620120525,0.649197340012,0.00286453217268,-0.760609865189
1511796655586835982,,325,,1511796655,582983970,0,,,2485.87890625,208.375244141,59.4714050293,,0.0024993121624,0.649156928062,0.00329854339361,-0.760643422604
1511796655603522232,,326,,1511796655,602597951,0,,,2485.86865234,208.380615234,59.3713684082,,0.00237266719341,0.64927816391,0.00349867343903,-0.760539412498
1511796655623483638,,327,,1511796655,622371912,0,,,2485.80932617,208.411376953,59.2836303711,,0.00225354731083,0.649254620075,0.00377190858126,-0.760558605194
1511796655643246294,,328,,1511796655,642102003,0,,,2485.72827148,208.429199219,59.3735961914,,0.00249847769737,0.649311423302,0.00335159897804,-0.760511279106
1511796655663772180,,329,,1511796655,662641048,0,,,2485.6628418,208.621826172,59.1285705566,,0.00316980481148,0.649011075497,0.002128072083,-0.760769367218
1511796655682692648,,330,,1511796655,681835889,0,,,2485.86450195,208.335449219,59.462677002,,0.00264155864716,0.649026751518,0.00291015952826,-0.76075553894
1511796655703128742,,331,,1511796655,701901912,0,,,2485.91113281,208.225585938,59.4942932129,,0.00244022905827,0.649206399918,0.00280881673098,-0.760603189468
1511796655722819523,,332,,1511796655,721636056,0,,,2485.77197266,208.117431641,59.3710632324,,0.0024661719799,0.649303734303,0.00310671329498,-0.760518908501
1511796655742055201,,333,,1511796655,741138935,0,,,2485.71142578,208.120117188,59.2533569336,,0.00229302048683,0.649406671524,0.00333192199469,-0.760430634022
1511796655765492023,,334,,1511796655,764463901,0,,,2485.72290039,208.211425781,59.3280944824,,0.00237606465816,0.64924710989,0.00313158333302,-0.760567426682
1511796655782292284,,335,,1511796655,780843973,0,,,2485.72875977,208.238037109,59.5263671875,,0.00264424085617,0.64922273159,0.00277457386255,-0.760588884354
1511796655801662128,,336,,1511796655,800741910,0,,,2485.77099609,208.175048828,59.6004638672,,0.00265181064606,0.649035453796,0.00272282958031,-0.760748684406
1511796655822639575,,337,,1511796655,820653915,0,,,2485.86352539,208.19140625,59.5350036621,,0.00246347486973,0.649019777775,0.00287817418575,-0.760762155056
1511796655842163221,,338,,1511796655,840909004,0,,,2485.84448242,208.240478516,59.4156188965,,0.00225956737995,0.649146556854,0.00317255407572,-0.760653436184
1511796655862733794,,339,,1511796655,861934900,0,,,2485.74609375,208.288330078,59.3386230469,,0.00239133834839,0.649395287037,0.00336857885122,-0.760439991951
1511796655881408221,,340,,1511796655,880019903,0,,,2485.70800781,208.389648438,59.3987426758,,0.00244751572609,0.649492800236,0.00333025306463,-0.760356545448
1511796655901227805,,341,,1511796655,899823904,0,,,2485.72900391,208.478271484,59.3790893555,,0.00253628194332,0.649233698845,0.00294429063797,-0.760579109192
1511796655923357857,,342,,1511796655,922050952,0,,,2485.74658203,208.488037109,59.5535888672,,0.00274837017059,0.649188816547,0.00259887427092,-0.760618031025
1511796655943179367,,343,,1511796655,942476034,0,,,2485.83666992,208.440673828,59.5325927734,,0.00271062552929,0.649007797241,0.0029981136322,-0.760771036148
1511796655960144888,,344,,1511796655,959234952,0,,,2485.9206543,208.424072266,59.4055480957,,0.00241099298,0.649204075336,0.00344110280275,-0.760602772236
1511796655980458638,,345,,1511796655,979296922,0,,,2485.86083984,208.463134766,59.2978515625,,0.00205653905869,0.649264335632,0.00382278859615,-0.760550439358
1511796655998919159,,346,,1511796655,998223066,0,,,2485.71289062,208.439453125,59.2796020508,,0.00230157375336,0.649312794209,0.00337970256805,-0.76051056385
1511796656018518742,,347,,1511796656,17904043,0,,,2485.6418457,208.290039062,59.4047241211,,0.00250786542892,0.649251461029,0.00327478349209,-0.760562777519
1511796656041048950,,348,,1511796656,39598941,0,,,2485.7956543,208.243408203,59.5884094238,,0.00261260569096,0.649102687836,0.00241565704346,-0.760692536831
1511796656059904940,,349,,1511796656,58690071,0,,,2485.75732422,208.120605469,59.5830688477,,0.00254407525063,0.64912956953,0.00258247554302,-0.760669231415
1511796656079447127,,350,,1511796656,78263998,0,,,2485.77270508,208.10546875,59.4544372559,,0.00248196721077,0.649259984493,0.00289467722178,-0.760557055473
1511796656099405721,,351,,1511796656,98084926,0,,,2485.80151367,208.174804688,59.2203979492,,0.0022277534008,0.649310290813,0.00319187343121,-0.760513663292
1511796656121879107,,352,,1511796656,118541955,0,,,2485.82080078,208.276611328,59.2263793945,,0.00225907564163,0.64929330349,0.00307093560696,-0.760528683662
1511796656139774627,,353,,1511796656,138704061,0,,,2485.69189453,208.310302734,59.4345092773,,0.00260701775551,0.649196267128,0.0025402829051,-0.760612368584
1511796656159697440,,354,,1511796656,158402919,0,,,2485.68725586,208.274902344,59.6005554199,,0.00280912220478,0.649001896381,0.00254193693399,-0.76077747345
1511796656178822180,,355,,1511796656,177392005,0,,,2485.79077148,208.304199219,59.5647583008,,0.00252225995064,0.648896872997,0.00273071229458,-0.760867476463
1511796656198616398,,356,,1511796656,196629047,0,,,2485.87744141,208.360351562,59.4409790039,,0.00232294201851,0.64921683073,0.00301589071751,-0.760593891144
1511796656218063950,,357,,1511796656,216684103,0,,,2485.83105469,208.318115234,59.2720031738,,0.00220920145512,0.649352192879,0.00344360619783,-0.760476946831
1511796656242331294,,358,,1511796656,241477966,0,,,2485.77392578,208.345214844,59.2501525879,,0.00215357542038,0.649382710457,0.00346957892179,-0.760450839996
1511796656258124836,,359,,1511796656,256628990,0,,,2485.76586914,208.422607422,59.3511352539,,0.0023445636034,0.64918422699,0.00315019488335,-0.760621190071
1511796656278469419,,360,,1511796656,276016950,0,,,2485.6887207,208.440185547,59.5762329102,,0.00282092392445,0.64908862114,0.00260778516531,-0.760703146458
1511796656297535252,,361,,1511796656,295974016,0,,,2485.73291016,208.400634766,59.5990600586,,0.00278924405575,0.648987531662,0.00271616131067,-0.760789096355
1511796656316652492,,362,,1511796656,315485954,0,,,2485.92407227,208.342041016,59.5593261719,,0.00262331962585,0.64920592308,0.00280473381281,-0.760603010654
1511796656337674107,,363,,1511796656,335131883,0,,,2485.84472656,208.365234375,59.2717895508,,0.00227071344852,0.649170160294,0.00288101285696,-0.760634422302
1511796656357364263,,364,,1511796656,354945898,0,,,2485.80029297,208.33984375,59.277130127,,0.00228677690029,0.64934772253,0.0031685307622,-0.760481715202
1511796656375793846,,365,,1511796656,374537944,0,,,2485.68164062,208.345703125,59.3561096191,,0.00231006741524,0.649259209633,0.00301279872656,-0.760557770729
1511796656395869054,,366,,1511796656,394210100,0,,,2485.62524414,208.287353516,59.5449829102,,0.00264105200768,0.649108827114,0.0024122223258,-0.760687172413
1511796656415305565,,367,,1511796656,414103984,0,,,2485.56738281,208.1015625,59.6579589844,,0.00272940099239,0.649111568928,0.00217559188604,-0.760685324669
1511796656434608169,,368,,1511796656,433641910,0,,,2485.67138672,208.029052734,59.5073547363,,0.00251856446266,0.649084508419,0.0026234164834,-0.760707676411
1511796656454469419,,369,,1511796656,453572034,0,,,2485.87109375,208.16796875,59.3321533203,,0.00218789279461,0.649298727512,0.00314579159021,-0.760523915291
1511796656475524106,,370,,1511796656,473221063,0,,,2485.86645508,208.364746094,59.2670288086,,0.00208948552608,0.649246573448,0.00332526862621,-0.760567963123
1511796656495045409,,371,,1511796656,493437051,0,,,2485.70996094,208.466064453,59.3883666992,,0.00238294899464,0.649251818657,0.0029309540987,-0.760564267635
1511796656520660513,,372,,1511796656,519299030,0,,,2485.54101562,208.396728516,59.5199584961,,0.0027372688055,0.649022459984,0.00289264321327,-0.760758876801
1511796656544028065,,373,,1511796656,542182922,0,,,2485.64892578,208.417480469,59.5238952637,,0.002525344491,0.649046480656,0.00262386351824,-0.760740220547
1511796656563016815,,374,,1511796656,562053918,0,,,2485.7956543,208.478759766,59.4816589355,,0.00246749818325,0.649142324924,0.00274314731359,-0.760658085346
1511796656572860096,,375,,1511796656,571953058,0,,,2485.84570312,208.562011719,59.3349914551,,0.00240422785282,0.649184286594,0.00303166359663,-0.76062142849
1511796656592585200,,376,,1511796656,591509103,0,,,2485.97753906,208.571044922,59.3628234863,,0.00230564177036,0.649426698685,0.00329713523388,-0.760413706303
1511796656613056034,,377,,1511796656,612221956,0,,,2485.76660156,208.509277344,59.378326416,,0.00229147076607,0.649185061455,0.00300056487322,-0.760621190071
