rosbagTimestamp,header,seq,stamp,secs,nsecs,frame_id,pose,position,x,y,z,orientation,x,y,z,w
1511999056540411622,,1,,1511999056,538646936,0,,,2160.68945312,-18.9802246094,-26.6915283203,,-0.00456379354,0.713632702827,0.0239368975163,-0.700096130371
1511999056549023288,,2,,1511999056,547683954,0,,,2160.44970703,-19.2548828125,-26.6017150879,,-0.00391210615635,0.713654339314,0.024030610919,-0.700074791908
1511999056571446726,,3,,1511999056,567616939,0,,,2160.44482422,-19.2199707031,-26.5934753418,,-0.00384274125099,0.713608980179,0.0241780132055,-0.700116336346
1511999056589492559,,4,,1511999056,587776899,0,,,2160.57788086,-19.20703125,-26.5802612305,,-0.00385929644108,0.713579833508,0.0240874886513,-0.700148999691
1511999056609410111,,5,,1511999056,607708930,0,,,2160.70092773,-19.2561035156,-26.5733642578,,-0.00390847027302,0.713615238667,0.0239825621247,-0.700116336346
1511999056629634278,,6,,1511999056,627664089,0,,,2160.63574219,-19.2973632812,-26.5649108887,,-0.00396040081978,0.713631749153,0.0239878967404,-0.700098991394
1511999056649225215,,7,,1511999056,647630929,0,,,2160.48803711,-19.3996582031,-26.5454101562,,-0.00403809547424,0.713662922382,0.0240019932389,-0.700066208839
1511999056669664069,,8,,1511999056,667073011,0,,,2160.36450195,-19.4426269531,-26.5587768555,,-0.0039913803339,0.713643193245,0.024089038372,-0.700083732605
1511999056688630267,,9,,1511999056,686840057,0,,,2160.55761719,-19.3957519531,-26.3896484375,,-0.00382387638092,0.713546156883,0.0235705822706,-0.700201153755
1511999056707749694,,10,,1511999056,706387996,0,,,2160.58374023,-19.4614257812,-26.5094604492,,-0.00396932661533,0.713689684868,0.0239336639643,-0.70004171133
1511999056727009226,,11,,1511999056,725982904,0,,,2160.63916016,-19.4606933594,-26.5778808594,,-0.00409463047981,0.713665544987,0.0239864513278,-0.700063824654
1511999056747487246,,12,,1511999056,746020078,0,,,2161.24560547,-19.17578125,-26.3179016113,,-0.00470672547817,0.714898228645,0.0239497199655,-0.698802471161
1511999056767922507,,13,,1511999056,766453981,0,,,2160.61425781,-19.2456054688,-26.5667724609,,-0.00396537780762,0.713567793369,0.0237987414002,-0.700170636177
1511999056786345528,,14,,1511999056,785134077,0,,,2160.46191406,-19.1875,-26.5722351074,,-0.00395950675011,0.713626563549,0.0240794494748,-0.700101137161
1511999056806967767,,15,,1511999056,805443048,0,,,2160.4296875,-19.2014160156,-26.5338745117,,-0.00389969348907,0.713608622551,0.0241510942578,-0.700117349625
1511999056826577819,,16,,1511999056,825325965,0,,,2160.58178711,-19.2443847656,-26.5145263672,,-0.00377929210663,0.713563382626,0.0240480080247,-0.700167536736
1511999056851515319,,17,,1511999056,845441102,0,,,2160.75146484,-19.1887207031,-26.4569702148,,-0.00381328165531,0.713623702526,0.0237072110176,-0.700117468834
1511999056871559746,,18,,1511999056,865374088,0,,,2160.68994141,-19.2446289062,-26.6022338867,,-0.00389419496059,0.713678121567,0.0238594263792,-0.700056493282
1511999056886987767,,19,,1511999056,885062932,0,,,2160.53173828,-19.3178710938,-26.6715698242,,-0.00400310754776,0.713735580444,0.0241305455565,-0.699987888336
1511999056907044851,,20,,1511999056,905167102,0,,,2160.38916016,-19.3427734375,-26.5746765137,,-0.00395677983761,0.713605880737,0.0241324454546,-0.700120449066
1511999056928444798,,21,,1511999056,924674987,0,,,2160.64746094,-19.2956542969,-26.5411071777,,-0.00427231192589,0.713634550571,0.0239174365997,-0.700096786022
1511999056948556465,,22,,1511999056,944155931,0,,,2160.60180664,-19.4553222656,-26.5639953613,,-0.00418394804001,0.713556110859,0.0239425897598,-0.700176417828
1511999056966319798,,23,,1511999056,963784933,0,,,2160.56396484,-19.5966796875,-27.0484924316,,-0.00410458445549,0.71334028244,0.024422749877,-0.700380027294
1511999056986011673,,24,,1511999056,982750892,0,,,2160.6796875,-19.2807617188,-26.6643066406,,-0.00401158630848,0.71359282732,0.0239308103919,-0.700140297413
1511999057005241986,,25,,1511999057,2552032,0,,,2160.55078125,-19.3134765625,-26.8525085449,,-0.00430829823017,0.71359449625,0.0243311002851,-0.700123071671
1511999057028316726,,26,,1511999057,25564908,0,,,2160.45239258,-19.3151855469,-26.6817932129,,-0.00415034592152,0.713615000248,0.0241213142872,-0.700110375881
1511999057050978653,,27,,1511999057,49990892,0,,,2160.4465332,-19.3447265625,-26.5788269043,,-0.00408662855625,0.713587939739,0.0239889472723,-0.700142920017
1511999057062649538,,28,,1511999057,61580896,0,,,2160.56787109,-19.3471679688,-26.5263366699,,-0.00413817167282,0.713639318943,0.024038426578,-0.700088500977
1511999057082062611,,29,,1511999057,81341028,0,,,2160.67919922,-19.3420410156,-26.5250549316,,-0.0040729790926,0.713673233986,0.0239504501224,-0.700057327747
1511999057101652611,,30,,1511999057,100910902,0,,,2160.7043457,-19.2514648438,-26.6251220703,,-0.00403918325901,0.713676929474,0.0239820405841,-0.70005273819
1511999057125007611,,31,,1511999057,124078035,0,,,2160.55834961,-19.2133789062,-26.644317627,,-0.00412957370281,0.713621973991,0.024146810174,-0.700102627277
1511999057141712350,,32,,1511999057,140954017,0,,,2160.40136719,-19.2663574219,-26.6266479492,,-0.00410844385624,0.713609576225,0.0241897925735,-0.700113832951
1511999057161953705,,33,,1511999057,160964965,0,,,2161.86914062,-18.4526367188,-26.6778564453,,-0.00659051537514,0.714546501637,0.0233079269528,-0.699168503284
1511999057181877819,,34,,1511999057,180843114,0,,,2160.71826172,-19.1491699219,-26.5785217285,,-0.00415106117725,0.713438391685,0.0239199027419,-0.700297236443
1511999057202499017,,35,,1511999057,201138019,0,,,2160.63720703,-19.1274414062,-26.6224365234,,-0.00407461822033,0.713619172573,0.0241745263338,-0.70010471344
1511999057221812819,,36,,1511999057,220688104,0,,,2160.69824219,-19.1774902344,-26.6736450195,,-0.00413396954536,0.713639199734,0.0239209234715,-0.700092673302
1511999057241663184,,37,,1511999057,240133047,0,,,2160.56030273,-19.3103027344,-26.7885131836,,-0.00420534610748,0.713626265526,0.0240418761969,-0.700101196766
1511999057260962194,,38,,1511999057,259819030,0,,,2160.43212891,-19.3161621094,-26.7976379395,,-0.0041901320219,0.713590681553,0.0242128893733,-0.700131833553
1511999057283083757,,39,,1511999057,279933929,0,,,2160.33105469,-19.5080566406,-27.0502319336,,-0.0044988244772,0.71345448494,0.0248027220368,-0.700248003006
1511999057301450267,,40,,1511999057,299614906,0,,,2160.54174805,-19.4606933594,-26.6866760254,,-0.00437596440315,0.713541328907,0.0242489799857,-0.700179696083
1511999057325177923,,41,,1511999057,320127964,0,,,2160.67944336,-19.5151367188,-26.6856079102,,-0.00425955653191,0.713631093502,0.0240286961198,-0.700096428394
1511999057344614121,,42,,1511999057,339468955,0,,,2160.65332031,-19.3916015625,-26.6999206543,,-0.00432723760605,0.713639140129,0.0240738615394,-0.700086474419
1511999057360475684,,43,,1511999057,359397888,0,,,2160.50268555,-19.3054199219,-26.6584777832,,-0.00423148274422,0.713623821735,0.0241367071867,-0.700100362301
1511999057380319902,,44,,1511999057,379360914,0,,,2160.35253906,-19.2956542969,-26.6338500977,,-0.00408267974854,0.713557064533,0.0241663753986,-0.700168251991
1511999057400629850,,45,,1511999057,399454116,0,,,2160.37841797,-19.2355957031,-26.6709899902,,-0.00400191545486,0.713526427746,0.0242710709572,-0.700196444988
1511999057419827298,,46,,1511999057,418682098,0,,,2160.64135742,-19.2082519531,-26.731048584,,-0.00423976778984,0.713591694832,0.024179585278,-0.700131654739
1511999057445400007,,47,,1511999057,438793897,0,,,2160.82519531,-19.1887207031,-26.7823486328,,-0.00438238680363,0.713612675667,0.0240519046783,-0.700113773346
1511999057459383600,,48,,1511999057,458209991,0,,,2160.81640625,-19.1296386719,-26.7947998047,,-0.00431698560715,0.713677585125,0.0240102484822,-0.70004940033
1511999057479701152,,49,,1511999057,478301048,0,,,2160.51367188,-19.12109375,-26.834777832,,-0.00433123111725,0.713641345501,0.0241913124919,-0.700079977512
1511999057498828340,,50,,1511999057,497622013,0,,,2160.3269043,-19.2490234375,-26.7015991211,,-0.00421224534512,0.713554441929,0.0243308395147,-0.700164437294
1511999057520195892,,51,,1511999057,518265962,0,,,2160.38500977,-19.4243164062,-26.5210571289,,-0.00405448675156,0.71355342865,0.0243209153414,-0.700166702271
1511999057539694329,,52,,1511999057,538285017,0,,,2160.82128906,-19.3308105469,-26.5755004883,,-0.00433255732059,0.713623523712,0.0239303261042,-0.700107216835
1511999057559431934,,53,,1511999057,557787895,0,,,2160.76269531,-19.3427734375,-26.7080688477,,-0.0042716562748,0.713604986668,0.0240339189768,-0.700122833252
1511999057579927663,,54,,1511999057,577672004,0,,,2160.60375977,-19.3349609375,-26.8453979492,,-0.00439049303532,0.713594317436,0.024133220315,-0.700129628181
1511999057598257454,,55,,1511999057,596793889,0,,,2160.65185547,-19.2707519531,-26.7684936523,,-0.00462508201599,0.713826060295,0.0239701792598,-0.699897348881
1511999057617672298,,56,,1511999057,616394042,0,,,2160.38208008,-19.4118652344,-26.7885437012,,-0.00436525046825,0.713497281075,0.0242070704699,-0.700226068497
1511999057645961569,,57,,1511999057,644217014,0,,,2160.56494141,-19.4235839844,-26.6944274902,,-0.00433465838432,0.713559746742,0.024145193398,-0.700164735317
1511999057658679746,,58,,1511999057,657100915,0,,,2160.8046875,-19.3405761719,-26.698638916,,-0.00449904799461,0.713604807854,0.0239758640528,-0.700123608112
1511999057679187819,,59,,1511999057,677784919,0,,,2160.78759766,-19.2609863281,-26.7896728516,,-0.00440579652786,0.713595628738,0.0239462032914,-0.700134575367
1511999057702991413,,60,,1511999057,701153039,0,,,2160.57446289,-19.2700195312,-26.9569091797,,-0.00438961386681,0.713626027107,0.0242757275701,-0.700092375278
1511999057727941517,,61,,1511999057,723355054,0,,,2160.84863281,-19.060546875,-26.7736206055,,-0.00555965304375,0.714657247066,0.0246087014675,-0.699019610882
1511999057742767142,,62,,1511999057,740942001,0,,,2160.41015625,-19.3212890625,-26.6259460449,,-0.00425182282925,0.713473618031,0.0242436602712,-0.700249671936
1511999057763897298,,63,,1511999057,757582902,0,,,2160.51025391,-19.2810058594,-26.5073852539,,-0.0041536539793,0.713545978069,0.0241648107767,-0.700179219246
1511999057776299121,,64,,1511999057,775131940,0,,,2160.81884766,-19.1791992188,-26.6180725098,,-0.00433145463467,0.713629662991,0.0239738076925,-0.700099349022
1511999057796389121,,65,,1511999057,795084953,0,,,2161.09667969,-18.9809570312,-26.7758789062,,-0.00486567616463,0.713923513889,0.0238261967897,-0.699801445007
1511999057815684381,,66,,1511999057,814418077,0,,,2160.64428711,-19.2346191406,-26.9548034668,,-0.00439386069775,0.713563799858,0.0241249203682,-0.700160980225
1511999057836259902,,67,,1511999057,835186958,0,,,2160.43164062,-19.3435058594,-26.9887695312,,-0.00444400310516,0.713568985462,0.0244668126106,-0.700143456459
1511999057855855059,,68,,1511999057,854537010,0,,,2160.48730469,-19.3840332031,-26.8151245117,,-0.00435775518417,0.713484108448,0.0243065357208,-0.700236141682
1511999057874996256,,69,,1511999057,873846054,0,,,2160.64990234,-19.2543945312,-26.7143554688,,-0.00447614490986,0.713517546654,0.0242345109582,-0.700203835964
1511999057895204590,,70,,1511999057,893688917,0,,,2160.75415039,-19.2463378906,-26.6557312012,,-0.00439558923244,0.713615775108,0.024000428617,-0.700112342834
1511999057915619329,,71,,1511999057,913139104,0,,,2160.72924805,-19.3449707031,-26.6884765625,,-0.00477585196495,0.713855683804,0.0239498242736,-0.699866890907
1511999057936205736,,72,,1511999057,933034896,0,,,2160.48999023,-19.5329589844,-26.8703613281,,-0.00440639257431,0.713611066341,0.0241750627756,-0.700110971928
1511999057956042871,,73,,1511999057,953425884,0,,,2160.35009766,-19.5437011719,-26.8861999512,,-0.00439102947712,0.713541507721,0.0244012996554,-0.700174093246
1511999057978168600,,74,,1511999057,972945928,0,,,2160.43847656,-19.3862304688,-26.8037109375,,-0.00444160401821,0.713496744633,0.0243739560246,-0.700220406055
1511999057997643965,,75,,1511999057,992732048,0,,,2160.89501953,-19.0822753906,-26.6433105469,,-0.0047651976347,0.713734269142,0.0239083468914,-0.699992120266
1511999058013998600,,76,,1511999058,12409925,0,,,2160.7512207,-19.2263183594,-26.6581115723,,-0.00446626543999,0.713590502739,0.0239603668451,-0.700139045715
1511999058034195944,,77,,1511999058,33194065,0,,,2160.6472168,-19.3146972656,-26.7774963379,,-0.00447951257229,0.7136079669,0.0240304544568,-0.700118660927
1511999058053689694,,78,,1511999058,52346944,0,,,2160.51025391,-19.2888183594,-26.9073791504,,-0.00444436073303,0.713607013226,0.0242598578334,-0.700111985207
1511999058073556673,,79,,1511999058,71683883,0,,,2160.7265625,-19.0317382812,-26.8517456055,,-0.00475709140301,0.713723599911,0.024122595787,-0.699995815754
1511999058093873913,,80,,1511999058,91577053,0,,,2160.54760742,-19.1247558594,-26.7691650391,,-0.00434605777264,0.713424801826,0.0243384838104,-0.700295448303
1511999058112602038,,81,,1511999058,111008882,0,,,2160.70703125,-19.1433105469,-26.5693969727,,-0.00436049699783,0.713551819324,0.0238936170936,-0.700181245804
1511999058132704069,,82,,1511999058,130847930,0,,,2160.71972656,-19.2666015625,-26.6870422363,,-0.00450867414474,0.71362632513,0.0240373909473,-0.700099408627
1511999058152349173,,83,,1511999058,150595903,0,,,2160.67114258,-19.3447265625,-26.7599182129,,-0.00448207557201,0.713666915894,0.0240970849991,-0.700056135654
1511999058173145631,,84,,1511999058,171166896,0,,,2160.56542969,-19.3374023438,-26.8291931152,,-0.00436854362488,0.713568747044,0.0241963863373,-0.700153589249
1511999058192095423,,85,,1511999058,190439939,0,,,2160.53320312,-19.2658691406,-26.8459472656,,-0.00445054471493,0.713540017605,0.0243128538132,-0.700178265572
1511999058211981256,,86,,1511999058,209892988,0,,,2160.51464844,-19.3337402344,-26.9301452637,,-0.00466974079609,0.713488280773,0.0245475694537,-0.700221478939
1511999058237863235,,87,,1511999058,236675977,0,,,2160.6484375,-19.4118652344,-26.6366271973,,-0.00433696806431,0.71352404356,0.0239802375436,-0.700206875801
1511999058254233392,,88,,1511999058,252516031,0,,,2160.81005859,-19.4367675781,-26.7353820801,,-0.00456975400448,0.713567733765,0.0238132327795,-0.700166463852
1511999058278150892,,89,,1511999058,269762992,0,,,2160.63867188,-19.3981933594,-26.8735351562,,-0.00449356436729,0.71359193325,0.0240573808551,-0.700133979321
1511999058290793652,,90,,1511999058,289331912,0,,,2160.55859375,-19.3156738281,-26.985534668,,-0.00474825501442,0.713549673557,0.024274431169,-0.700167894363
1511999058310834954,,91,,1511999058,309458971,0,,,2160.53417969,-19.3610839844,-26.8538208008,,-0.00459909439087,0.713517129421,0.0242109820247,-0.700204312801
1511999058330240058,,92,,1511999058,329116106,0,,,2160.5456543,-19.3859863281,-26.7514038086,,-0.00454907119274,0.713491857052,0.0242276936769,-0.70022970438
1511999058353464538,,93,,1511999058,349488019,0,,,2160.60839844,-19.4191894531,-26.7339782715,,-0.00453519821167,0.713509380817,0.0242383852601,-0.700211644173
1511999058372397038,,94,,1511999058,371167898,0,,,2160.64697266,-19.3291015625,-26.7196655273,,-0.00428110361099,0.713567793369,0.0241815820336,-0.700155615807
1511999058389923808,,95,,1511999058,388561010,0,,,2160.69726562,-19.2197265625,-26.8571472168,,-0.00453394651413,0.713534593582,0.0241612270474,-0.70018851757
1511999058409898183,,96,,1511999058,409060955,0,,,2160.77368164,-19.1696777344,-26.9238891602,,-0.00481632351875,0.713554799557,0.0241676643491,-0.700165867805
1511999058429745267,,97,,1511999058,428746938,0,,,2160.53686523,-19.3732910156,-26.828338623,,-0.00448776781559,0.713471472263,0.0242958813906,-0.700248479843
1511999058451155631,,98,,1511999058,450308084,0,,,2160.5324707,-19.3908691406,-26.7239990234,,-0.00440795719624,0.713510394096,0.0242881327868,-0.700209677219
1511999058468931829,,99,,1511999058,468175888,0,,,2160.95288086,-19.099609375,-26.5299987793,,-0.00480431318283,0.713986039162,0.0239260941744,-0.699734449387
1511999058488586621,,100,,1511999058,487179994,0,,,2160.75463867,-19.1984863281,-26.7619934082,,-0.00447365641594,0.713505744934,0.0239487886429,-0.700225651264
1511999058508857558,,101,,1511999058,508069992,0,,,2161.1628418,-19.0612792969,-26.7514648438,,-0.00572855770588,0.714695453644,0.0242543295026,-0.698991596699
1511999058528487662,,102,,1511999058,527555942,0,,,2160.65966797,-19.4069824219,-26.9583435059,,-0.00468498468399,0.713469088078,0.0241462215781,-0.700254797935
1511999058546779277,,103,,1511999058,546031951,0,,,2160.44677734,-19.41015625,-26.8593139648,,-0.00464288890362,0.713476240635,0.0244272947311,-0.700238227844
1511999058566982975,,104,,1511999058,566045999,0,,,2160.61425781,-19.2087402344,-26.6796264648,,-0.0046027302742,0.71346950531,0.0241232141852,-0.70025575161
1511999058592946465,,105,,1511999058,586932897,0,,,2161.15234375,-19.0710449219,-26.766998291,,-0.00528258085251,0.713628768921,0.0237231329083,-0.700102329254
1511999058608283756,,106,,1511999058,606787919,0,,,2160.70751953,-19.3747558594,-26.8489379883,,-0.00470940768719,0.713520884514,0.0240475684404,-0.700205385685
1511999058631265787,,107,,1511999058,630091905,0,,,2160.6171875,-19.3940429688,-26.899230957,,-0.00462038815022,0.713576734066,0.0240337848663,-0.700149416924
1511999058654566152,,108,,1511999058,651417016,0,,,2160.52416992,-19.3779296875,-27.0122680664,,-0.00478103756905,0.713523507118,0.0242462679744,-0.7001953125
1511999058671632767,,109,,1511999058,670671939,0,,,2160.56494141,-19.3395996094,-26.9111938477,,-0.00457182526588,0.713530421257,0.0242964103818,-0.700187861919
1511999058688137506,,110,,1511999058,685830116,0,,,2160.67529297,-19.2126464844,-26.7967529297,,-0.00466638803482,0.713547170162,0.0243177115917,-0.700169503689
1511999058706275527,,111,,1511999058,704952955,0,,,2160.7734375,-19.189453125,-26.6887817383,,-0.00455343723297,0.713537991047,0.0240075066686,-0.70019030571
1511999058726363339,,112,,1511999058,725378990,0,,,2160.79638672,-19.2473144531,-26.7750549316,,-0.00463989377022,0.713555574417,0.0240584686399,-0.700170040131
1511999058746601100,,113,,1511999058,745402097,0,,,2160.69775391,-19.3154296875,-26.7850646973,,-0.00456315279007,0.713536500931,0.0240735858679,-0.700189471245
1511999058767652402,,114,,1511999058,765934944,0,,,2160.55200195,-19.2976074219,-26.8832092285,,-0.00465896725655,0.713569283485,0.0244135484099,-0.700143635273
1511999058787567871,,115,,1511999058,785937070,0,,,2160.51586914,-19.2097167969,-26.906829834,,-0.00458471477032,0.713513791561,0.0243979468942,-0.700201332569
1511999058810214225,,116,,1511999058,809122085,0,,,2160.65771484,-19.2543945312,-26.8323059082,,-0.00457769632339,0.713513731956,0.0242426693439,-0.700206816196
1511999058823794902,,117,,1511999058,823005914,0,,,2160.78662109,-19.2482910156,-26.7929992676,,-0.00473512709141,0.713531374931,0.0240654274821,-0.700193822384
1511999058844829746,,118,,1511999058,843153953,0,,,2161.26245117,-18.9904785156,-26.7057800293,,-0.00586420297623,0.714346170425,0.0240299999714,-0.699355185032
1511999058865551464,,119,,1511999058,864543914,0,,,2160.74707031,-19.2763671875,-26.8235473633,,-0.00463888049126,0.713546514511,0.0238977968693,-0.700184822083
1511999058883483183,,120,,1511999058,882478952,0,,,2160.55517578,-19.3852539062,-26.9091186523,,-0.0045480877161,0.71353751421,0.0242212787271,-0.700183391571
1511999058903962402,,121,,1511999058,902462959,0,,,2160.52539062,-19.4052734375,-27.0598754883,,-0.00474919378757,0.713491737843,0.0245619267225,-0.700216829777
1511999058923598808,,122,,1511999058,922394037,0,,,2160.57958984,-19.5041503906,-26.872253418,,-0.00471989810467,0.713426053524,0.0243467912078,-0.700291514397
1511999058945405006,,123,,1511999058,942254066,0,,,2160.70214844,-19.4030761719,-26.6837158203,,-0.00467254221439,0.713492274284,0.0240475907922,-0.70023471117
1511999058963174641,,124,,1511999058,962105989,0,,,2160.69433594,-19.3181152344,-26.7157897949,,-0.00470042228699,0.713553309441,0.0240790843964,-0.700171232224
1511999058984423496,,125,,1511999058,981750011,0,,,2160.64697266,-19.3522949219,-26.7579040527,,-0.00468480587006,0.713577389717,0.0240078344941,-0.70014923811
1511999059002843652,,126,,1511999059,1540899,0,,,2160.55932617,-19.392578125,-26.9194641113,,-0.00458700954914,0.713564693928,0.024230197072,-0.700155138969
1511999059022451308,,127,,1511999059,21297931,0,,,2160.64355469,-19.3278808594,-27.0286865234,,-0.00462433695793,0.713489890099,0.0242551118135,-0.700230360031
1511999059043303183,,128,,1511999059,41902065,0,,,2160.84594727,-19.1291503906,-26.8574523926,,-0.00470216572285,0.713466405869,0.0241602435708,-0.700257062912
1511999059062203704,,129,,1511999059,60955047,0,,,2160.80761719,-19.1520996094,-26.8738708496,,-0.00480803847313,0.713449239731,0.0244127959013,-0.700264930725
1511999059083341256,,130,,1511999059,80789089,0,,,2160.74145508,-19.2141113281,-26.7717285156,,-0.00470061600208,0.713499724865,0.0241100639105,-0.700224637985
1511999059101685371,,131,,1511999059,100186109,0,,,2160.55932617,-19.4184570312,-26.826385498,,-0.00455918908119,0.713526129723,0.0241093114018,-0.700198769569
1511999059120843079,,132,,1511999059,120019912,0,,,2160.5,-19.505859375,-26.986114502,,-0.00473281741142,0.71356511116,0.0243936926126,-0.700148046017
1511999059140978860,,133,,1511999059,140057086,0,,,2160.52929688,-19.38671875,-26.9824829102,,-0.00480295717716,0.713486492634,0.0244834423065,-0.700224578381
1511999059160597558,,134,,1511999059,159544944,0,,,2161.1472168,-18.9555664062,-26.7445373535,,-0.00577227771282,0.714333295822,0.024412214756,-0.699355959892
1511999059183229485,,135,,1511999059,179572105,0,,,2160.77539062,-19.1791992188,-26.692565918,,-0.00472408533096,0.71339648962,0.023916170001,-0.700336456299
1511999059200516673,,136,,1511999059,199424028,0,,,2160.70263672,-19.3256835938,-26.8017272949,,-0.00480891764164,0.713469862938,0.0239713713527,-0.700259208679
1511999059220428600,,137,,1511999059,219311952,0,,,2160.62133789,-19.4938964844,-26.9694824219,,-0.00483773648739,0.713539004326,0.0240871906281,-0.700184643269
1511999059241276204,,138,,1511999059,239833116,0,,,2160.76855469,-19.3715820312,-26.9812011719,,-0.00492838025093,0.713460206985,0.0239485502243,-0.700268983841
1511999059260956048,,139,,1511999059,259407043,0,,,2160.68652344,-19.3251953125,-27.0267028809,,-0.00496572256088,0.713515758514,0.0243417546153,-0.700198590755
1511999059280392870,,140,,1511999059,278922080,0,,,2160.70654297,-19.2680664062,-26.8815002441,,-0.00490139424801,0.713456809521,0.0243188813329,-0.700259923935
1511999059300065370,,141,,1511999059,299083948,0,,,2160.65869141,-19.2766113281,-26.7603149414,,-0.00475165247917,0.713435173035,0.0241384059191,-0.700289189816
1511999059319904537,,142,,1511999059,318525075,0,,,2160.56542969,-19.3149414062,-26.8039550781,,-0.00474992394447,0.713474333286,0.0242463871837,-0.70024561882
1511999059339691048,,143,,1511999059,338745117,0,,,2160.53759766,-19.373046875,-26.9143981934,,-0.00476622581482,0.713490724564,0.0243038609624,-0.700226783752
1511999059358800162,,144,,1511999059,357832908,0,,,2160.6328125,-19.3708496094,-26.9991760254,,-0.00474417209625,0.713573813438,0.0243343263865,-0.700141191483
1511999059382043287,,145,,1511999059,379229068,0,,,2161.16333008,-18.9912109375,-26.9638671875,,-0.00568410754204,0.714114427567,0.0241967812181,-0.699587464333
1511999059398749277,,146,,1511999059,397793054,0,,,2160.87207031,-19.0151367188,-26.8871154785,,-0.00502371788025,0.713440895081,0.0242291837931,-0.70027834177
1511999059418073079,,147,,1511999059,417036056,0,,,2160.70996094,-19.0563964844,-26.7406616211,,-0.00472494959831,0.71343177557,0.0241743177176,-0.700291514397
1511999059445054225,,148,,1511999059,438457965,0,,,2160.56298828,-19.1789550781,-26.7963256836,,-0.00461992621422,0.713410615921,0.0242438614368,-0.700311362743
1511999059459929902,,149,,1511999059,458168983,0,,,2160.50341797,-19.2924804688,-26.9060668945,,-0.00477609038353,0.71349465847,0.0242157429457,-0.700225770473
1511999059482943183,,150,,1511999059,480842113,0,,,2160.47802734,-19.4514160156,-27.3569030762,,-0.0050957351923,0.713425338268,0.0247627720237,-0.700274944305
1511999059497270423,,151,,1511999059,496339082,0,,,2160.7277832,-19.3974609375,-27.1073608398,,-0.00513286888599,0.713532626629,0.0244619995356,-0.700176000595
1511999059517256881,,152,,1511999059,516227960,0,,,2160.75073242,-19.298828125,-26.9013061523,,-0.00500662624836,0.713441193104,0.0242790281773,-0.700276434422
1511999059539578287,,153,,1511999059,538496017,0,,,2160.64111328,-19.150390625,-26.7961120605,,-0.0049065798521,0.713426828384,0.0243228822947,-0.700290262699
1511999059561003756,,154,,1511999059,559978008,0,,,2160.53393555,-19.2878417969,-26.8073120117,,-0.0048660337925,0.713386237621,0.0242504626513,-0.700334370136
1511999059577688131,,155,,1511999059,575416088,0,,,2160.71826172,-19.5297851562,-26.9086608887,,-0.00487470626831,0.713434994221,0.0239747911692,-0.70029425621
1511999059596723600,,156,,1511999059,595796108,0,,,2160.69091797,-19.6511230469,-27.1147460938,,-0.00501881539822,0.713492572308,0.0242912173271,-0.700223624706
1511999059616660475,,157,,1511999059,615473985,0,,,2160.74365234,-19.515625,-27.1055297852,,-0.00513526797295,0.713533639908,0.0243911892176,-0.700177431107
1511999059636389693,,158,,1511999059,634869098,0,,,2160.70166016,-19.2082519531,-26.9322814941,,-0.00503568351269,0.713456690311,0.0243100374937,-0.700259327888
1511999059656248860,,159,,1511999059,655034065,0,,,2160.55786133,-19.06640625,-26.7723693848,,-0.00472219288349,0.713402748108,0.0242072045803,-0.700320005417
1511999059676605787,,160,,1511999059,675051927,0,,,2160.50805664,-19.1064453125,-26.8602294922,,-0.00480616092682,0.713396191597,0.0242752209306,-0.700323879719
1511999059695711881,,161,,1511999059,694529056,0,,,2160.6237793,-19.25390625,-26.9157104492,,-0.00482057034969,0.713432371616,0.0241880044341,-0.700289905071
1511999059716136985,,162,,1511999059,714647054,0,,,2160.78710938,-19.2836914062,-26.9924316406,,-0.0049591511488,0.713520586491,0.0242254137993,-0.700197815895
1511999059736794120,,163,,1511999059,735088109,0,,,2160.83081055,-19.1459960938,-26.9434814453,,-0.00493036210537,0.71353751421,0.0241791084409,-0.700182199478
1511999059758526099,,164,,1511999059,754092931,0,,,2160.70751953,-19.0229492188,-26.959777832,,-0.00504551827908,0.713518679142,0.0243196561933,-0.700195789337
1511999059776127558,,165,,1511999059,774113893,0,,,2160.50561523,-19.1005859375,-26.8009033203,,-0.00487916171551,0.713447213173,0.0242950692773,-0.700270652771
1511999059795581047,,166,,1511999059,793697118,0,,,2160.39868164,-19.2858886719,-26.7279052734,,-0.00480458140373,0.713398218155,0.0243057832122,-0.700320720673
1511999059815390631,,167,,1511999059,813998937,0,,,2160.54833984,-19.4165039062,-26.8350219727,,-0.0048331618309,0.7134745121,0.0243033245206,-0.700242877007
1511999059837457766,,168,,1511999059,833663940,0,,,2160.74047852,-19.4265136719,-26.9828186035,,-0.00492583215237,0.713531315327,0.0242843776941,-0.700185000896
1511999059858226933,,169,,1511999059,853012084,0,,,2161.13720703,-19.1306152344,-27.0557250977,,-0.00566700100899,0.713804721832,0.0240441709757,-0.699908971786
1511999059881899224,,170,,1511999059,880633115,0,,,2160.7734375,-19.2436523438,-27.1159057617,,-0.00529257953167,0.71346282959,0.0242022275925,-0.700255036354
1511999059894963235,,171,,1511999059,892391920,0,,,2160.59082031,-19.2971191406,-26.9926757812,,-0.00526639819145,0.713382005692,0.0243692174554,-0.700331628323
1511999059913476672,,172,,1511999059,911844015,0,,,2160.56982422,-19.3757324219,-26.8219604492,,-0.00496140122414,0.713373422623,0.0242725685239,-0.700346112251
1511999059941394537,,173,,1511999059,940263986,0,,,2160.79516602,-19.3200683594,-26.8864440918,,-0.00500270724297,0.71344012022,0.0240947976708,-0.700283944607
1511999059954393599,,174,,1511999059,951667070,0,,,2160.73583984,-19.3701171875,-27.0514831543,,-0.00502160191536,0.713479161263,0.0242641121149,-0.700238227844
1511999059972120839,,175,,1511999059,970937013,0,,,2160.76977539,-19.3488769531,-27.124420166,,-0.00528702139854,0.713567316532,0.0242640078068,-0.700146317482
1511999059991994641,,176,,1511999059,990931034,0,,,2160.66186523,-19.2707519531,-27.0377807617,,-0.00529336929321,0.713512301445,0.0242923349142,-0.700201451778
1511999060011692818,,177,,1511999060,10704994,0,,,2160.5065918,-19.2202148438,-26.8714599609,,-0.00501926243305,0.71343421936,0.0243578925729,-0.700280785561
1511999060038266672,,178,,1511999060,30736923,0,,,2160.53149414,-19.0026855469,-26.838684082,,-0.00487533211708,0.713443696499,0.0244983658195,-0.700267195702
1511999060053984276,,179,,1511999060,50626039,0,,,2160.97363281,-18.8234863281,-26.9677124023,,-0.00567689538002,0.713826715946,0.0244746655226,-0.699871480465
1511999060072073287,,180,,1511999060,70302009,0,,,2160.85595703,-19.1516113281,-27.0075683594,,-0.00509284436703,0.713471293449,0.0241857692599,-0.700248479843
1511999060098513964,,181,,1511999060,96584081,0,,,2160.81201172,-19.3156738281,-27.1202697754,,-0.00527518987656,0.713506817818,0.0241806060076,-0.700211048126
1511999060117723808,,182,,1511999060,110394001,0,,,2160.61254883,-19.2778320312,-27.1293029785,,-0.00530298054218,0.713557362556,0.0245465189219,-0.700146615505
1511999060136462245,,183,,1511999060,129723072,0,,,2160.53979492,-19.0852050781,-26.9765930176,,-0.00523136556149,0.713406980038,0.02438762784,-0.700305938721
1511999060151156933,,184,,1511999060,149677991,0,,,2160.51196289,-19.19140625,-26.8768005371,,-0.00499723851681,0.713365674019,0.0244129821658,-0.700348854065
1511999060171194485,,185,,1511999060,169450044,0,,,2160.69018555,-19.2612304688,-26.7832336426,,-0.00477720797062,0.713367164135,0.0238400548697,-0.700368583202
1511999060193883964,,186,,1511999060,189958095,0,,,2160.77783203,-19.4677734375,-27.0456542969,,-0.00519540905952,0.713417053223,0.0242544710636,-0.700300574303
1511999060210724068,,187,,1511999060,209064960,0,,,2160.83105469,-19.5053710938,-27.0498352051,,-0.00525707006454,0.713480293751,0.0242148414254,-0.700236976147
1511999060230598443,,188,,1511999060,229073047,0,,,2160.72265625,-19.4284667969,-27.0319824219,,-0.00525291264057,0.713485181332,0.0243230462074,-0.700228214264
1511999060250392089,,189,,1511999060,248923063,0,,,2160.46826172,-19.3984375,-27.0045166016,,-0.00475034117699,0.713118731976,0.0243568718433,-0.700603961945
1511999060269942662,,190,,1511999060,268590927,0,,,2160.4206543,-19.2712402344,-26.8557128906,,-0.00494930148125,0.713368296623,0.0244894698262,-0.70034378767
1511999060290375422,,191,,1511999060,288841009,0,,,2160.56933594,-19.1953125,-26.7915344238,,-0.00484865903854,0.713401317596,0.0243606939912,-0.700315356255
1511999060310035110,,192,,1511999060,308451890,0,,,2160.71972656,-19.1232910156,-26.9259338379,,-0.00500199198723,0.713416993618,0.0242117568851,-0.700303435326
1511999060329897245,,193,,1511999060,328759908,0,,,2160.78613281,-19.1057128906,-27.0841674805,,-0.00514027476311,0.713496446609,0.024145424366,-0.700223922729
1511999060349808651,,194,,1511999060,348413944,0,,,2160.73754883,-19.1545410156,-27.1620483398,,-0.0053153783083,0.71350312233,0.0242628827691,-0.700211644173
1511999060369537506,,195,,1511999060,367923974,0,,,2160.62548828,-19.1721191406,-27.0725402832,,-0.00512635707855,0.713413000107,0.0243753790855,-0.70030105114
1511999060389418860,,196,,1511999060,387923955,0,,,2160.61425781,-19.0729980469,-26.9856567383,,-0.00511008501053,0.71336388588,0.0245471596718,-0.700345277786
1511999060409093808,,197,,1511999060,407577037,0,,,2160.62158203,-19.1120605469,-26.9907226562,,-0.00516603887081,0.713358163834,0.0247175619006,-0.700344622135
1511999060429325735,,198,,1511999060,427623987,0,,,2160.70068359,-19.1782226562,-26.9103088379,,-0.00500796735287,0.713386118412,0.024357445538,-0.700329959393
1511999060449417922,,199,,1511999060,447834014,0,,,2160.69775391,-19.4152832031,-27.048248291,,-0.00519989430904,0.713430941105,0.0242743715644,-0.700285673141
1511999060468684641,,200,,1511999060,466742038,0,,,2160.62744141,-19.5915527344,-27.2064208984,,-0.00530672073364,0.713443815708,0.0244314596057,-0.700266361237
1511999060488841412,,201,,1511999060,487473011,0,,,2160.59814453,-19.5002441406,-27.1898193359,,-0.00532181560993,0.7134116292,0.024570427835,-0.700294137001
1511999060508486308,,202,,1511999060,506736993,0,,,2160.63183594,-19.3024902344,-27.0177307129,,-0.00516085326672,0.713406801224,0.0244481042027,-0.700304448605
1511999060528400005,,203,,1511999060,526959896,0,,,2160.64672852,-19.1633300781,-26.9171142578,,-0.00523598492146,0.71337890625,0.0243410542607,-0.700336098671
1511999060549249797,,204,,1511999060,548187971,0,,,2160.60473633,-19.3527832031,-27.1896057129,,-0.00546687841415,0.713366031647,0.0246215090156,-0.700337588787
1511999060575698026,,205,,1511999060,572056055,0,,,2161.65869141,-18.9182128906,-26.8522949219,,-0.00746534764767,0.715447425842,0.0243971422315,-0.698200464249
1511999060587241203,,206,,1511999060,585972070,0,,,2160.91455078,-19.2744140625,-27.1559753418,,-0.0053006708622,0.71330344677,0.0239727348089,-0.70042514801
1511999060610152037,,207,,1511999060,609091997,0,,,2160.64599609,-19.1677246094,-27.1679382324,,-0.00525580346584,0.713346302509,0.0246068611741,-0.700359761715
1511999060626447453,,208,,1511999060,624551057,0,,,2160.52612305,-19.0563964844,-26.9690856934,,-0.00508937239647,0.71330678463,0.0246204435825,-0.700400829315
1511999060645982505,,209,,1511999060,644783973,0,,,2160.45361328,-19.0617675781,-26.831817627,,-0.00500525534153,0.713333785534,0.0244848206639,-0.700378775597
1511999060666558860,,210,,1511999060,665005922,0,,,2160.97070312,-18.7958984375,-26.7006835938,,-0.00634332001209,0.714302539825,0.0243319347501,-0.699385106564
1511999060685661255,,211,,1511999060,684134960,0,,,2160.64501953,-19.1865234375,-27.0732727051,,-0.00519874691963,0.713369965553,0.0243521854281,-0.700345039368
1511999060704583599,,212,,1511999060,703731060,0,,,2160.74316406,-19.2646484375,-27.2006835938,,-0.00524067878723,0.713459670544,0.0243835374713,-0.70025229454
1511999060724170891,,213,,1511999060,723115921,0,,,2160.81445312,-19.2922363281,-27.3000183105,,-0.00548806786537,0.713442206383,0.0244629457593,-0.700265347958
1511999060744425578,,214,,1511999060,743237018,0,,,2160.69873047,-19.2397460938,-27.1772155762,,-0.00539922714233,0.713341236115,0.0244567319751,-0.700369179249
1511999060764321099,,215,,1511999060,762938976,0,,,2160.55688477,-19.1494140625,-26.9254150391,,-0.00515002012253,0.713276386261,0.0245305597782,-0.700434505939
1511999060792306985,,216,,1511999060,790843009,0,,,2160.5324707,-19.1450195312,-26.8868713379,,-0.00503531098366,0.713255465031,0.0244856029749,-0.700458168983
1511999060816339172,,217,,1511999060,814709901,0,,,2160.57958984,-19.2722167969,-27.1644592285,,-0.00523462891579,0.713340222836,0.0245376825333,-0.700368642807
1511999060825134953,,218,,1511999060,823802947,0,,,2160.67749023,-19.4489746094,-27.2884521484,,-0.00541660189629,0.713381171227,0.0243880003691,-0.700330734253
1511999060842042401,,219,,1511999060,841341972,0,,,2160.70166016,-19.3249511719,-27.4092102051,,-0.00619153678417,0.713347375393,0.0245999544859,-0.700351417065
1511999060861617349,,220,,1511999060,861139059,0,,,2161.17138672,-19.0568847656,-27.0603942871,,-0.00662741065025,0.714340507984,0.0247938856483,-0.699327528477
1511999060881199849,,221,,1511999060,880753040,0,,,2160.59960938,-19.1284179688,-26.938873291,,-0.00526155531406,0.713285207748,0.0244446024299,-0.700427651405
1511999060901151464,,222,,1511999060,900665998,0,,,2160.47900391,-19.09375,-26.9238586426,,-0.0051129758358,0.713313639164,0.0245388522744,-0.700396537781
1511999060921035474,,223,,1511999060,920620918,0,,,2160.60961914,-19.1762695312,-27.0692749023,,-0.00517112016678,0.713384032249,0.024348154664,-0.700331091881
1511999060942183547,,224,,1511999060,941750049,0,,,2160.81347656,-19.234375,-27.2536621094,,-0.00544485449791,0.713439941406,0.0242923349142,-0.700273990631
1511999060961872453,,225,,1511999060,960592985,0,,,2160.8269043,-19.173828125,-27.2642822266,,-0.00549054145813,0.713416755199,0.0244235396385,-0.700292825699
1511999060981834380,,226,,1511999060,980633020,0,,,2160.68188477,-19.1166992188,-27.1636352539,,-0.00540870428085,0.713337421417,0.0246165767312,-0.700367391109
1511999061003238859,,227,,1511999061,1068115,0,,,2160.46533203,-19.1096191406,-26.9730529785,,-0.00500695407391,0.71324378252,0.0246792659163,-0.700463473797
1511999061023366464,,228,,1511999061,20651102,0,,,2160.45288086,-19.0952148438,-26.8901062012,,-0.00500167906284,0.713266730309,0.0245975106955,-0.700443148613
1511999061041411724,,229,,1511999061,39942026,0,,,2160.83862305,-19.091796875,-26.9609680176,,-0.005411028862,0.713418006897,0.0240994244814,-0.700303256512
1511999061061227609,,230,,1511999061,59849977,0,,,2160.99438477,-19.2827148438,-27.155090332,,-0.00579991936684,0.713527202606,0.0241361632943,-0.70018774271
1511999061080771359,,231,,1511999061,79683065,0,,,2160.74462891,-19.6088867188,-27.2761230469,,-0.0055989921093,0.713405013084,0.0244623422623,-0.700302541256
1511999061101000682,,232,,1511999061,99494934,0,,,2160.67797852,-19.52734375,-27.2063903809,,-0.00546543300152,0.713375329971,0.0245139822364,-0.700331926346
1511999061120671516,,233,,1511999061,119419097,0,,,2160.91455078,-19.1896972656,-27.0532226562,,-0.00588047504425,0.713625133038,0.0243490040302,-0.700079739094
1511999061149754120,,234,,1511999061,148056030,0,,,2160.59790039,-19.1748046875,-27.0211791992,,-0.00526303052902,0.71321618557,0.0244310051203,-0.700498461723
1511999061159636880,,235,,1511999061,158642053,0,,,2160.52905273,-19.13671875,-27.009979248,,-0.00522862374783,0.71326571703,0.0244698747993,-0.700446844101
1511999061188458807,,236,,1511999061,187545061,0,,,2160.60839844,-19.2932128906,-27.1190490723,,-0.00545710325241,0.713354885578,0.0244425162673,-0.700355410576
1511999061199929016,,237,,1511999061,198810100,0,,,2160.67089844,-19.3952636719,-27.2423095703,,-0.00544887781143,0.71342843771,0.0244477838278,-0.700280308723
1511999061221286776,,238,,1511999061,220010995,0,,,2160.74438477,-19.3322753906,-27.2964172363,,-0.00547322630882,0.713371813297,0.0244939848781,-0.700336158276
1511999061242726203,,239,,1511999061,241561889,0,,,2161.16699219,-18.9025878906,-27.1058654785,,-0.00608146190643,0.713583648205,0.0240557566285,-0.700130462646
1511999061259595943,,240,,1511999061,258446931,0,,,2160.59936523,-19.0625,-27.1206054688,,-0.0051835924387,0.713000953197,0.0247281268239,-0.700707674026
1511999061279364797,,241,,1511999061,278208017,0,,,2160.55688477,-19.0524902344,-26.9691162109,,-0.00524112582207,0.713267326355,0.0245818942785,-0.700441241264
1511999061300832245,,242,,1511999061,299457073,0,,,2160.58740234,-19.1818847656,-27.0104370117,,-0.00526329874992,0.71335375309,0.0243939384818,-0.700359642506
1511999061322241151,,243,,1511999061,320982933,0,,,2160.68823242,-19.3586425781,-27.216003418,,-0.00551682710648,0.713444471359,0.0244018137455,-0.700265049934
1511999061341427349,,244,,1511999061,340410947,0,,,2160.76953125,-19.3469238281,-27.3280029297,,-0.00556735694408,0.713424801826,0.0245109722018,-0.700280845165
1511999061359211516,,245,,1511999061,358372926,0,,,2160.77734375,-19.154296875,-27.2357177734,,-0.00553397834301,0.713328063488,0.0245546549559,-0.700378119946
1511999061379176516,,246,,1511999061,378278970,0,,,2160.6796875,-19.0268554688,-27.0648498535,,-0.00553315877914,0.713271141052,0.0246408134699,-0.700432956219
1511999061397557349,,247,,1511999061,396554946,0,,,2160.58227539,-19.1018066406,-26.8960876465,,-0.00526985526085,0.713225841522,0.0243689119816,-0.700490653515
1511999061416355057,,248,,1511999061,415689945,0,,,2160.52954102,-19.2954101562,-26.9610290527,,-0.0053087323904,0.713312745094,0.0242751464248,-0.700405240059
1511999061436424588,,249,,1511999061,435631990,0,,,2160.75585938,-19.384765625,-27.1578674316,,-0.00548578798771,0.713381946087,0.0239961817861,-0.700342953205
1511999061457041463,,250,,1511999061,455872058,0,,,2160.93823242,-19.4216308594,-27.3315124512,,-0.00590957701206,0.71349722147,0.0241313576698,-0.700217485428
1511999061476751672,,251,,1511999061,475737094,0,,,2160.765625,-19.3696289062,-27.344909668,,-0.00581972301006,0.713315725327,0.0244790017605,-0.700390994549
1511999061497397870,,252,,1511999061,495978116,0,,,2160.50634766,-19.2668457031,-27.481262207,,-0.00560232996941,0.713004589081,0.0248846784234,-0.70069527626
1511999061519053599,,253,,1511999061,515350103,0,,,2160.38354492,-19.0075683594,-26.957611084,,-0.00542896986008,0.713221430779,0.0247469991446,-0.700480759144
1511999061539583703,,254,,1511999061,535540103,0,,,2160.4230957,-19.0690917969,-26.9051818848,,-0.0051516443491,0.713294923306,0.0245475396514,-0.700415074825
1511999061556405578,,255,,1511999061,555217027,0,,,2160.67773438,-19.1865234375,-27.1391296387,,-0.00531741976738,0.7134334445,0.0243353918195,-0.70028012991
1511999061576177349,,256,,1511999061,575012922,0,,,2161.33642578,-18.9685058594,-27.3736572266,,-0.00654445588589,0.714029967785,0.0241976901889,-0.699666202068
1511999061595947193,,257,,1511999061,594979047,0,,,2161.01293945,-19.0642089844,-27.2952270508,,-0.00576566159725,0.713315844536,0.0242670625448,-0.700398683548
1511999061615541984,,258,,1511999061,614450931,0,,,2160.74755859,-18.998046875,-27.0409240723,,-0.00556878745556,0.713302910328,0.0244904458523,-0.700405716896
1511999061637118547,,259,,1511999061,635370016,0,,,2160.92382812,-18.8806152344,-27.0178833008,,-0.00599493086338,0.713263809681,0.0243740975857,-0.700445890427
1511999061657707140,,260,,1511999061,655498027,0,,,2160.40649414,-19.2143554688,-26.9058532715,,-0.0051206946373,0.713238954544,0.0246091485023,-0.700470089912
1511999061676661620,,261,,1511999061,674948930,0,,,2160.59472656,-19.2702636719,-27.1396179199,,-0.0053835362196,0.713401794434,0.0244817584753,-0.700306713581
1511999061694661359,,262,,1511999061,693268060,0,,,2160.86572266,-19.3381347656,-27.3015136719,,-0.00570383667946,0.713444173336,0.0242050513625,-0.700270593166
1511999061713992557,,263,,1511999061,713061094,0,,,2160.91210938,-19.3312988281,-27.3678588867,,-0.00596275925636,0.713397681713,0.024297118187,-0.70031273365
1511999061734697140,,264,,1511999061,733184099,0,,,2160.69628906,-19.2121582031,-27.1610107422,,-0.00585776567459,0.713269233704,0.0245088860393,-0.700436830521
1511999061754190161,,265,,1511999061,752964019,0,,,2160.75878906,-19.0366210938,-26.8407592773,,-0.00588525831699,0.713476121426,0.0243639424443,-0.700231194496
1511999061775551463,,266,,1511999061,774302005,0,,,2160.50976562,-19.2563476562,-26.8936157227,,-0.00512981414795,0.713225781918,0.0243245214224,-0.700493514538
1511999061793822974,,267,,1511999061,792591094,0,,,2160.68457031,-19.22265625,-27.2048339844,,-0.00542166829109,0.71337646246,0.0242837592959,-0.700339078903
1511999061814750213,,268,,1511999061,813071966,0,,,2160.86767578,-19.1989746094,-27.4035644531,,-0.00588256120682,0.713494777679,0.0241797491908,-0.700218558311
1511999061842077661,,269,,1511999061,840121984,0,,,2160.80712891,-19.2292480469,-27.3819580078,,-0.00605979561806,0.713405907154,0.0243217349052,-0.700302660465
1511999061852842609,,270,,1511999061,851497888,0,,,2160.66796875,-19.2824707031,-27.0958251953,,-0.0057038217783,0.713302433491,0.0244781523943,-0.700405538082
1511999061872601151,,271,,1511999061,871093988,0,,,2160.54199219,-19.1799316406,-26.9441223145,,-0.00546346604824,0.713237166405,0.0246689394116,-0.700467288494
1511999061893435734,,272,,1511999061,891788959,0,,,2160.53173828,-19.0432128906,-26.9211120605,,-0.00515092909336,0.713257312775,0.0245995298028,-0.700451433659
1511999061915964797,,273,,1511999061,914207935,0,,,2160.69482422,-18.9741210938,-27.1170043945,,-0.00535169243813,0.713418126106,0.0244535207748,-0.700291395187
1511999061943910890,,274,,1511999061,942084074,0,,,2160.83398438,-19.0014648438,-27.2856750488,,-0.00566135346889,0.713415622711,0.02436414361,-0.700294494629
1511999061958278182,,275,,1511999061,951730012,0,,,2160.84033203,-19.1396484375,-27.3091125488,,-0.00596050918102,0.71343767643,0.0244443938136,-0.700266778469
1511999061971463390,,276,,1511999061,969940900,0,,,2160.68994141,-19.2534179688,-27.1189880371,,-0.00574247539043,0.713283419609,0.0244470387697,-0.700425684452
1511999061996193651,,277,,1511999061,995141029,0,,,2160.60742188,-19.1611328125,-26.9834899902,,-0.00548601150513,0.713204503059,0.0245415642858,-0.700504720211
1511999062011311047,,278,,1511999062,9726047,0,,,2160.61865234,-19.0021972656,-27.000793457,,-0.00529050827026,0.713264524937,0.0244821608067,-0.700447201729
1511999062031599797,,279,,1511999062,29489994,0,,,2160.66235352,-18.9750976562,-27.1989746094,,-0.00544561445713,0.713344037533,0.0245009064674,-0.700364410877
1511999062052675057,,280,,1511999062,49793958,0,,,2160.68066406,-19.1748046875,-27.333190918,,-0.00571465492249,0.713460981846,0.0243987292051,-0.700246751308
1511999062071191047,,281,,1511999062,69624900,0,,,2160.70483398,-19.384765625,-27.3728942871,,-0.00600676238537,0.713426887989,0.0244181752205,-0.70027834177
1511999062094182974,,282,,1511999062,89586973,0,,,2160.68652344,-19.4621582031,-27.1275024414,,-0.0058536529541,0.713281393051,0.0242773815989,-0.700432658195
1511999062109367713,,283,,1511999062,108520030,0,,,2160.59448242,-19.3884277344,-26.9281921387,,-0.0055855512619,0.713211655617,0.0244197398424,-0.700501024723
1511999062131471567,,284,,1511999062,129160881,0,,,2161.07080078,-18.9387207031,-27.1074523926,,-0.00611533224583,0.713383555412,0.0243313908577,-0.700324475765
1511999062149024484,,285,,1511999062,148116111,0,,,2160.68359375,-19.03125,-27.0928649902,,-0.00539201498032,0.71331679821,0.0243522673845,-0.700397729874
1511999062167979224,,286,,1511999062,167413949,0,,,2160.58618164,-19.1381835938,-27.3665771484,,-0.00541250407696,0.713397860527,0.0245311409235,-0.700308740139
1511999062187842453,,287,,1511999062,187216043,0,,,2160.74658203,-19.2395019531,-27.4189453125,,-0.00594294071198,0.713409602642,0.0243749171495,-0.700297892094
1511999062207371567,,288,,1511999062,206851005,0,,,2160.79150391,-19.3474121094,-27.1860046387,,-0.0058933198452,0.713293194771,0.0242420062423,-0.700421512127
1511999062227136411,,289,,1511999062,226715087,0,,,2160.79492188,-19.1520996094,-27.1052246094,,-0.0058578401804,0.713273823261,0.0244598835707,-0.700434029102
1511999062247245630,,290,,1511999062,246463060,0,,,2160.71020508,-19.005859375,-26.9496154785,,-0.0053897947073,0.713265836239,0.0244632288814,-0.700445830822
1511999062266649901,,291,,1511999062,266195058,0,,,2160.62890625,-18.9118652344,-27.081237793,,-0.00524291396141,0.713332474232,0.024591177702,-0.700374543667
1511999062286524849,,292,,1511999062,286079883,0,,,2160.64868164,-19.0283203125,-27.234954834,,-0.00541806221008,0.713353633881,0.0244508385658,-0.700356543064
1511999062306177244,,293,,1511999062,305784940,0,,,2160.70410156,-19.1713867188,-27.2904052734,,-0.00585633516312,0.713355541229,0.0243106633425,-0.700356006622
1511999062326175317,,294,,1511999062,325674057,0,,,2160.68383789,-19.2438964844,-27.1465759277,,-0.00595563650131,0.713313102722,0.0244115665555,-0.70039498806
1511999062347631046,,295,,1511999062,347106933,0,,,2160.69433594,-19.294921875,-26.9327392578,,-0.00558383762836,0.713276088238,0.0242504701018,-0.700441300869
1511999062365608442,,296,,1511999062,365189075,0,,,2160.67089844,-19.1264648438,-26.9895019531,,-0.00541312992573,0.713287472725,0.0244039818645,-0.700425744057
1511999062385513286,,297,,1511999062,385096073,0,,,2160.54785156,-19.0952148438,-27.444519043,,-0.0056719481945,0.713308990002,0.0249972417951,-0.700380802155
1511999062409440473,,298,,1511999062,404753923,0,,,2160.55981445,-19.1096191406,-27.3745117188,,-0.0056841224432,0.713354587555,0.0246547460556,-0.70034635067
1511999062424890369,,299,,1511999062,424463987,0,,,2160.61572266,-19.2287597656,-27.2995605469,,-0.0057522803545,0.713372647762,0.0244881957769,-0.700333297253
1511999062449735786,,300,,1511999062,449350118,0,,,2160.69140625,-19.3984375,-27.164855957,,-0.00585728883743,0.713300824165,0.0243161395192,-0.700411558151
1511999062464438755,,301,,1511999062,464040040,0,,,2160.90429688,-19.318359375,-27.0086975098,,-0.00608091056347,0.713397264481,0.0241658017039,-0.700316667557
1511999062484155473,,302,,1511999062,483824968,0,,,2160.69995117,-19.3178710938,-26.9967041016,,-0.00542244315147,0.713313043118,0.0244736522436,-0.700397193432
1511999062504552453,,303,,1511999062,503921985,0,,,2160.61743164,-19.0249023438,-27.1207580566,,-0.00531640648842,0.71329253912,0.0245535299182,-0.700415968895
1511999062524253026,,304,,1511999062,523720026,0,,,2160.61523438,-18.8898925781,-27.30859375,,-0.00550752878189,0.713332951069,0.0247150063515,-0.700367689133
1511999062543881046,,305,,1511999062,543457031,0,,,2160.63134766,-19.0073242188,-27.2825622559,,-0.00567212700844,0.713325977325,0.0245650708675,-0.700378656387
1511999062564122296,,306,,1511999062,563594102,0,,,2160.65771484,-19.2290039062,-27.1958007812,,-0.00580380856991,0.713279545307,0.0244539529085,-0.700428962708
1511999062584185630,,307,,1511999062,583683013,0,,,2160.74121094,-19.3217773438,-27.1130981445,,-0.00582824647427,0.713307976723,0.0245054811239,-0.700397908688
1511999062603087296,,308,,1511999062,602608919,0,,,2160.74414062,-19.2722167969,-27.1658630371,,-0.00554390251637,0.713110923767,0.0246486738324,-0.700595855713
1511999062622705942,,309,,1511999062,622320890,0,,,2160.68164062,-19.0268554688,-27.2082519531,,-0.00556161999702,0.713329672813,0.0245743319392,-0.700375556946
1511999062642519744,,310,,1511999062,642129898,0,,,2160.53466797,-18.9758300781,-27.2601013184,,-0.00549568235874,0.713332772255,0.0245993584394,-0.700372159481
1511999062662324588,,311,,1511999062,661911964,0,,,2160.50415039,-19.1391601562,-27.3159484863,,-0.0056836605072,0.71330678463,0.0246554687619,-0.700395166874
1511999062682182817,,312,,1511999062,681756973,0,,,2160.60620117,-19.3688964844,-27.322479248,,-0.00592839717865,0.713263869286,0.0245578587055,-0.700440227985
1511999062702087453,,313,,1511999062,701618909,0,,,2160.73657227,-19.4567871094,-27.1416625977,,-0.00587202608585,0.713229000568,0.0243770107627,-0.700482547283
1511999062722615525,,314,,1511999062,722137928,0,,,2160.81835938,-19.3361816406,-27.1426086426,,-0.00589664280415,0.713267087936,0.0243094488978,-0.700445830822
1511999062741888442,,315,,1511999062,741405963,0,,,2160.73535156,-19.1765136719,-27.223815918,,-0.00574658811092,0.713283479214,0.024375140667,-0.700428128242
1511999062761597140,,316,,1511999062,761069059,0,,,2160.94433594,-18.8640136719,-27.299987793,,-0.00636999309063,0.71389567852,0.0245983451605,-0.69979095459
1511999062781357557,,317,,1511999062,780796051,0,,,2160.63720703,-19.064453125,-27.2680664062,,-0.00590327382088,0.713534116745,0.0249560549855,-0.700150966644
1511999062800949223,,318,,1511999062,800517082,0,,,2160.59960938,-19.2897949219,-27.2194824219,,-0.00579881668091,0.71327483654,0.0247513726354,-0.700423240662
1511999062821085473,,319,,1511999062,820260047,0,,,2160.78564453,-19.3442382812,-27.1076965332,,-0.00594043731689,0.713290393353,0.0244369357824,-0.700417280197
1511999062840493911,,320,,1511999062,840091943,0,,,2160.94018555,-19.1940917969,-27.0744628906,,-0.00586250424385,0.713327884674,0.0241868570447,-0.700388431549
1511999062860307609,,321,,1511999062,859843969,0,,,2160.83227539,-18.970703125,-27.1697387695,,-0.00571499764919,0.713337779045,0.024312093854,-0.700375199318
1511999062879975525,,322,,1511999062,879642009,0,,,2160.58154297,-18.92578125,-27.3276062012,,-0.00564566254616,0.713319778442,0.0247357189655,-0.700379371643
1511999062899973755,,323,,1511999062,899621009,0,,,2160.40258789,-18.9536132812,-27.2755126953,,-0.00546500086784,0.713263690472,0.0249242782593,-0.700431227684
1511999062919671671,,324,,1511999062,919253110,0,,,2160.55322266,-19.0942382812,-27.1639099121,,-0.0055625140667,0.713201463223,0.0247110947967,-0.700501441956
1511999062939399640,,325,,1511999062,938987016,0,,,2160.84545898,-19.1811523438,-27.0536499023,,-0.00580058991909,0.713284313679,0.0243530645967,-0.700427591801
1511999062961544744,,326,,1511999062,961173057,0,,,2160.94091797,-19.1838378906,-27.0944519043,,-0.00597986578941,0.713315844536,0.024142511189,-0.700401306152
1511999062978948702,,327,,1511999062,978564023,0,,,2160.80688477,-19.1789550781,-27.1995849609,,-0.00591112673283,0.713331341743,0.0241549313068,-0.700385630131
1511999062998804848,,328,,1511999062,998425960,0,,,2160.4987793,-19.181640625,-27.2901916504,,-0.00568920373917,0.713333547115,0.0245846807957,-0.700370252132
1511999063018729588,,329,,1511999063,18337965,0,,,2160.37597656,-19.2033691406,-27.3843383789,,-0.00562077760696,0.71326893568,0.0249613448977,-0.700423359871
1511999063038401567,,330,,1511999063,38069963,0,,,2160.49707031,-19.2810058594,-27.2304382324,,-0.00568497180939,0.713264465332,0.0248092785478,-0.700432777405
1511999063059846411,,331,,1511999063,59212923,0,,,2160.82421875,-19.330078125,-27.0982666016,,-0.00591631233692,0.71328496933,0.0243706852198,-0.70042514801
1511999063078596723,,332,,1511999063,77930927,0,,,2161.12255859,-19.2331542969,-26.9973754883,,-0.00610908865929,0.713266015053,0.0237693414092,-0.700463652611
1511999063098920213,,333,,1511999063,98033905,0,,,2160.82910156,-19.1728515625,-27.2039794922,,-0.00596643984318,0.713329613209,0.0242156460881,-0.700384676456
1511999063118864119,,334,,1511999063,117818117,0,,,2160.55078125,-19.1271972656,-27.3413085938,,-0.00569048523903,0.71328163147,0.0245704352856,-0.700423598289
1511999063139772192,,335,,1511999063,138295888,0,,,2160.52587891,-19.0532226562,-27.1968078613,,-0.00550727546215,0.713307142258,0.024581849575,-0.700398743153
1511999063158236515,,336,,1511999063,157392978,0,,,2160.62158203,-19.0412597656,-27.2126159668,,-0.005495890975,0.713215231895,0.0248123928905,-0.700484275818
1511999063182549536,,337,,1511999063,181807041,0,,,2160.85717773,-18.9685058594,-27.1003723145,,-0.00578173995018,0.713163971901,0.0244593694806,-0.700546503067
1511999063197577504,,338,,1511999063,196942090,0,,,2160.94580078,-18.9831542969,-27.0184020996,,-0.00594180822372,0.713326215744,0.0240255519748,-0.700394928455
1511999063218668181,,339,,1511999063,217227935,0,,,2160.72558594,-19.1076660156,-27.1641235352,,-0.00593720376492,0.713352441788,0.0241924226284,-0.700362563133
1511999063238097296,,340,,1511999063,237075090,0,,,2160.45996094,-19.1262207031,-27.2410583496,,-0.00559855997562,0.713327467442,0.0245068445802,-0.70037984848
1511999063267986150,,341,,1511999063,265199899,0,,,2160.48242188,-19.0339355469,-27.2991638184,,-0.00563414394855,0.713314712048,0.0247677490115,-0.700383424759
1511999063282250265,,342,,1511999063,277796030,0,,,2160.66894531,-18.9636230469,-27.393157959,,-0.00575150549412,0.71315830946,0.0248355418444,-0.700539290905
1511999063301138025,,343,,1511999063,296554088,0,,,2160.91796875,-18.9772949219,-27.1176452637,,-0.00579875707626,0.713261306286,0.0243648663163,-0.700450599194
1511999063316357921,,344,,1511999063,315648078,0,,,2160.87939453,-19.1716308594,-27.0988464355,,-0.00593253970146,0.713253617287,0.0241484194994,-0.700464844704
1511999063336197973,,345,,1511999063,335475921,0,,,2160.64624023,-19.3828125,-27.1473388672,,-0.00591702759266,0.713293135166,0.0242363512516,-0.700421571732
1511999063358657348,,346,,1511999063,356420993,0,,,2160.50683594,-19.39453125,-27.239440918,,-0.00584876537323,0.713307917118,0.0243866741657,-0.700401902199
1511999063378178338,,347,,1511999063,376450061,0,,,2160.55419922,-19.2958984375,-27.2797241211,,-0.00578068196774,0.71325981617,0.0245945304632,-0.700444161892
1511999063395644744,,348,,1511999063,394819974,0,,,2160.68066406,-19.1997070312,-27.1823730469,,-0.00574417412281,0.713235378265,0.0245843455195,-0.700469732285
1511999063415011306,,349,,1511999063,414369106,0,,,2160.78710938,-19.1633300781,-27.1801757812,,-0.00588139891624,0.713246464729,0.0244508981705,-0.700461864471
1511999063436132452,,350,,1511999063,435045003,0,,,2160.79858398,-19.1301269531,-27.1235656738,,-0.00599998235703,0.713285505772,0.0243598744273,-0.700424492359
1511999063461786619,,351,,1511999063,457711935,0,,,2160.64038086,-19.2629394531,-27.0960083008,,-0.0058276206255,0.713287949562,0.0243566483259,-0.700423538685
1511999063483802817,,352,,1511999063,482994079,0,,,2160.57666016,-19.2392578125,-27.1864013672,,-0.00572250783443,0.713299930096,0.0243353694677,-0.700412809849
1511999063496205994,,353,,1511999063,494968891,0,,,2160.58398438,-19.0244140625,-27.370880127,,-0.00585046410561,0.713240981102,0.0246875435114,-0.700459599495
1511999063515540421,,354,,1511999063,513709068,0,,,2160.59863281,-18.9411621094,-27.5409545898,,-0.00596073269844,0.713171064854,0.0250710323453,-0.700516104698
1511999063534506254,,355,,1511999063,533642053,0,,,2160.73388672,-18.8288574219,-27.1409912109,,-0.00575579702854,0.71320939064,0.0245962068439,-0.7004956007
1511999063553978286,,356,,1511999063,553212881,0,,,2160.68310547,-19.0725097656,-27.0849304199,,-0.00569200515747,0.713215231895,0.0244015455246,-0.700497090816
1511999063576188286,,357,,1511999063,575155019,0,,,2160.59033203,-19.1892089844,-27.1611328125,,-0.00581330060959,0.71328741312,0.0244012400508,-0.700422644615
1511999063597993546,,358,,1511999063,597078084,0,,,2160.28833008,-19.0954589844,-27.2569274902,,-0.00553859770298,0.71328496933,0.0247574746609,-0.700414776802
1511999063614015577,,359,,1511999063,612622022,0,,,2158.92236328,-18.7880859375,-27.6743774414,,-0.00486597418785,0.713563621044,0.0266326889396,-0.700067222118
1511999063633287713,,360,,1511999063,632487058,0,,,2154.85400391,-18.7314453125,-28.0409851074,,-0.00323148071766,0.712887525558,0.0288850441575,-0.700675725937
1511999063652928546,,361,,1511999063,652134895,0,,,2150.75341797,-18.24609375,-28.5048217773,,-0.00444506108761,0.712517857552,0.0288891270757,-0.701044917107
1511999063673816515,,362,,1511999063,672717094,0,,,2145.65820312,-18.2194824219,-28.9279174805,,-0.00569604337215,0.71203571558,0.0275223478675,-0.701580643654
1511999063698151202,,363,,1511999063,696907043,0,,,2139.76538086,-18.3327636719,-29.2268981934,,-0.00636836886406,0.711381614208,0.0250237956643,-0.702331423759
1511999063715525265,,364,,1511999063,712481021,0,,,2132.35009766,-18.3889160156,-29.6637878418,,-0.00583991408348,0.711212158203,0.0239638611674,-0.702544569969
1511999063732109119,,365,,1511999063,731115102,0,,,2123.54321289,-18.1259765625,-30.421081543,,-0.00524644553661,0.710984945297,0.0248816162348,-0.702747285366
1511999063751534327,,366,,1511999063,750770092,0,,,2114.1184082,-17.310546875,-30.6289978027,,-0.0040510892868,0.710552871227,0.0243152603507,-0.703211843967
1511999063771293858,,367,,1511999063,770576000,0,,,2102.44628906,-17.30859375,-32.2923278809,,-0.00322681665421,0.709264159203,0.0261930525303,-0.704448699951
1511999063791012348,,368,,1511999063,790369987,0,,,2090.76342773,-17.1994628906,-33.2495117188,,-0.00315736234188,0.70859837532,0.0256632789969,-0.705138206482
1511999063813481046,,369,,1511999063,810713052,0,,,2078.94970703,-17.0537109375,-33.4893188477,,-0.00391307473183,0.708491802216,0.0237471088767,-0.705308556557
1511999063830766410,,370,,1511999063,829966068,0,,,2064.12304688,-17.23828125,-35.2305297852,,-0.00389505922794,0.706798136234,0.0248934477568,-0.706966519356
1511999063850675056,,371,,1511999063,849719047,0,,,2048.60131836,-16.3737792969,-37.0458374023,,-0.00538846850395,0.705955266953,0.026470400393,-0.70774102211
1511999063871094327,,372,,1511999063,869890928,0,,,2032.27282715,-15.3898925781,-38.0052490234,,-0.00573618710041,0.704917252064,0.0260979235172,-0.708786010742
