rosbagTimestamp,header,seq,stamp,secs,nsecs,frame_id,pose,position,x,y,z,orientation,x,y,z,w
1512264231136113189,,1,,1512264231,135708093,0,,,2358.77856445,-22.3823242188,106.418884277,,0.0106839984655,0.715524613857,0.0107251629233,-0.698423504829
1512264231158811731,,2,,1512264231,158421993,0,,,2358.6887207,-22.4577636719,106.17855835,,0.0105710029602,0.715569615364,0.0109006613493,-0.69837641716
1512264231175494231,,3,,1512264231,175117969,0,,,2358.61889648,-22.3227539062,106.108306885,,0.010604724288,0.715592741966,0.0110670700669,-0.698349475861
1512264231195190376,,4,,1512264231,194875955,0,,,2358.68188477,-22.1345214844,106.15512085,,0.0105162858963,0.715552330017,0.0110937282443,-0.698391854763
1512264231215893658,,5,,1512264231,215454101,0,,,2358.73388672,-22.1872558594,106.404205322,,0.0105911940336,0.715501070023,0.0108979716897,-0.698446393013
1512264231235162720,,6,,1512264231,234680891,0,,,2358.79394531,-22.3308105469,106.507904053,,0.0106149166822,0.71548730135,0.0107871219516,-0.698461949825
1512264231257119908,,7,,1512264231,256150960,0,,,2358.82739258,-22.3901367188,106.479980469,,0.0107166469097,0.715529859066,0.0106304064393,-0.698419034481
1512264231274944231,,8,,1512264231,274451017,0,,,2358.81396484,-22.3542480469,106.211853027,,0.0106854140759,0.715583086014,0.0108390301466,-0.698361754417
1512264231294390429,,9,,1512264231,293917894,0,,,2358.80493164,-22.2619628906,106.064880371,,0.0105111151934,0.71561384201,0.0109725371003,-0.698330760002
1512264231313894178,,10,,1512264231,313569068,0,,,2358.734375,-22.2143554688,106.174682617,,0.0105104446411,0.715547859669,0.0110006481409,-0.698397994041
1512264231333672876,,11,,1512264231,333312034,0,,,2358.63256836,-22.3312988281,106.436889648,,0.0106273144484,0.715475559235,0.0109276548028,-0.698471605778
1512264231353860481,,12,,1512264231,353389978,0,,,2358.64282227,-22.4270019531,106.626068115,,0.0108408331871,0.715470612049,0.0108033567667,-0.698475182056
1512264231373323033,,13,,1512264231,372932910,0,,,2358.75488281,-22.3544921875,106.558990479,,0.0108276605606,0.715517342091,0.0107742995024,-0.698428034782
1512264231393015845,,14,,1512264231,392657041,0,,,2358.81445312,-22.2673339844,106.331695557,,0.0107003599405,0.715618252754,0.0108012855053,-0.698326170444
1512264231413409178,,15,,1512264231,412894010,0,,,2358.78759766,-22.2104492188,106.127716064,,0.0106518119574,0.715596675873,0.0107696279883,-0.698349416256
1512264231432626783,,16,,1512264231,432280063,0,,,2358.71191406,-22.271484375,106.06060791,,0.0104711353779,0.715565681458,0.010981425643,-0.698380708694
1512264231453179647,,17,,1512264231,452116012,0,,,2358.64111328,-22.3813476562,106.291320801,,0.0105508565903,0.715465605259,0.0110102593899,-0.698481559753
1512264231472623606,,18,,1512264231,472273111,0,,,2358.70117188,-22.3330078125,106.532287598,,0.0107152760029,0.715444922447,0.0108796730638,-0.698502361774
1512264231492077251,,19,,1512264231,491650104,0,,,2358.80078125,-22.263671875,106.573272705,,0.0107908993959,0.715520620346,0.0107217505574,-0.69842594862
1512264231515157512,,20,,1512264231,514049053,0,,,2358.80664062,-22.2956542969,106.39074707,,0.0107742547989,0.715563297272,0.0106674581766,-0.698383271694
1512264231532071158,,21,,1512264231,531694889,0,,,2358.73242188,-22.3735351562,106.156188965,,0.0106065869331,0.715611159801,0.0107790082693,-0.698335170746
1512264231551441991,,22,,1512264231,551007032,0,,,2358.61499023,-22.4362792969,106.102844238,,0.0105484724045,0.715567111969,0.0110817179084,-0.698376476765
1512264231571151626,,23,,1512264231,570797920,0,,,2358.64306641,-22.3696289062,106.274749756,,0.0106113553047,0.715504348278,0.0111480355263,-0.698438763618
1512264231591112876,,24,,1512264231,590642929,0,,,2358.76757812,-22.2922363281,106.496154785,,0.01063837111,0.715499639511,0.0109729766846,-0.698445916176
1512264231611013605,,25,,1512264231,610608100,0,,,2358.87915039,-22.2980957031,106.530395508,,0.0107001066208,0.715487241745,0.010739736259,-0.698461353779
1512264231631174283,,26,,1512264231,630193948,0,,,2358.86621094,-22.4018554688,106.338104248,,0.0106361508369,0.715601205826,0.0106895342469,-0.698346316814
1512264231650417668,,27,,1512264231,650034904,0,,,2358.75927734,-22.4318847656,106.109588623,,0.0104906111956,0.71564000845,0.010917365551,-0.698305249214
1512264231670351210,,28,,1512264231,669951915,0,,,2358.68383789,-22.3781738281,105.959472656,,0.0104950219393,0.715533554554,0.0111955776811,-0.698409795761
1512264231690082251,,29,,1512264231,689660072,0,,,2358.69726562,-22.1975097656,106.172607422,,0.0104589909315,0.715489685535,0.0110957324505,-0.69845688343
1512264231709783085,,30,,1512264231,709388971,0,,,2358.75976562,-22.2126464844,106.3934021,,0.0105712115765,0.715417563915,0.0109751075506,-0.698530852795
1512264231729701626,,31,,1512264231,729379892,0,,,2358.79589844,-22.3737792969,106.479003906,,0.0106248408556,0.715471744537,0.0107962340117,-0.698477506638
1512264231750223762,,32,,1512264231,749726057,0,,,2358.70263672,-22.5129394531,106.388671875,,0.0108343809843,0.715523779392,0.0108336135745,-0.698420405388
1512264231769450897,,33,,1512264231,768994092,0,,,2358.73779297,-22.3422851562,106.176086426,,0.0106229484081,0.715675592422,0.0109021440148,-0.698266923428
1512264231789399803,,34,,1512264231,788992881,0,,,2358.68896484,-22.2568359375,106.085327148,,0.0104490965605,0.715669929981,0.0110928192735,-0.69827234745
1512264231808941991,,35,,1512264231,808526992,0,,,2358.7043457,-22.2436523438,106.239471436,,0.0105431228876,0.715543806553,0.0110143199563,-0.698401510715
1512264231828440793,,36,,1512264231,828044891,0,,,2358.77270508,-22.3364257812,106.46395874,,0.0106163024902,0.715457558632,0.0109362825751,-0.698489904404
1512264231848578918,,37,,1512264231,847995042,0,,,2358.82006836,-22.3825683594,106.535125732,,0.0107478648424,0.715424835682,0.0108318850398,-0.698523163795
1512264231868432460,,38,,1512264231,867952108,0,,,2358.83203125,-22.3032226562,106.39352417,,0.0107194781303,0.715552687645,0.0108436644077,-0.698392271996
1512264231887958814,,39,,1512264231,887535095,0,,,2358.81054688,-22.2106933594,106.149932861,,0.0105950087309,0.71561473608,0.0108427032828,-0.698330760002
1512264231907762772,,40,,1512264231,907388925,0,,,2358.73779297,-22.236328125,106.029876709,,0.0105305761099,0.715574264526,0.0109735354781,-0.698371171951
1512264231928000637,,41,,1512264231,927623033,0,,,2358.70922852,-22.3684082031,106.165893555,,0.0104882270098,0.715535163879,0.0110272914171,-0.698410868645
1512264231947435845,,42,,1512264231,947061061,0,,,2358.75048828,-22.3740234375,106.401245117,,0.0105684250593,0.715472221375,0.0110559016466,-0.698473870754
1512264231967184282,,43,,1512264231,966793060,0,,,2358.82958984,-22.2990722656,106.567901611,,0.0107310861349,0.715478122234,0.0109069123864,-0.698467612267
1512264231986905168,,44,,1512264231,986571073,0,,,2358.85400391,-22.2941894531,106.450286865,,0.0106853097677,0.715549826622,0.0107841640711,-0.698396682739
1512264232006744907,,45,,1512264232,6345033,0,,,2358.74389648,-22.3635253906,106.165924072,,0.0106209367514,0.715631604195,0.0108002349734,-0.698313713074
1512264232026617928,,46,,1512264232,26220083,0,,,2358.63574219,-22.3811035156,106.049560547,,0.0105099976063,0.715636134148,0.0109970867634,-0.698307514191
1512264232046246366,,47,,1512264232,45897960,0,,,2358.59423828,-22.4914550781,106.166534424,,0.0111785233021,0.715439498425,0.0112880244851,-0.698494076729
1512264232066371991,,48,,1512264232,66010951,0,,,2358.70068359,-22.3557128906,106.481658936,,0.0108033120632,0.715461373329,0.0110102817416,-0.698482036591
1512264232085804022,,49,,1512264232,85408926,0,,,2358.83251953,-22.2260742188,106.547119141,,0.0107512772083,0.715487003326,0.0109068825841,-0.698458194733
1512264232106611053,,50,,1512264232,105627059,0,,,2358.8684082,-22.1994628906,106.352905273,,0.0106295347214,0.715506315231,0.0107602998614,-0.698442578316
1512264232128092459,,51,,1512264232,127720117,0,,,2358.76269531,-22.3078613281,106.121643066,,0.01057985425,0.715604841709,0.0107788965106,-0.698342144489
1512264232145808137,,52,,1512264232,145220994,0,,,2358.6875,-22.3500976562,106.055725098,,0.0104915648699,0.715612888336,0.0109943300486,-0.698331773281
1512264232166569334,,53,,1512264232,164963960,0,,,2358.66503906,-22.3859863281,106.224151611,,0.0110313892365,0.715457320213,0.0112669691443,-0.698478460312
1512264232184879439,,54,,1512264232,184535980,0,,,2358.76269531,-22.1882324219,106.47769165,,0.0106608867645,0.7154687047,0.0109183117747,-0.698478162289
1512264232207844959,,55,,1512264232,207101106,0,,,2358.78710938,-22.2221679688,106.555053711,,0.0107754021883,0.715456306934,0.010861672461,-0.698490083218
1512264232225673605,,56,,1512264232,225110054,0,,,2358.7487793,-22.2939453125,106.435272217,,0.0107738375664,0.715521812439,0.0108266621828,-0.69842338562
1512264232244166678,,57,,1512264232,243772029,0,,,2358.69042969,-22.3186035156,106.192230225,,0.0106253325939,0.715601980686,0.0109814405441,-0.69834125042
1512264232264210428,,58,,1512264232,263642072,0,,,2358.66308594,-22.3508300781,106.092163086,,0.0105305016041,0.715628683567,0.0110193043947,-0.698314607143
1512264232284203866,,59,,1512264232,283695936,0,,,2358.72802734,-22.2937011719,106.129638672,,0.0105004012585,0.715586662292,0.0110454931855,-0.698357760906
1512264232304490532,,60,,1512264232,303529024,0,,,2358.82421875,-22.1555175781,106.380279541,,0.0105746090412,0.715507626534,0.010915838182,-0.698439478874
1512264232324629595,,61,,1512264232,322905063,0,,,2358.84667969,-22.1555175781,106.590698242,,0.0106489807367,0.71545779705,0.0107244029641,-0.698492586613
1512264232343139647,,62,,1512264232,342792987,0,,,2358.73193359,-22.283203125,106.477386475,,0.0107216387987,0.715510964394,0.0107597485185,-0.698436439037
1512264232362983918,,63,,1512264232,362559080,0,,,2358.64428711,-22.3732910156,106.23223877,,0.0106744021177,0.715593457222,0.0108731612563,-0.698350906372
1512264232383072511,,64,,1512264232,382616996,0,,,2358.65283203,-22.3549804688,106.089752197,,0.0105604529381,0.715618371964,0.0109475851059,-0.698325812817
1512264232405019595,,65,,1512264232,404652118,0,,,2358.75634766,-22.2829589844,106.121459961,,0.0105524659157,0.715571641922,0.0109901130199,-0.698373138905
1512264232422449074,,66,,1512264232,422060966,0,,,2358.82885742,-22.21484375,106.326416016,,0.0105204582214,0.715492010117,0.0109414532781,-0.69845610857
1512264232442125793,,67,,1512264232,441770076,0,,,2358.75927734,-22.2297363281,106.509552002,,0.0106523931026,0.715453982353,0.0108985155821,-0.698493719101
1512264232461958970,,68,,1512264232,461519002,0,,,2358.61181641,-22.35546875,106.558258057,,0.0109231621027,0.715493261814,0.0108750164509,-0.698449671268
1512264232481790584,,69,,1512264232,481395959,0,,,2358.70996094,-22.3090820312,106.344055176,,0.0107162296772,0.715605437756,0.0108856409788,-0.698337674141
1512264232505149699,,70,,1512264232,504807949,0,,,2358.8059082,-22.3205566406,106.081115723,,0.010551571846,0.715624451637,0.010836198926,-0.698321580887
1512264232521276418,,71,,1512264232,520925045,0,,,2358.83129883,-22.2626953125,105.975738525,,0.010351896286,0.715583622456,0.0109189003706,-0.698365092278
1512264232540934334,,72,,1512264232,540577888,0,,,2358.75146484,-22.2473144531,106.177581787,,0.0103945434093,0.715473473072,0.0110843479633,-0.698474705219
1512264232561887355,,73,,1512264232,561448097,0,,,2358.69824219,-22.2658691406,106.479400635,,0.0106738358736,0.715445637703,0.0109558477998,-0.698500990868
1512264232581149543,,74,,1512264232,580224037,0,,,2358.62133789,-22.3347167969,106.566497803,,0.0109098851681,0.7154712677,0.010948985815,-0.69847124815
1512264232603658397,,75,,1512264232,600089073,0,,,2358.7434082,-22.345703125,106.369567871,,0.0107236355543,0.71556866169,0.0108650773764,-0.698375463486
1512264232620310220,,76,,1512264232,619913101,0,,,2358.77929688,-22.4289550781,106.109436035,,0.0105605274439,0.715592861176,0.0107672289014,-0.698354721069
1512264232640286990,,77,,1512264232,639918088,0,,,2358.7734375,-22.3581542969,105.992980957,,0.0103594511747,0.715611338615,0.0109976306558,-0.698335170746
1512264232660029803,,78,,1512264232,659655094,0,,,2358.68457031,-22.30859375,106.228515625,,0.0105011612177,0.715524315834,0.0111139118671,-0.698420584202
1512264232679756365,,79,,1512264232,679388046,0,,,2358.69482422,-22.3093261719,106.44744873,,0.0106513053179,0.715448021889,0.0111132264137,-0.69849640131
1512264232699833813,,80,,1512264232,699449062,0,,,2358.68652344,-22.3581542969,106.529602051,,0.0108197033405,0.71548551321,0.0109197646379,-0.698458552361
1512264232719036938,,81,,1512264232,718719005,0,,,2358.72851562,-22.3571777344,106.342529297,,0.0107890069485,0.715529024601,0.0107595846057,-0.698416769505
1512264232739293501,,82,,1512264232,738853931,0,,,2358.79882812,-22.3000488281,106.082641602,,0.0106133371592,0.715625405312,0.0107757300138,-0.698320567608
1512264232762121418,,83,,1512264232,761691093,0,,,2358.81835938,-22.2377929688,106.03237915,,0.0104250013828,0.715602338314,0.0109716281295,-0.698343992233
1512264232778925793,,84,,1512264232,778558969,0,,,2358.81811523,-22.2053222656,106.178527832,,0.0103932768106,0.715543568134,0.0111033990979,-0.698402583599
1512264232799713240,,85,,1512264232,799207925,0,,,2358.72216797,-22.2829589844,106.416015625,,0.0106080621481,0.715474367142,0.0111005157232,-0.698470234871
1512264232818029751,,86,,1512264232,817595958,0,,,2358.734375,-22.2492675781,106.513793945,,0.0107887387276,0.715490460396,0.0109155327082,-0.698453843594
1512264232838075792,,87,,1512264232,837738990,0,,,2358.73583984,-22.1918945312,106.402038574,,0.0107331126928,0.71556019783,0.0108527466655,-0.698384284973
1512264232861027563,,88,,1512264232,860660076,0,,,2358.75195312,-22.2109375,106.237457275,,0.0106308311224,0.715641319752,0.010825522244,-0.698303222656
1512264232877670636,,89,,1512264232,877253055,0,,,2358.76928711,-22.2736816406,106.120330811,,0.0105226933956,0.715670466423,0.0109391212463,-0.698273181915
1512264232897639542,,90,,1512264232,897068023,0,,,2358.77783203,-22.3293457031,106.172729492,,0.0104601681232,0.715560674667,0.0110094472766,-0.698385477066
1512264232917631938,,91,,1512264232,917179107,0,,,2358.76074219,-22.2956542969,106.368438721,,0.0106530189514,0.715457677841,0.0109460949898,-0.698489010334
1512264232938031261,,92,,1512264232,937407016,0,,,2358.75390625,-22.234375,106.433319092,,0.0107091069221,0.715463578701,0.0109884366393,-0.698481440544
1512264232957327355,,93,,1512264232,956655025,0,,,2358.64697266,-22.3557128906,106.413543701,,0.0109660923481,0.715491890907,0.010849840939,-0.698450744152
1512264232976878240,,94,,1512264232,976418972,0,,,2358.63378906,-22.4748535156,106.260314941,,0.0108067244291,0.715623855591,0.0108395367861,-0.698318004608
1512264232997506678,,95,,1512264232,996659040,0,,,2358.73730469,-22.517578125,106.083221436,,0.0104687511921,0.715662837029,0.0109357386827,-0.698281884193
1512264233019685376,,96,,1512264233,19288063,0,,,2358.78149414,-22.4553222656,106.17791748,,0.0105058252811,0.715574800968,0.0109538659453,-0.698371291161
1512264233037043865,,97,,1512264233,36153078,0,,,2358.76513672,-22.31640625,106.384552002,,0.0106784999371,0.715465784073,0.010902941227,-0.698481082916
1512264233057830219,,98,,1512264233,57025909,0,,,2358.69848633,-22.3137207031,106.462036133,,0.0107184499502,0.715411901474,0.0109658613801,-0.698534667492
1512264233076261574,,99,,1512264233,75408935,0,,,2358.63500977,-22.3918457031,106.424499512,,0.0108776241541,0.715499818325,0.0109625905752,-0.698442220688
1512264233096165949,,100,,1512264233,95556020,0,,,2358.68701172,-22.4313964844,106.229370117,,0.010783880949,0.715583860874,0.0109781473875,-0.698357343674
1512264233116967199,,101,,1512264233,116616010,0,,,2358.82177734,-22.3278808594,106.08026123,,0.0105571746826,0.715647935867,0.0109319761395,-0.698295712471
1512264233134768813,,102,,1512264233,134430885,0,,,2358.88671875,-22.1704101562,106.173614502,,0.010478630662,0.715563416481,0.0109303966165,-0.698383629322
1512264233158543397,,103,,1512264233,158062934,0,,,2358.8359375,-22.1198730469,106.383544922,,0.010461628437,0.715509295464,0.0109335109591,-0.69843930006
1512264233175195167,,104,,1512264233,174515962,0,,,2358.74072266,-22.1950683594,106.568115234,,0.0107594579458,0.715485095978,0.010865136981,-0.698460578918
1512264233194516313,,105,,1512264233,193893909,0,,,2358.6706543,-22.3161621094,106.421630859,,0.0108063668013,0.715504586697,0.0109547153115,-0.6984385252
1512264233213898292,,106,,1512264233,213509082,0,,,2358.68896484,-22.3503417969,106.209197998,,0.0107699930668,0.715605080128,0.011021874845,-0.69833523035
1512264233234073657,,107,,1512264233,233688116,0,,,2358.76513672,-22.3093261719,106.0574646,,0.0105773806572,0.71563744545,0.0110098272562,-0.6983050704
1512264233255636365,,108,,1512264233,254424095,0,,,2358.80957031,-22.2658691406,106.074768066,,0.0104601234198,0.715598464012,0.0109366849065,-0.698347985744
1512264233273268709,,109,,1512264233,272924900,0,,,2358.80297852,-22.2900390625,106.345367432,,0.0104961842299,0.715514540672,0.0109060928226,-0.698433935642
1512264233293018865,,110,,1512264233,292665958,0,,,2358.69311523,-22.3615722656,106.516998291,,0.010692730546,0.715443074703,0.0108607709408,-0.698504805565
1512264233312802042,,111,,1512264233,312448024,0,,,2358.64746094,-22.4069824219,106.521972656,,0.0109453350306,0.715447425842,0.0107715949416,-0.698497772217
1512264233332526782,,112,,1512264233,332173109,0,,,2358.68359375,-22.4443359375,106.24987793,,0.0108015090227,0.715539872646,0.0109302327037,-0.698402822018
1512264233352996678,,113,,1512264233,352643966,0,,,2358.77148438,-22.4116210938,106.039520264,,0.0105066746473,0.7155803442,0.0109891593456,-0.698364973068
1512264233372660011,,114,,1512264233,371988058,0,,,2358.8215332,-22.31640625,106.070648193,,0.0103965103626,0.715641021729,0.0109935477376,-0.698304355145
1512264233392135271,,115,,1512264233,391732931,0,,,2358.76635742,-22.2707519531,106.318084717,,0.0104216486216,0.715552568436,0.0109453946352,-0.698395371437
1512264233411771626,,116,,1512264233,411411046,0,,,2358.65380859,-22.2893066406,106.624572754,,0.0107893496752,0.715515136719,0.0108165666461,-0.698430120945
1512264233432052719,,117,,1512264233,431402921,0,,,2358.61425781,-22.275390625,106.559143066,,0.0109212845564,0.715535461903,0.0109136924148,-0.698405683041
1512264233451602980,,118,,1512264233,450964927,0,,,2358.72265625,-22.2297363281,106.352630615,,0.0109540522099,0.715571582317,0.0109072476625,-0.698368370533
1512264233471847511,,119,,1512264233,471366882,0,,,2358.74267578,-22.3005371094,106.165405273,,0.0112592279911,0.715506315231,0.0109773874283,-0.698429346085
1512264233490982823,,120,,1512264233,490592956,0,,,2358.88891602,-22.1257324219,106.083404541,,0.0104499459267,0.715585052967,0.0108458250761,-0.698363244534
1512264233511019803,,121,,1512264233,510653972,0,,,2358.76953125,-22.2404785156,106.267974854,,0.010421037674,0.715549111366,0.0108787715435,-0.698400020599
1512264233530438188,,122,,1512264233,530092000,0,,,2358.66992188,-22.3095703125,106.535217285,,0.0106686502695,0.715474843979,0.0109077244997,-0.698471903801
1512264233550391834,,123,,1512264233,549966096,0,,,2358.6328125,-22.2731933594,106.562713623,,0.0108202248812,0.715519547462,0.0109557881951,-0.698423027992
1512264233570791573,,124,,1512264233,570084095,0,,,2358.71801758,-22.232421875,106.452850342,,0.0109574198723,0.715557277203,0.0107671692967,-0.698385059834
1512264233590088605,,125,,1512264233,589678049,0,,,2358.80224609,-22.2233886719,106.136505127,,0.010724529624,0.71563822031,0.0107712671161,-0.698305726051
1512264233609845948,,126,,1512264233,609491109,0,,,2358.80517578,-22.326171875,106.033691406,,0.0104705095291,0.715641498566,0.0109283253551,-0.698303759098
1512264233629789907,,127,,1512264233,629424095,0,,,2358.73193359,-22.4213867188,106.174255371,,0.0103809833527,0.715602755547,0.0110854431987,-0.698342502117
1512264233652354178,,128,,1512264233,651817083,0,,,2358.67138672,-22.3820800781,106.454040527,,0.0106667876244,0.715559780598,0.011033795774,-0.698382854462
1512264233669762407,,129,,1512264233,669331073,0,,,2358.63696289,-22.3127441406,106.601348877,,0.0108592808247,0.715520143509,0.0108535513282,-0.698423326015
1512264233689660896,,130,,1512264233,689071893,0,,,2358.6394043,-22.2431640625,106.462524414,,0.0108840614557,0.71558380127,0.0107559859753,-0.698359370232
1512264233710635584,,131,,1512264233,709234952,0,,,2358.63671875,-22.3107910156,106.267883301,,0.010994374752,0.715577304363,0.0108761638403,-0.698362410069
1512264233728574334,,132,,1512264233,728194952,0,,,2358.76489258,-22.2810058594,106.098999023,,0.0104613155127,0.715620040894,0.0109414979815,-0.698325693607
1512264233748350480,,133,,1512264233,747944116,0,,,2358.77709961,-22.3405761719,106.200897217,,0.0103761255741,0.715585887432,0.0109926015139,-0.698361158371
1512264233768241730,,134,,1512264233,767781019,0,,,2358.64404297,-22.4538574219,106.54119873,,0.0113709867001,0.715383529663,0.0108698010445,-0.698554933071
1512264233788546365,,135,,1512264233,787802934,0,,,2358.6796875,-22.1672363281,106.436981201,,0.0107768625021,0.715552508831,0.010883115232,-0.698391079903
1512264233809628396,,136,,1512264233,808581113,0,,,2358.70874023,-22.0935058594,106.372711182,,0.0108259916306,0.715559601784,0.0109237879515,-0.698382377625
1512264233827816521,,137,,1512264233,827397108,0,,,2358.72729492,-22.1906738281,106.203887939,,0.0106375962496,0.71567094326,0.0110823363066,-0.698268711567
1512264233847813657,,138,,1512264233,847027063,0,,,2358.66259766,-22.3508300781,106.206970215,,0.010660931468,0.715651035309,0.0110804960132,-0.698288679123
1512264233871121625,,139,,1512264233,870655059,0,,,2358.70947266,-22.2966308594,106.220184326,,0.0105028152466,0.715630412102,0.0109892934561,-0.698313713074
1512264233887542771,,140,,1512264233,886872053,0,,,2358.73486328,-22.2253417969,106.365447998,,0.0105844140053,0.715551674366,0.0109046250582,-0.698394536972
1512264233908011990,,141,,1512264233,906867980,0,,,2358.73754883,-22.2145996094,106.407806396,,0.0107709914446,0.715568184853,0.0108711123466,-0.698375165462
1512264233926870323,,142,,1512264233,926347970,0,,,2358.71679688,-22.2490234375,106.339355469,,0.0107505470514,0.715597808361,0.0109250992537,-0.69834446907
1512264233947354386,,143,,1512264233,946186065,0,,,2358.70532227,-22.3293457031,106.245178223,,0.0107031315565,0.715621292591,0.0109643861651,-0.698320448399
1512264233966398969,,144,,1512264233,965869903,0,,,2358.69287109,-22.4645996094,106.229858398,,0.0107061266899,0.715622961521,0.0109040886164,-0.698319673538
1512264233986931834,,145,,1512264233,985728979,0,,,2358.71289062,-22.4123535156,106.296173096,,0.0105978101492,0.715584456921,0.0109620541334,-0.698359847069
1512264234005825480,,146,,1512264234,5390882,0,,,2358.71704102,-22.2978515625,106.41394043,,0.0106116235256,0.715555369854,0.0109802410007,-0.698389112949
1512264234025479802,,147,,1512264234,24996995,0,,,2358.69702148,-22.2565917969,106.468078613,,0.0107091665268,0.715576052666,0.0109208896756,-0.698367357254
1512264234045158136,,148,,1512264234,44708013,0,,,2358.69213867,-22.2578125,106.384277344,,0.010740250349,0.715579926968,0.0109901726246,-0.698361814022
1512264234065801730,,149,,1512264234,65032958,0,,,2358.71582031,-22.2622070312,106.232635498,,0.0107667595148,0.715636491776,0.0109877660871,-0.698303580284
1512264234084892146,,150,,1512264234,84471940,0,,,2358.72583008,-22.2287597656,106.207214355,,0.0106937885284,0.71566337347,0.0109774023294,-0.698277115822
1512264234105018813,,151,,1512264234,104532957,0,,,2358.71582031,-22.1967773438,106.279144287,,0.010611847043,0.71564656496,0.0109710842371,-0.698295712471
1512264234124959334,,152,,1512264234,124419927,0,,,2358.79980469,-22.0749511719,106.412017822,,0.0106520801783,0.715630888939,0.010848723352,-0.698313117027
1512264234144582302,,153,,1512264234,143989086,0,,,2358.82177734,-22.0720214844,106.477020264,,0.0106595605612,0.715619146824,0.0107670724392,-0.698326289654
1512264234164375792,,154,,1512264234,163837909,0,,,2358.77612305,-22.2302246094,106.413696289,,0.0107788592577,0.715586602688,0.0108014419675,-0.698357343674
1512264234184600323,,155,,1512264234,184058904,0,,,2358.63256836,-22.3793945312,106.302520752,,0.0108597129583,0.715575635433,0.0109082236886,-0.698365747929
1512264234203630167,,156,,1512264234,203125953,0,,,2358.60668945,-22.3132324219,106.247039795,,0.0108487606049,0.715564072132,0.0110277831554,-0.698375880718
1512264234223220063,,157,,1512264234,222820997,0,,,2358.65380859,-22.2907714844,106.261688232,,0.010684132576,0.715622842312,0.0110438093543,-0.698318004608
1512264234243074490,,158,,1512264234,242743015,0,,,2358.69970703,-22.3259277344,106.401763916,,0.0106443166733,0.715631127357,0.0109622180462,-0.698311269283
1512264234262766573,,159,,1512264234,262387990,0,,,2358.68310547,-22.3571777344,106.485900879,,0.0106796324253,0.715603351593,0.0107831433415,-0.698342084885
1512264234282733032,,160,,1512264234,282305955,0,,,2358.63989258,-22.3981933594,106.386169434,,0.0107895582914,0.715618789196,0.0107749328017,-0.698324620724
1512264234306577407,,161,,1512264234,306107044,0,,,2358.69628906,-22.353515625,106.261352539,,0.0107482075691,0.715620338917,0.010912373662,-0.698321580887
1512264234322189959,,162,,1512264234,321837902,0,,,2358.75439453,-22.3254394531,106.184814453,,0.0106479227543,0.715657293797,0.0109862163663,-0.698284029961
1512264234341984646,,163,,1512264234,341643095,0,,,2358.73779297,-22.3081054688,106.187591553,,0.0106335133314,0.715640604496,0.0110741704702,-0.698299944401
1512264234362331000,,164,,1512264234,361946105,0,,,2358.69287109,-22.3591308594,106.294525146,,0.0105855315924,0.715622544289,0.0109976306558,-0.698320388794
1512264234381521156,,165,,1512264234,381136894,0,,,2358.66259766,-22.3161621094,106.36819458,,0.0106645673513,0.715590059757,0.0109330415726,-0.698353528976
1512264234401467042,,166,,1512264234,401112079,0,,,2358.6875,-22.123046875,106.444213867,,0.0107884705067,0.715610384941,0.0108454972506,-0.698332071304
1512264234421251834,,167,,1512264234,420878887,0,,,2358.69628906,-22.1037597656,106.406616211,,0.0108222216368,0.715646266937,0.0108132660389,-0.698295354843
1512264234440981834,,168,,1512264234,440618038,0,,,2358.68945312,-22.2553710938,106.266021729,,0.0108103752136,0.715636789799,0.0110234767199,-0.698302030563
1512264234461079386,,169,,1512264234,460539102,0,,,2358.69116211,-22.3217773438,106.155303955,,0.0107036232948,0.715638041496,0.0111077949405,-0.698301017284
1512264234480541000,,170,,1512264234,480138063,0,,,2358.62915039,-22.2585449219,106.209960938,,0.0109111517668,0.715610325336,0.0111575946212,-0.698325395584
1512264234505453448,,171,,1512264234,504653930,0,,,2358.78417969,-21.9997558594,106.326446533,,0.0105574727058,0.715673148632,0.0109063610435,-0.698270320892
1512264234520019021,,172,,1512264234,519661903,0,,,2358.81469727,-22.0446777344,106.416748047,,0.010595291853,0.715676009655,0.0107187479734,-0.698269665241
1512264234539887042,,173,,1512264234,539539098,0,,,2358.70117188,-22.3139648438,106.397918701,,0.0107365250587,0.71561896801,0.0107744857669,-0.698325276375
1512264234560532771,,174,,1512264234,560138940,0,,,2358.61962891,-22.4682617188,106.292266846,,0.0108054280281,0.715643882751,0.0109984278679,-0.698295176029
1512264234579777563,,175,,1512264234,579376935,0,,,2358.63085938,-22.4033203125,106.23727417,,0.0108031928539,0.715624809265,0.0111970230937,-0.698311626911
1512264234605086573,,176,,1512264234,604578971,0,,,2358.671875,-22.3120117188,106.250701904,,0.0107562690973,0.715594410896,0.0110590308905,-0.698345661163
1512264234619137146,,177,,1512264234,618633985,0,,,2358.609375,-22.328125,106.317443848,,0.0106589794159,0.715613126755,0.0109303742647,-0.698329925537
1512264234638977146,,178,,1512264234,638540983,0,,,2358.58544922,-22.3625488281,106.413909912,,0.0106404870749,0.715629637241,0.010831207037,-0.698315024376
1512264234659203083,,179,,1512264234,658348083,0,,,2358.62207031,-22.4038085938,106.421936035,,0.0107073634863,0.71566092968,0.0109095200896,-0.698280632496
1512264234678794802,,180,,1512264234,678258895,0,,,2358.74462891,-22.3461914062,106.310455322,,0.0107600688934,0.715683341026,0.0109494626522,-0.698256134987
1512264234698656000,,181,,1512264234,698236942,0,,,2358.78027344,-22.2316894531,106.146820068,,0.0106950700283,0.715636253357,0.0110745429993,-0.698303461075
1512264234718274177,,182,,1512264234,717853069,0,,,2358.70751953,-22.1640625,106.159637451,,0.0106562227011,0.715646862984,0.0111344605684,-0.698292255402
1512264234737866104,,183,,1512264234,737437009,0,,,2358.64648438,-22.2253417969,106.259857178,,0.010654643178,0.715624213219,0.0109708830714,-0.698318064213
1512264234760547042,,184,,1512264234,760185956,0,,,2358.6027832,-22.3425292969,106.424072266,,0.0106910020113,0.715623855591,0.0109170675278,-0.698318779469
1512264234779276156,,185,,1512264234,777831077,0,,,2358.67480469,-22.2922363281,106.439910889,,0.0107902735472,0.715675473213,0.0108724609017,-0.698264956474
1512264234797584281,,186,,1512264234,796871900,0,,,2358.72973633,-22.2756347656,106.38848877,,0.0107778310776,0.715691804886,0.0109336823225,-0.698247551918
1512264234817346313,,187,,1512264234,816747903,0,,,2358.68334961,-22.4030761719,106.250366211,,0.0109112709761,0.715648472309,0.0110579952598,-0.698287785053
1512264234836901625,,188,,1512264234,836435079,0,,,2358.70239258,-22.3239746094,106.163726807,,0.0107474625111,0.715644299984,0.0110826715827,-0.69829428196
1512264234860142927,,189,,1512264234,859756946,0,,,2358.68359375,-22.2495117188,106.203308105,,0.0106348097324,0.715629279613,0.0110776871443,-0.698311507702
1512264234879895844,,190,,1512264234,879534959,0,,,2358.67089844,-22.2490234375,106.367156982,,0.010673686862,0.715608596802,0.0109927728772,-0.698333501816
1512264234897043031,,191,,1512264234,896656990,0,,,2358.71679688,-22.3371582031,106.444763184,,0.010725736618,0.715629339218,0.0108374506235,-0.698313832283
1512264234916033188,,192,,1512264234,915628910,0,,,2358.73193359,-22.4050292969,106.385803223,,0.0107909888029,0.715656578541,0.0108924657106,-0.698283970356
1512264234936033813,,193,,1512264234,935628890,0,,,2358.70654297,-22.3520507812,106.224456787,,0.0107395499945,0.715687513351,0.0110622420907,-0.698250412941
1512264234957512250,,194,,1512264234,956283092,0,,,2358.65722656,-22.2839355469,106.213043213,,0.0107435882092,0.715672075748,0.011158503592,-0.698264718056
1512264234976099333,,195,,1512264234,975528955,0,,,2358.58398438,-22.24609375,106.302307129,,0.0107557326555,0.715607225895,0.0111604183912,-0.698330998421
1512264234997541313,,196,,1512264234,996934890,0,,,2358.58740234,-22.2600097656,106.381835938,,0.0107032954693,0.715642869473,0.0110143199563,-0.69829750061
1512264235015308917,,197,,1512264235,14580011,0,,,2358.66137695,-22.3193359375,106.40411377,,0.010758638382,0.715674340725,0.0108798071742,-0.698266506195
1512264235034711260,,198,,1512264235,34377098,0,,,2358.84545898,-22.3188476562,106.290588379,,0.0106818675995,0.715716838837,0.0108580961823,-0.698224544525
1512264235055363604,,199,,1512264235,54960966,0,,,2358.859375,-22.2392578125,106.193664551,,0.0106671154499,0.715698838234,0.0109387412667,-0.698241949081
1512264235075182875,,200,,1512264235,74245929,0,,,2358.69750977,-22.1904296875,106.159851074,,0.0106527805328,0.715653896332,0.0111940726638,-0.698284089565
1512264235095624854,,201,,1512264235,95062971,0,,,2358.54394531,-22.2370605469,106.308868408,,0.0107664167881,0.715649187565,0.0111642405391,-0.698287725449
1512264235115989750,,202,,1512264235,115319013,0,,,2358.50634766,-22.2844238281,106.462158203,,0.0108563154936,0.715597629547,0.0111117810011,-0.698340058327
1512264235134166365,,203,,1512264235,133830070,0,,,2358.64916992,-22.2609863281,106.439086914,,0.0107865929604,0.71565926075,0.010929942131,-0.69828081131
1512264235153412302,,204,,1512264235,153037071,0,,,2358.74682617,-22.2265625,106.310302734,,0.0107321292162,0.715689599514,0.0108619108796,-0.698251605034
1512264235173516573,,205,,1512264235,173053026,0,,,2358.77148438,-22.2844238281,106.187347412,,0.0106423944235,0.715729236603,0.010938167572,-0.698211193085
1512264235194301469,,206,,1512264235,193861961,0,,,2358.69116211,-22.3530273438,106.158050537,,0.0105971544981,0.715676128864,0.0110851749778,-0.6982640028
1512264235213008292,,207,,1512264235,212646007,0,,,2358.59716797,-22.3266601562,106.276367188,,0.0107243359089,0.715650975704,0.0111207142472,-0.698287248611
1512264235232822146,,208,,1512264235,232422113,0,,,2358.55932617,-22.349609375,106.522125244,,0.0110979527235,0.715598165989,0.0109714120626,-0.698337852955
1512264235252513396,,209,,1512264235,252063035,0,,,2358.5859375,-22.2709960938,106.529296875,,0.0108629316092,0.715602278709,0.0108170881867,-0.69833958149
1512264235272229802,,210,,1512264235,271893978,0,,,2358.65087891,-22.3737792969,106.394897461,,0.0107846260071,0.715664625168,0.0109001323581,-0.69827568531
1512264235292340739,,211,,1512264235,291882991,0,,,2358.67114258,-22.4340820312,106.237426758,,0.0106464028358,0.715723276138,0.0111355856061,-0.698214113712
1512264235312508604,,212,,1512264235,312125921,0,,,2358.68066406,-22.3171386719,106.177459717,,0.0106861293316,0.715716302395,0.0112002491951,-0.69821947813
1512264235331545739,,213,,1512264235,331199884,0,,,2358.62451172,-22.1533203125,106.209625244,,0.0107071697712,0.715679526329,0.0111592486501,-0.698257625103
1512264235351361521,,214,,1512264235,350972890,0,,,2358.57617188,-22.0966796875,106.322692871,,0.0107239335775,0.715620398521,0.0111260265112,-0.698318481445
1512264235371201625,,215,,1512264235,370882034,0,,,2358.6418457,-22.2033691406,106.459625244,,0.0108261406422,0.715638816357,0.0109243094921,-0.698301076889
1512264235390999489,,216,,1512264235,390634059,0,,,2358.79052734,-22.3012695312,106.40335083,,0.0106979161501,0.715675652027,0.0108731836081,-0.698266267776
1512264235410683812,,217,,1512264235,410310029,0,,,2358.89428711,-22.2878417969,106.252502441,,0.0106371939182,0.715714335442,0.0109284520149,-0.698226630688
1512264235430921677,,218,,1512264235,430536031,0,,,2358.81347656,-22.2348632812,106.111480713,,0.0105954706669,0.715749561787,0.0110024660826,-0.698189973831
1512264235450664594,,219,,1512264235,450288057,0,,,2358.54199219,-22.2434082031,106.191162109,,0.0107737183571,0.715643703938,0.0111662819982,-0.698293149471
1512264235470062406,,220,,1512264235,469705104,0,,,2358.45605469,-22.1813964844,106.419586182,,0.0108843892813,0.715571403503,0.0110667124391,-0.698367118835
1512264235490131729,,221,,1512264235,489674091,0,,,2358.51806641,-22.2822265625,106.548095703,,0.0108641088009,0.715623140335,0.0110739544034,-0.69831430912
1512264235509641937,,222,,1512264235,509304046,0,,,2358.72265625,-22.3220214844,106.463684082,,0.0108287483454,0.715679526329,0.0109771192074,-0.698258519173
1512264235529429385,,223,,1512264235,529099941,0,,,2358.8215332,-22.330078125,106.330230713,,0.0107738077641,0.715726017952,0.0107399299741,-0.698215484619
1512264235549367719,,224,,1512264235,549031972,0,,,2358.81005859,-22.3669433594,106.16519165,,0.0107818245888,0.715771973133,0.0107894390821,-0.698167383671
1512264235569022927,,225,,1512264235,568694114,0,,,2358.60498047,-22.341796875,106.124572754,,0.0106248259544,0.71572136879,0.011070638895,-0.698217391968
1512264235589290062,,226,,1512264235,588771104,0,,,2358.47509766,-22.4384765625,106.353118896,,0.0109331309795,0.715646028519,0.0111466571689,-0.698288619518
1512264235610041000,,227,,1512264235,609718084,0,,,2358.54272461,-22.3403320312,106.555389404,,0.0109388977289,0.715615928173,0.0109866112471,-0.698321998119
1512264235629184646,,228,,1512264235,628844022,0,,,2358.69677734,-22.3718261719,106.607330322,,0.0109465271235,0.715678095818,0.0107777863741,-0.698261380196
1512264235648614073,,229,,1512264235,648005962,0,,,2358.77832031,-22.3579101562,106.403259277,,0.0108789503574,0.715646445751,0.0107711851597,-0.698294818401
1512264235668140427,,230,,1512264235,667771100,0,,,2358.77368164,-22.3520507812,106.115631104,,0.0107198506594,0.715733408928,0.0110218822956,-0.69820445776
1512264235688516885,,231,,1512264235,688052892,0,,,2358.66845703,-22.3122558594,106.176757812,,0.0109211802483,0.715829730034,0.0112038701773,-0.69809961319
1512264235709612302,,232,,1512264235,709186077,0,,,2358.55908203,-22.2170410156,106.298370361,,0.010734602809,0.715687572956,0.011225476861,-0.698247790337
1512264235727833396,,233,,1512264235,727416038,0,,,2358.58056641,-22.2231445312,106.542785645,,0.0109446942806,0.715604007244,0.010953694582,-0.69833445549
1512264235747634698,,234,,1512264235,747121095,0,,,2358.75634766,-22.1333007812,106.53817749,,0.0109183043242,0.715611994267,0.0108042955399,-0.698329210281
1512264235767244698,,235,,1512264235,766786098,0,,,2358.83642578,-22.1481933594,106.460723877,,0.0108232647181,0.715720415115,0.0107738152146,-0.698219954967
1512264235786871000,,236,,1512264235,786432027,0,,,2358.81347656,-22.2202148438,106.254547119,,0.0107198506594,0.715766251087,0.010935023427,-0.698172092438
1512264235806957562,,237,,1512264235,806555986,0,,,2358.65136719,-22.3215332031,106.178405762,,0.0107668638229,0.715766012669,0.0110167041421,-0.698170244694
1512264235827275479,,238,,1512264235,826867103,0,,,2358.5078125,-22.2827148438,106.268157959,,0.0108063519001,0.71564912796,0.0110456198454,-0.698289036751
1512264235846482510,,239,,1512264235,845887899,0,,,2358.52197266,-22.1906738281,106.482940674,,0.0109782367945,0.715579926968,0.0110481381416,-0.698357224464
1512264235866030531,,240,,1512264235,865614891,0,,,2358.68994141,-22.2385253906,106.55090332,,0.0109388977289,0.715628147125,0.0109223201871,-0.698310375214
1512264235886200375,,241,,1512264235,885828971,0,,,2358.72875977,-22.3747558594,106.519958496,,0.0108812302351,0.715690433979,0.0108786895871,-0.698248147964
1512264235906209073,,242,,1512264235,905745983,0,,,2358.70410156,-22.4924316406,106.33895874,,0.0107826590538,0.715780258179,0.0109259337187,-0.698156833649
1512264235925450062,,243,,1512264235,925062894,0,,,2358.53100586,-22.6267089844,106.259063721,,0.011486813426,0.715615987778,0.0110883265734,-0.698311507702
1512264235945250687,,244,,1512264235,944884061,0,,,2358.57495117,-22.3579101562,106.231750488,,0.0107631236315,0.715684950352,0.0110448375344,-0.698252975941
1512264235964941937,,245,,1512264235,964477062,0,,,2358.62036133,-22.2004394531,106.414672852,,0.0108432024717,0.715643703938,0.0109896957874,-0.698294997215
1512264235988773708,,246,,1512264235,988296031,0,,,2358.67114258,-22.1850585938,106.52456665,,0.010834440589,0.715617537498,0.0109891891479,-0.698321819305
1512264236006246208,,247,,1512264236,4937887,0,,,2358.69140625,-22.2590332031,106.462097168,,0.0108788311481,0.715685486794,0.0109605714679,-0.698251903057
1512264236024279645,,248,,1512264236,23906946,0,,,2358.68212891,-22.3488769531,106.290771484,,0.0108550488949,0.715710639954,0.0109649002552,-0.698226511478
1512264236044079854,,249,,1512264236,43684005,0,,,2358.70874023,-22.2734375,106.200805664,,0.0108341872692,0.715730667114,0.011011518538,-0.698205530643
1512264236063851625,,250,,1512264236,63466072,0,,,2358.68652344,-22.0490722656,106.289123535,,0.0107068121433,0.715716421604,0.0110117718577,-0.698222160339
1512264236084127041,,251,,1512264236,83730936,0,,,2358.61035156,-21.9692382812,106.540527344,,0.010822609067,0.715652883053,0.0109144970775,-0.698287010193
1512264236103832145,,252,,1512264236,103151082,0,,,2358.58764648,-22.2004394531,106.597503662,,0.0108988285065,0.71564501524,0.0108554139733,-0.698294937611
1512264236123587250,,253,,1512264236,123043060,0,,,2358.59912109,-22.4270019531,106.490722656,,0.0109880566597,0.715673983097,0.0109790638089,-0.698261857033
1512264236143016781,,254,,1512264236,142662048,0,,,2358.63525391,-22.3901367188,106.377105713,,0.0110489577055,0.715707063675,0.0110540166497,-0.698225677013
1512264236162855114,,255,,1512264236,162472963,0,,,2358.68359375,-22.2263183594,106.257629395,,0.0107370764017,0.715738594532,0.0109799355268,-0.69819933176
1512264236182799072,,256,,1512264236,182334899,0,,,2358.62573242,-22.2495117188,106.187286377,,0.0107656419277,0.715689778328,0.0110142454505,-0.698248386383
1512264236202401364,,257,,1512264236,201973915,0,,,2358.55810547,-22.2727050781,106.317230225,,0.0108311325312,0.715663909912,0.0110530927777,-0.698273420334
1512264236224720062,,258,,1512264236,223937034,0,,,2358.56787109,-22.3063964844,106.459503174,,0.0107901841402,0.715630590916,0.0110185295343,-0.698308706284
1512264236241925322,,259,,1512264236,241580963,0,,,2358.69042969,-22.3337402344,106.469573975,,0.0109349936247,0.715679883957,0.0109622180462,-0.698256850243
1512264236261645270,,260,,1512264236,261301994,0,,,2358.81665039,-22.3913574219,106.35168457,,0.0108468085527,0.715661108494,0.01086435467,-0.69827902317
1512264236281798916,,261,,1512264236,281115055,0,,,2358.72167969,-22.38671875,106.184539795,,0.0107399523258,0.71566516161,0.01091029495,-0.698275744915
1512264236301325947,,262,,1512264236,300966024,0,,,2358.52783203,-22.3515625,106.191955566,,0.0107122212648,0.715701639652,0.0110757276416,-0.698236107826
1512264236321035583,,263,,1512264236,320679903,0,,,2358.52685547,-22.2553710938,106.348632812,,0.0106858164072,0.715721845627,0.0111854374409,-0.698214173317
1512264236341062145,,264,,1512264236,340679883,0,,,2358.66064453,-22.1945800781,106.559356689,,0.0107531398535,0.715724289417,0.0110416263342,-0.698212862015
1512264236360514697,,265,,1512264236,360173940,0,,,2358.7253418,-22.1989746094,106.537506104,,0.0108686089516,0.715705871582,0.0109100416303,-0.69823205471
1512264236380555999,,266,,1512264236,380167007,0,,,2358.67822266,-22.3015136719,106.420898438,,0.0112561434507,0.715626895428,0.0109386742115,-0.698306560516
1512264236400597666,,267,,1512264236,400213956,0,,,2358.65600586,-22.1875,106.29107666,,0.0109284520149,0.715735852718,0.0109975114465,-0.698198914528
1512264236420191104,,268,,1512264236,419837951,0,,,2358.68920898,-22.0808105469,106.183502197,,0.0106865912676,0.715736985207,0.011184707284,-0.6981985569
1512264236439948499,,269,,1512264236,439627885,0,,,2358.66479492,-22.1022949219,106.296661377,,0.0106778740883,0.715712308884,0.0111243054271,-0.698224961758
1512264236460251937,,270,,1512264236,459886074,0,,,2358.63061523,-22.2290039062,106.478973389,,0.0107879638672,0.715655088425,0.0108875110745,-0.698285698891
1512264236479676468,,271,,1512264236,479223012,0,,,2358.6484375,-22.3395996094,106.455688477,,0.0107989311218,0.71569532156,0.0108971968293,-0.698244094849
1512264236503608083,,272,,1512264236,500166893,0,,,2358.68969727,-22.3549804688,106.390014648,,0.0108775794506,0.715687215328,0.0109264180064,-0.698250889778
1512264236519494906,,273,,1512264236,518932104,0,,,2358.67211914,-22.3134765625,106.240539551,,0.0107816755772,0.715763151646,0.0111301019788,-0.698171138763
1512264236539034385,,274,,1512264236,538660049,0,,,2358.5612793,-22.30078125,106.200073242,,0.0107667893171,0.715739130974,0.0112798959017,-0.69819355011
1512264236559354749,,275,,1512264236,558882951,0,,,2358.43945312,-22.4870605469,106.349334717,,0.011531919241,0.71555185318,0.0113334208727,-0.698372483253
1512264236578822979,,276,,1512264236,578315973,0,,,2358.48876953,-22.3508300781,106.493530273,,0.0109410881996,0.715701162815,0.0110042765737,-0.698234200478
1512264236598886624,,277,,1512264236,598409891,0,,,2358.70654297,-22.2099609375,106.47857666,,0.0108862519264,0.715710520744,0.010784201324,-0.698229014874
1512264236618185166,,278,,1512264236,617855072,0,,,2358.76171875,-22.2299804688,106.356964111,,0.0107841640711,0.715730547905,0.0108613595366,-0.698208808899
1512264236637777301,,279,,1512264236,637459993,0,,,2358.61450195,-22.2971191406,106.254730225,,0.0108922272921,0.715710699558,0.0111267566681,-0.698223233223
1512264236657998343,,280,,1512264236,657562017,0,,,2358.58837891,-22.1770019531,106.222290039,,0.0107936114073,0.715732514858,0.0112447962165,-0.698200702667
1512264236679247406,,281,,1512264236,678772926,0,,,2358.6027832,-22.1877441406,106.280914307,,0.0107621103525,0.715693116188,0.0111512094736,-0.69824296236
1512264236698068864,,282,,1512264236,697626113,0,,,2358.64404297,-22.1970214844,106.38494873,,0.0107577741146,0.715658783913,0.0109634175897,-0.698281109333
1512264236718185426,,283,,1512264236,717694997,0,,,2358.67749023,-22.1433105469,106.486450195,,0.0107856988907,0.715734362602,0.010911822319,-0.698204040527
1512264236737163968,,284,,1512264236,736701965,0,,,2358.69238281,-22.15625,106.485412598,,0.0107551962137,0.715778887272,0.0109577551484,-0.69815826416
1512264236760458864,,285,,1512264236,760036945,0,,,2358.63793945,-22.3110351562,106.382049561,,0.0109575092793,0.715772986412,0.0110579580069,-0.698159575462
1512264236776599489,,286,,1512264236,776149034,0,,,2358.6171875,-22.2795410156,106.189483643,,0.0109138786793,0.715775966644,0.0112102851272,-0.698154687881
1512264236797300791,,287,,1512264236,796195983,0,,,2358.58300781,-22.2055664062,106.169464111,,0.0108256936073,0.715684115887,0.0112056955695,-0.698250234127
1512264236820262874,,288,,1512264236,819819927,0,,,2358.57763672,-22.1608886719,106.402801514,,0.0108232796192,0.715679705143,0.0110636875033,-0.698257148266
1512264236836106885,,289,,1512264236,835633039,0,,,2358.66699219,-22.2175292969,106.471893311,,0.0107799172401,0.715706944466,0.0109239518642,-0.698232114315
1512264236857116989,,290,,1512264236,856776952,0,,,2358.68066406,-22.3388671875,106.424865723,,0.0108323991299,0.715702474117,0.0109242498875,-0.698235809803
1512264236875389749,,291,,1512264236,874984025,0,,,2358.66845703,-22.3508300781,106.303405762,,0.0108065456152,0.715766191483,0.0109559521079,-0.698170363903
1512264236896257978,,292,,1512264236,895786046,0,,,2358.61083984,-22.337890625,106.230743408,,0.0108135193586,0.715706169605,0.0110864639282,-0.698229908943
1512264236915395687,,293,,1512264236,915016889,0,,,2358.49804688,-22.306640625,106.30847168,,0.0111425071955,0.71562230587,0.0112603604794,-0.698307812214
1512264236935166676,,294,,1512264236,934722900,0,,,2358.55249023,-22.1584472656,106.414794922,,0.0108508914709,0.715680003166,0.0111428275704,-0.698255121708
1512264236956865947,,295,,1512264236,956171989,0,,,2358.59936523,-22.255859375,106.534057617,,0.01082713902,0.71567773819,0.0109257921576,-0.698261260986
1512264236975386520,,296,,1512264236,975061893,0,,,2358.63476562,-22.345703125,106.496368408,,0.0108918100595,0.715752065182,0.0108357444406,-0.698185563087
1512264236995066312,,297,,1512264236,994760036,0,,,2358.69140625,-22.2814941406,106.291107178,,0.0107997655869,0.715785741806,0.0110200718045,-0.698149561882
1512264237015667249,,298,,1512264237,14059066,0,,,2358.68408203,-22.1848144531,106.207519531,,0.0107900053263,0.715745568275,0.0111109241843,-0.698189377785
1512264237034209905,,299,,1512264237,33816099,0,,,2358.59375,-22.1323242188,106.286468506,,0.0109234303236,0.715671002865,0.0111955776811,-0.69826233387
1512264237053554124,,300,,1512264237,53040981,0,,,2358.5715332,-22.1696777344,106.394012451,,0.0108856409788,0.715673804283,0.0111312493682,-0.698261201382
1512264237073313083,,301,,1512264237,72915077,0,,,2358.61401367,-22.3127441406,106.485931396,,0.0109046846628,0.715711891651,0.0109119638801,-0.698225259781
1512264237093494333,,302,,1512264237,92931985,0,,,2358.62353516,-22.4340820312,106.469207764,,0.0109502077103,0.715708434582,0.0108171105385,-0.69822961092
1512264237112710426,,303,,1512264237,112340927,0,,,2358.70019531,-22.3044433594,106.31652832,,0.0107833296061,0.715776443481,0.0109457597136,-0.698160409927
1512264237132689437,,304,,1512264237,132314920,0,,,2358.64648438,-22.2536621094,106.218841553,,0.0107951313257,0.715729236603,0.0111302062869,-0.698205888271
1512264237153022301,,305,,1512264237,152647018,0,,,2358.52880859,-22.2834472656,106.234680176,,0.0108721703291,0.715698301792,0.0113198161125,-0.698233187199
1512264237172676520,,306,,1512264237,172337055,0,,,2358.48754883,-22.2995605469,106.339477539,,0.0108931511641,0.715689122677,0.0113091617823,-0.698242485523
1512264237193633395,,307,,1512264237,193088054,0,,,2358.54125977,-22.2854003906,106.449768066,,0.0109735876322,0.715706050396,0.0110550522804,-0.69822794199
1512264237212002041,,308,,1512264237,211544036,0,,,2358.70410156,-22.2346191406,106.432495117,,0.0108044743538,0.71574819088,0.0109128057957,-0.698189616203
1512264237231550635,,309,,1512264237,231192111,0,,,2358.69042969,-22.3410644531,106.364105225,,0.0111109614372,0.715673565865,0.0109506323934,-0.698260605335
1512264237251437093,,310,,1512264237,251012086,0,,,2358.68139648,-22.2756347656,106.290649414,,0.0107887983322,0.715749204159,0.0110272914171,-0.698187112808
1512264237271237822,,311,,1512264237,270842075,0,,,2358.54980469,-22.2937011719,106.24621582,,0.0108072757721,0.71571034193,0.0112323611975,-0.698223292828
1512264237291370374,,312,,1512264237,290776014,0,,,2358.49316406,-22.3249511719,106.338562012,,0.0109237581491,0.715688884258,0.0112461224198,-0.698243319988
1512264237310799332,,313,,1512264237,310349941,0,,,2358.56396484,-22.2587890625,106.436431885,,0.0109783560038,0.715685904026,0.0111349374056,-0.698247134686
1512264237330592145,,314,,1512264237,330241918,0,,,2358.70214844,-22.2099609375,106.443023682,,0.0108280777931,0.715702235699,0.0109927579761,-0.698235034943
1512264237350611051,,315,,1512264237,350240945,0,,,2358.73364258,-22.2514648438,106.363739014,,0.0108030736446,0.715753078461,0.0109518915415,-0.698184072971
1512264237370053343,,316,,1512264237,369698047,0,,,2358.70410156,-22.33203125,106.255279541,,0.010795623064,0.715765893459,0.0110291540623,-0.698169827461
1512264237389979176,,317,,1512264237,389569997,0,,,2358.58666992,-22.3537597656,106.226348877,,0.0108108371496,0.715737938881,0.0112563744187,-0.698194622993
1512264237410007666,,318,,1512264237,409617900,0,,,2358.51660156,-22.2749023438,106.279022217,,0.0109522342682,0.715705513954,0.0112903639674,-0.698225021362
1512264237430538968,,319,,1512264237,429899930,0,,,2358.52026367,-22.2419433594,106.393676758,,0.0110035985708,0.715669989586,0.0111975520849,-0.698262155056
1512264237449485374,,320,,1512264237,448993921,0,,,2358.59033203,-22.2800292969,106.508056641,,0.0110947787762,0.715665102005,0.0109169483185,-0.698270201683
1512264237469096884,,321,,1512264237,468696117,0,,,2358.73071289,-22.3227539062,106.51763916,,0.0108531564474,0.715761482716,0.0107001364231,-0.698178529739
1512264237489061155,,322,,1512264237,488677978,0,,,2358.70654297,-22.3669433594,106.366882324,,0.0107405930758,0.71576333046,0.0108707472682,-0.698175728321
1512264237508709489,,323,,1512264237,508338928,0,,,2358.60546875,-22.3327636719,106.261627197,,0.0108227282763,0.715742528439,0.0111307129264,-0.698191702366
1512264237528426103,,324,,1512264237,528047084,0,,,2358.52319336,-22.2236328125,106.242675781,,0.0109063982964,0.71568441391,0.0112742930651,-0.698247611523
1512264237548588707,,325,,1512264237,547869920,0,,,2358.4284668,-22.3068847656,106.373748779,,0.0115290135145,0.71555352211,0.0113991871476,-0.698369681835
1512264237568688968,,326,,1512264237,568109035,0,,,2358.56445312,-22.2309570312,106.43951416,,0.0109331458807,0.71568775177,0.0111292153597,-0.698246240616
1512264237588829645,,327,,1512264237,587794065,0,,,2358.70605469,-22.2517089844,106.435882568,,0.0108571797609,0.715760290623,0.0109495297074,-0.698175787926
1512264237607972197,,328,,1512264237,607501029,0,,,2358.74853516,-22.2600097656,106.365386963,,0.0107477456331,0.715781092644,0.0109778940678,-0.69815570116
1512264237627326416,,329,,1512264237,626962900,0,,,2358.57958984,-22.3728027344,106.364013672,,0.0113997608423,0.715638399124,0.0111370012164,-0.698289215565
1512264237647797457,,330,,1512264237,647452116,0,,,2358.52880859,-22.2482910156,106.284606934,,0.0109324008226,0.715749382973,0.0111829340458,-0.698182165623
1512264237667062666,,331,,1512264237,666697025,0,,,2358.48486328,-22.2761230469,106.224884033,,0.0109031945467,0.715704083443,0.011243365705,-0.698228120804
1512264237686650374,,332,,1512264237,686301946,0,,,2358.53710938,-22.3674316406,106.183258057,,0.0108578950167,0.715603351593,0.0114280059934,-0.698329031467
1512264237710023811,,333,,1512264237,709590911,0,,,2358.64526367,-22.2985839844,106.355224609,,0.0108615309,0.71573549509,0.0111460238695,-0.698198020458
1512264237726442770,,334,,1512264237,726015090,0,,,2358.77880859,-22.2312011719,106.432617188,,0.0108230859041,0.715744256973,0.0109419375658,-0.698192954063
1512264237748897509,,335,,1512264237,748518943,0,,,2358.71386719,-22.2614746094,106.41998291,,0.0108681619167,0.715729832649,0.0108785927296,-0.698207974434
1512264237768466155,,336,,1512264237,768013000,0,,,2358.54394531,-22.2673339844,106.335449219,,0.0109664350748,0.715723872185,0.011060141027,-0.698209702969
1512264237786404593,,337,,1512264237,785994052,0,,,2358.45751953,-22.2517089844,106.304443359,,0.0109360814095,0.715709924698,0.0112025588751,-0.698222160339
1512264237806628186,,338,,1512264237,805387020,0,,,2358.48535156,-22.2895507812,106.295898438,,0.010864764452,0.715708076954,0.011311404407,-0.698223412037
1512264237825310322,,339,,1512264237,824985027,0,,,2358.59863281,-22.3249511719,106.361602783,,0.0108331590891,0.715751349926,0.0111505314708,-0.698182106018
1512264237845018134,,340,,1512264237,844685077,0,,,2358.70483398,-22.2563476562,106.42868042,,0.010828062892,0.715755224228,0.0110338255763,-0.698180139065
1512264237865545270,,341,,1512264237,865052938,0,,,2358.69824219,-22.203125,106.394592285,,0.010812073946,0.715778827667,0.010915659368,-0.698158025742
1512264237885188291,,342,,1512264237,884687900,0,,,2358.60229492,-22.2041015625,106.341522217,,0.0109180212021,0.715784668922,0.0109789520502,-0.698149263859
1512264237907492041,,343,,1512264237,906780958,0,,,2358.54443359,-22.2348632812,106.262969971,,0.0109921693802,0.715717077255,0.0111302956939,-0.698215126991
1512264237924719072,,344,,1512264237,923989057,0,,,2358.44042969,-22.4291992188,106.381866455,,0.0115922391415,0.715592384338,0.0112470313907,-0.698331356049
1512264237944218238,,345,,1512264237,943756103,0,,,2358.62060547,-22.2795410156,106.378540039,,0.0109771639109,0.715697348118,0.01105774194,-0.698236763477
1512264237965438551,,346,,1512264237,964919090,0,,,2358.70703125,-22.3056640625,106.403747559,,0.010892957449,0.715673267841,0.0109999701381,-0.698263645172
1512264237983655478,,347,,1512264237,983182907,0,,,2358.56274414,-22.3818359375,106.423309326,,0.0109846293926,0.715718150139,0.0110334306955,-0.698215723038
1512264238004026624,,348,,1512264238,3139972,0,,,2358.51831055,-22.2922363281,106.375793457,,0.0109032392502,0.715784788132,0.0110947936773,-0.698147654533
1512264238023226884,,349,,1512264238,22829055,0,,,2358.52709961,-22.2814941406,106.323303223,,0.0108377486467,0.715806305408,0.01116681844,-0.698125481606
1512264238042960791,,350,,1512264238,42608022,0,,,2358.61083984,-22.30859375,106.35848999,,0.0109724849463,0.715762257576,0.0110699832439,-0.69817006588
1512264238062709332,,351,,1512264238,62335014,0,,,2358.68945312,-22.3364257812,106.307006836,,0.0108798593283,0.715703189373,0.0110754296184,-0.698231995106
1512264238082500895,,352,,1512264238,82082033,0,,,2358.6875,-22.2822265625,106.314056396,,0.010868281126,0.715709090233,0.0111062377691,-0.698225557804
1512264238104042613,,353,,1512264238,102133989,0,,,2358.61767578,-22.25,106.382781982,,0.0109408646822,0.715708971024,0.0110940858722,-0.698224842548
1512264238122036468,,354,,1512264238,121680974,0,,,2358.57617188,-22.2509765625,106.378204346,,0.0109468698502,0.715742945671,0.0110454782844,-0.698190689087
1512264238142076311,,355,,1512264238,141757011,0,,,2358.6262207,-22.2504882812,106.180938721,,0.0106823444366,0.715695142746,0.0111677497625,-0.698241770267
1512264238161780322,,356,,1512264238,161381006,0,,,2358.57421875,-22.3479003906,106.321899414,,0.010867998004,0.715716719627,0.0110344588757,-0.698219060898
1512264238181519384,,357,,1512264238,181173086,0,,,2358.63452148,-22.2619628906,106.359985352,,0.0108572393656,0.715740382671,0.0110787302256,-0.698194086552
1512264238204119280,,358,,1512264238,200871944,0,,,2358.64697266,-22.2451171875,106.415344238,,0.0108793079853,0.715714395046,0.0111176744103,-0.698219954967
1512264238221080582,,359,,1512264238,220688104,0,,,2358.63989258,-22.2502441406,106.40335083,,0.0108877271414,0.715748906136,0.0111117139459,-0.698184430599
1512264238240870530,,360,,1512264238,240485906,0,,,2358.61572266,-22.2414550781,106.339080811,,0.0108590126038,0.715777277946,0.0110806599259,-0.698156237602
1512264238260843290,,361,,1512264238,260353088,0,,,2358.54394531,-22.2770996094,106.278839111,,0.0108539909124,0.715777635574,0.0111736357212,-0.698154509068
1512264238280457561,,362,,1512264238,280093908,0,,,2358.61010742,-22.1960449219,106.284820557,,0.0108667463064,0.715739011765,0.0111258924007,-0.698194682598
1512264238303795061,,363,,1512264238,299928903,0,,,2358.66796875,-22.1389160156,106.341186523,,0.0108962804079,0.715734839439,0.0111075714231,-0.698198854923
1512264238320054488,,364,,1512264238,319596052,0,,,2358.67578125,-22.2072753906,106.369750977,,0.0108544826508,0.715664625168,0.011029176414,-0.698272585869
1512264238339794332,,365,,1512264238,339463949,0,,,2358.62109375,-22.2956542969,106.407287598,,0.0109035968781,0.715700507164,0.0110802799463,-0.698234319687
1512264238359763342,,366,,1512264238,359314918,0,,,2358.57373047,-22.3361816406,106.360961914,,0.0108798444271,0.715719103813,0.0110524147749,-0.698216080666
1512264238379632040,,367,,1512264238,379146099,0,,,2358.54541016,-22.333984375,106.300964355,,0.0108614116907,0.715762197971,0.0110461637378,-0.698172152042
1512264238404142092,,368,,1512264238,399812936,0,,,2358.5378418,-22.3293457031,106.264099121,,0.0108529776335,0.715747177601,0.0110769271851,-0.698187291622
1512264238419564801,,369,,1512264238,418956041,0,,,2358.55419922,-22.4284667969,106.363983154,,0.0111162811518,0.715720891953,0.0112141594291,-0.698207914829
1512264238439185426,,370,,1512264238,438560009,0,,,2358.6171875,-22.3073730469,106.440002441,,0.0108716636896,0.715769469738,0.0111269280314,-0.698163330555
1512264238459178082,,371,,1512264238,458585023,0,,,2358.62548828,-22.3044433594,106.443267822,,0.0109242349863,0.715729832649,0.0111114531755,-0.698203444481
1512264238479256936,,372,,1512264238,478543996,0,,,2358.58618164,-22.2424316406,106.411193848,,0.0110140740871,0.715691328049,0.0111014693975,-0.698241591454
1512264238500626728,,373,,1512264238,500231027,0,,,2358.50439453,-22.1909179688,106.306945801,,0.0109802335501,0.715707302094,0.0110719949007,-0.69822627306
1512264238518789749,,374,,1512264238,517873048,0,,,2358.49536133,-22.2143554688,106.216125488,,0.0109006464481,0.715744554996,0.0111273303628,-0.69818842411
1512264238538062509,,375,,1512264238,537473917,0,,,2358.61572266,-22.2141113281,106.238586426,,0.0107823759317,0.715760588646,0.0111496597528,-0.698173463345
1512264238558514957,,376,,1512264238,557421922,0,,,2358.70996094,-22.1501464844,106.382995605,,0.0108135342598,0.715719819069,0.011021822691,-0.698216736317
1512264238580547717,,377,,1512264238,580107927,0,,,2358.70019531,-22.15625,106.494659424,,0.0108837336302,0.715715527534,0.0109757706523,-0.698220849037
1512264238598714801,,378,,1512264238,597073078,0,,,2358.57275391,-22.2692871094,106.536193848,,0.0109277814627,0.715692162514,0.0109564885497,-0.698244392872
1512264238618328551,,379,,1512264238,616924047,0,,,2358.4609375,-22.3137207031,106.334777832,,0.0109362751245,0.715749382973,0.0112050026655,-0.69818174839
