rosbagTimestamp,header,seq,stamp,secs,nsecs,frame_id,pose,position,x,y,z,orientation,x,y,z,w
1510961871386006433,,1,,1510961871,384407997,0,,,1443.625,217.542480469,642.710632324,,-0.0116919130087,0.710170865059,0.00856250524521,-0.70388007164
1510961871406259870,,2,,1510961871,405627965,0,,,1443.57885742,217.733642578,642.589172363,,-0.011347591877,0.709797501564,0.0100313648582,-0.704242825508
1510961871424634818,,3,,1510961871,424022912,0,,,1443.44714355,217.447998047,642.471618652,,-0.0116479694843,0.709733009338,0.0101126730442,-0.704301834106
1510961871444332683,,4,,1510961871,443588018,0,,,1443.30310059,217.458251953,642.175842285,,-0.0119240134954,0.709940195084,0.0105546712875,-0.704081773758
1510961871463996277,,5,,1510961871,463372945,0,,,1443.60021973,217.097412109,642.591552734,,-0.0114200413227,0.709962308407,0.00839399546385,-0.704097032547
1510961871488353568,,6,,1510961871,487529993,0,,,1443.41149902,217.412353516,642.254211426,,-0.0116649568081,0.709797382355,0.0101071000099,-0.704236745834
1510961871503581016,,7,,1510961871,502954006,0,,,1443.53955078,217.454345703,642.564025879,,-0.0113806575537,0.709689497948,0.00979686528444,-0.704354643822
1510961871525282787,,8,,1510961871,524086952,0,,,1443.57116699,217.384765625,642.410583496,,-0.0119920819998,0.709981024265,0.0103247761726,-0.70404291153
1510961871543456277,,9,,1510961871,542743921,0,,,1443.50219727,217.448242188,642.823425293,,-0.0120622366667,0.710054337978,0.0091757029295,-0.703983724117
1510961871564980443,,10,,1510961871,563216924,0,,,1443.34301758,217.318847656,642.323913574,,-0.011559382081,0.709547042847,0.0101270452142,-0.704490423203
1510961871584371954,,11,,1510961871,582868099,0,,,1443.37182617,217.435546875,642.487060547,,-0.0116688460112,0.709605455399,0.0102814659476,-0.704427540302
1510961871606646537,,12,,1510961871,605951070,0,,,1443.67102051,217.221191406,642.370666504,,-0.0113716125488,0.709917545319,0.00979015231133,-0.704124927521
1510961871623554350,,13,,1510961871,622278928,0,,,1443.52001953,217.572753906,642.723754883,,-0.0116220712662,0.710026562214,0.00902833044529,-0.704021155834
1510961871642348204,,14,,1510961871,641752004,0,,,1443.56494141,217.635253906,642.441223145,,-0.0115047246218,0.709617435932,0.0101389735937,-0.70442032814
1510961871664347787,,15,,1510961871,662684917,0,,,1443.5345459,217.721191406,642.562805176,,-0.0115412473679,0.709669411182,0.00967778265476,-0.704373836517
1510961871687416068,,16,,1510961871,686259031,0,,,1443.60961914,217.563232422,642.196228027,,-0.0119811743498,0.710158824921,0.0106046944857,-0.703859627247
1510961871702097266,,17,,1510961871,701322078,0,,,1443.45568848,217.290527344,642.513244629,,-0.0114614218473,0.709968805313,0.00840175151825,-0.704089701176
1510961871721569922,,18,,1510961871,720890045,0,,,1443.53198242,217.543701172,642.419067383,,-0.0112333446741,0.709924757481,0.00995041429996,-0.704117655754
1510961871744008204,,19,,1510961871,742765903,0,,,1443.55871582,217.563232422,642.525146484,,-0.0114370584488,0.709841430187,0.0099866092205,-0.704197824001
1510961871761111537,,20,,1510961871,760262966,0,,,1443.47460938,217.655761719,642.287536621,,-0.011891156435,0.710053801537,0.0105907991529,-0.703967392445
1510961871785784506,,21,,1510961871,784986972,0,,,1443.52587891,217.37109375,642.69317627,,-0.0116800069809,0.710138201714,0.00868205726147,-0.703911840916
1510961871801387735,,22,,1510961871,799848079,0,,,1443.39611816,217.517822266,642.314453125,,-0.0117581486702,0.709494650364,0.0100635662675,-0.704540729523
1510961871821708464,,23,,1510961871,819823026,0,,,1443.66430664,217.238769531,642.444641113,,-0.0118102729321,0.709955394268,0.00988828390837,-0.704078197479
1510961871840410964,,24,,1510961871,839585065,0,,,1443.40136719,217.200439453,642.135986328,,-0.0119583010674,0.710159897804,0.0103773772717,-0.703862249851
1510961871860105443,,25,,1510961871,859392881,0,,,1443.4041748,217.383544922,642.727478027,,-0.01210026443,0.709948718548,0.00901916623116,-0.704091608524
1510961871887348256,,26,,1510961871,886218070,0,,,1443.41235352,217.456542969,642.412719727,,-0.0114624500275,0.709710001945,0.0100805312395,-0.704328596592
1510961871902135235,,27,,1510961871,901096105,0,,,1443.50244141,217.570800781,642.638366699,,-0.0114265680313,0.709765970707,0.0101713761687,-0.704271376133
1510961871918721433,,28,,1510961871,918167114,0,,,1443.28601074,217.458007812,641.952453613,,-0.0117205679417,0.710133910179,0.0105872824788,-0.703889429569
1510961871948056120,,29,,1510961871,946866035,0,,,1443.49523926,217.447753906,642.636169434,,-0.012234300375,0.709899961948,0.00933792442083,-0.70413428545
1510961871958809558,,30,,1510961871,958117008,0,,,1443.74804688,217.346923828,642.301696777,,-0.0112268775702,0.709628164768,0.0100427418947,-0.704415202141
1510961871979168047,,31,,1510961871,978177070,0,,,1443.50964355,217.655517578,642.372741699,,-0.0115588158369,0.710009098053,0.0104024484754,-0.704020857811
1510961871998375079,,32,,1510961871,997586011,0,,,1443.38647461,217.659179688,641.934753418,,-0.0119369775057,0.709906756878,0.0113780722022,-0.704102516174
1510961872018269193,,33,,1510961872,17410993,0,,,1443.51843262,217.618896484,642.78692627,,-0.0117948949337,0.70977306366,0.00867985934019,-0.704278111458
1510961872037960495,,34,,1510961872,37266016,0,,,1443.6730957,217.732910156,642.485290527,,-0.011503726244,0.709684073925,0.0105658024549,-0.704346835613
1510961872057756068,,35,,1510961872,57106971,0,,,1443.61254883,217.594726562,642.261108398,,-0.0112833380699,0.709864497185,0.0100714489818,-0.704175949097
1510961872078522422,,36,,1510961872,77742099,0,,,1443.38562012,217.522216797,642.078674316,,-0.0122213959694,0.710088789463,0.0110730677843,-0.703919053078
1510961872097488985,,37,,1510961872,96781969,0,,,1443.52563477,217.269287109,642.452392578,,-0.0121102184057,0.710105657578,0.00959758460522,-0.703925549984
1510961872117028776,,38,,1510961872,116271018,0,,,1443.3861084,217.609863281,642.494812012,,-0.0114098489285,0.70976960659,0.0103117898107,-0.70426595211
1510961872136931068,,39,,1510961872,136218070,0,,,1443.40100098,217.553222656,642.550964355,,-0.0116809308529,0.709862291813,0.00984049588442,-0.704174816608
1510961872156518203,,40,,1510961872,155821084,0,,,1443.44372559,217.561767578,642.344665527,,-0.0121629089117,0.710054636002,0.00990923494101,-0.703971803188
1510961872177662058,,41,,1510961872,176481962,0,,,1443.78991699,217.326171875,642.67010498,,-0.0123003721237,0.71024954319,0.00882519036531,-0.703787147999
1510961872196153568,,42,,1510961872,195516109,0,,,1443.53149414,217.234619141,642.183288574,,-0.0118261426687,0.709714889526,0.0102525353432,-0.704315066338
1510961872216276693,,43,,1510961872,215440988,0,,,1443.44665527,217.386230469,642.406066895,,-0.0116944909096,0.710012197495,0.0101140066981,-0.704019665718
1510961872239461641,,44,,1510961872,235665082,0,,,1443.42724609,217.403076172,642.124145508,,-0.01189263165,0.710229039192,0.0104840919375,-0.703792154789
1510961872256281901,,45,,1510961872,255292892,0,,,1443.55517578,217.611083984,642.942077637,,-0.0118296295404,0.709953844547,0.0089073702693,-0.704092502594
1510961872276230078,,46,,1510961872,275377988,0,,,1443.57824707,217.587402344,642.562683105,,-0.0112868249416,0.709641158581,0.0100172907114,-0.704401671886
1510961872296137735,,47,,1510961872,294950962,0,,,1443.49060059,217.723876953,642.536987305,,-0.011807218194,0.709623813629,0.0103814303875,-0.70440530777
1510961872315072943,,48,,1510961872,314384937,0,,,1443.79541016,217.531494141,642.184753418,,-0.0118613094091,0.710339665413,0.0103241279721,-0.703683316708
1510961872337241485,,49,,1510961872,335577011,0,,,1443.62243652,217.567382812,642.415405273,,-0.0120095908642,0.710405349731,0.00957538187504,-0.70362508297
1510961872354733308,,50,,1510961872,353934049,0,,,1443.58862305,217.734619141,642.362731934,,-0.0116138905287,0.709699451923,0.0106315091252,-0.704328477383
1510961872375141641,,51,,1510961872,374156951,0,,,1443.56506348,217.703369141,642.522033691,,-0.0115507543087,0.709860861301,0.0102499946952,-0.704172670841
1510961872394158151,,52,,1510961872,393591880,0,,,1443.53710938,217.717529297,642.442626953,,-0.0118565708399,0.710036575794,0.0106923729181,-0.703983664513
1510961872415356433,,53,,1510961872,414251089,0,,,1443.48730469,217.436279297,642.606384277,,-0.0117939561605,0.710105240345,0.00862286984921,-0.703944027424
1510961872435421016,,54,,1510961872,434986114,0,,,1443.40563965,217.539306641,642.26361084,,-0.0120507180691,0.709793627262,0.0108696743846,-0.704222738743
1510961872453295495,,55,,1510961872,452810049,0,,,1443.67297363,217.244628906,642.333435059,,-0.011549949646,0.709929764271,0.0101720169187,-0.704104304314
1510961872474597526,,56,,1510961872,474009037,0,,,1443.42285156,217.518066406,642.02557373,,-0.0120834112167,0.710289537907,0.0111439824104,-0.703717708588
1510961872492762891,,57,,1510961872,492264986,0,,,1443.52746582,217.358642578,642.747802734,,-0.0121405273676,0.709955215454,0.00902081280947,-0.704084396362
1510961872514862735,,58,,1510961872,514486074,0,,,1443.60083008,217.625976562,642.424499512,,-0.0117488354445,0.709563732147,0.00962763279676,-0.704477548599
1510961872537785287,,59,,1510961872,537425041,0,,,1443.66882324,217.640136719,642.684753418,,-0.0119993239641,0.710043549538,0.0104661285877,-0.703977584839
1510961872552108568,,60,,1510961872,551733970,0,,,1443.17248535,217.423339844,641.668029785,,-0.0119891166687,0.710416853428,0.0111367926002,-0.703590929508
1510961872571632995,,61,,1510961872,571273088,0,,,1443.65075684,217.283203125,642.715148926,,-0.0125120282173,0.710426747799,0.00892685353756,-0.70360326767
1510961872591355026,,62,,1510961872,591056108,0,,,1443.63317871,217.414550781,642.317443848,,-0.0117251873016,0.709904789925,0.00995263457298,-0.704129636288
1510961872611128568,,63,,1510961872,610801935,0,,,1443.52233887,217.713378906,642.49420166,,-0.0114057064056,0.709911108017,0.0103661864996,-0.704122662544
1510961872631071641,,64,,1510961872,630656003,0,,,1443.56896973,217.607910156,642.238708496,,-0.0117308497429,0.710096299648,0.0105119943619,-0.703928411007
1510961872650897266,,65,,1510961872,650515079,0,,,1443.59777832,217.659667969,642.798034668,,-0.0119978934526,0.709869146347,0.0088147893548,-0.704176187515
1510961872671823047,,66,,1510961872,670968055,0,,,1443.79016113,217.580078125,642.382385254,,-0.0118708908558,0.709868431091,0.0104991793633,-0.704155981541
1510961872692477266,,67,,1510961872,691574096,0,,,1443.58227539,217.572998047,642.347839355,,-0.0117054432631,0.709804832935,0.0104507282376,-0.704223692417
1510961872710692891,,68,,1510961872,710146903,0,,,1443.39904785,217.739501953,642.070495605,,-0.0123593658209,0.710373044014,0.0112316310406,-0.703627109528
1510961872731221276,,69,,1510961872,730366945,0,,,1443.5838623,217.562255859,642.760314941,,-0.0120701789856,0.710194766521,0.00900964438915,-0.703843951225
1510961872754377995,,70,,1510961872,753710031,0,,,1443.56384277,217.697753906,642.619445801,,-0.0113488286734,0.709713101387,0.0101841688156,-0.704325675964
1510961872772275599,,71,,1510961872,770967006,0,,,1443.49182129,217.439697266,642.453491211,,-0.0118073672056,0.709829211235,0.0104167237878,-0.704197824001
1510961872794666432,,72,,1510961872,793977022,0,,,1443.45324707,217.535400391,642.140625,,-0.0124675780535,0.710152983665,0.011137470603,-0.703848958015
1510961872816304714,,73,,1510961872,815500974,0,,,1443.71105957,217.180419922,642.666137695,,-0.0121124386787,0.710217237473,0.00902745127678,-0.703820347786
1510961872834449922,,74,,1510961872,831298112,0,,,1443.42468262,217.576171875,642.235900879,,-0.0122141540051,0.710068702698,0.0110382810235,-0.703939914703
1510961872853558828,,75,,1510961872,852698087,0,,,1443.51281738,217.625732422,642.503601074,,-0.0115027725697,0.709831476212,0.0102308690548,-0.704203307629
1510961872870303099,,76,,1510961872,869074106,0,,,1443.52502441,217.555419922,642.226257324,,-0.0122119188309,0.71008348465,0.0106442719698,-0.703931093216
1510961872890531745,,77,,1510961872,888670921,0,,,1443.68640137,217.598632812,642.814880371,,-0.0123289823532,0.71008849144,0.00912135839462,-0.703945338726
1510961872910475651,,78,,1510961872,908371925,0,,,1443.58337402,217.519775391,642.228393555,,-0.0117844939232,0.709629297256,0.0105225965381,-0.704398155212
1510961872931664557,,79,,1510961872,929084062,0,,,1443.53063965,217.616210938,642.370300293,,-0.0123910754919,0.709927916527,0.0111510455608,-0.704076945782
1510961872948658047,,80,,1510961872,947592020,0,,,1443.64208984,217.350341797,642.133361816,,-0.0121285319328,0.710301280022,0.0112254545093,-0.703703701496
1510961872970633984,,81,,1510961872,968183040,0,,,1443.39611816,217.607421875,642.374206543,,-0.012142688036,0.709962964058,0.0100707560778,-0.704062223434
1510961872993214557,,82,,1510961872,987776994,0,,,1443.51611328,217.611816406,642.579589844,,-0.0114260315895,0.70968747139,0.00996547192335,-0.704353451729
1510961873008085391,,83,,1510961873,7107973,0,,,1443.52844238,217.709228516,642.625183105,,-0.0117908418179,0.709813177586,0.00993106514215,-0.704221248627
1510961873028784349,,84,,1510961873,26988983,0,,,1443.73046875,217.63671875,642.201293945,,-0.0122936218977,0.710222840309,0.0111921206117,-0.703780472279
1510961873047156641,,85,,1510961873,46473026,0,,,1443.67077637,217.374511719,642.462768555,,-0.0120065361261,0.710148572922,0.00891848653555,-0.703892827034
1510961873067836849,,86,,1510961873,66935062,0,,,1443.60070801,217.641601562,642.190734863,,-0.0121475756168,0.710090398788,0.0109010264277,-0.703921198845
1510961873087167005,,87,,1510961873,86493968,0,,,1443.72473145,217.495361328,642.641113281,,-0.0118642151356,0.710247218609,0.00981084257364,-0.703783988953
1510961873107736328,,88,,1510961873,106815099,0,,,1443.40234375,217.650878906,642.403137207,,-0.0120733678341,0.710090994835,0.0108503699303,-0.703922867775
1510961873126938151,,89,,1510961873,125960111,0,,,1443.54101562,217.333496094,642.872558594,,-0.0119255930185,0.710213005543,0.00857881456614,-0.703833639622
1510961873148730547,,90,,1510961873,146879911,0,,,1443.5201416,217.651123047,642.408630371,,-0.0119091421366,0.709598958492,0.0104277879,-0.704427957535
1510961873173595911,,91,,1510961873,172266960,0,,,1443.78942871,217.393310547,642.416931152,,-0.0121038109064,0.710090339184,0.0104056671262,-0.703929662704
1510961873192201172,,92,,1510961873,186323881,0,,,1443.51281738,217.301513672,642.032287598,,-0.0121543705463,0.71032500267,0.0108656361699,-0.703684926033
1510961873206120286,,93,,1510961873,204988956,0,,,1443.45654297,217.456054688,642.634765625,,-0.0125602036715,0.710261642933,0.00948379188776,-0.703761816025
1510961873225591953,,94,,1510961873,224848985,0,,,1443.57067871,217.668701172,642.185668945,,-0.0119615495205,0.709992706776,0.0108743086457,-0.704023480415
1510961873247111328,,95,,1510961873,245716094,0,,,1443.5357666,217.818359375,642.701293945,,-0.0115933120251,0.709879934788,0.0104188993573,-0.704150140285
1510961873265197891,,96,,1510961873,264388084,0,,,1443.44946289,217.568115234,642.331359863,,-0.0117706358433,0.710076570511,0.0105241984129,-0.703947424889
1510961873285582630,,97,,1510961873,284593105,0,,,1443.50524902,217.559082031,642.650939941,,-0.0124642848969,0.710109353065,0.00937634706497,-0.70391869545
1510961873304637786,,98,,1510961873,304020881,0,,,1443.75769043,217.424072266,642.154968262,,-0.0118821710348,0.709858179092,0.010791093111,-0.704161643982
1510961873324534661,,99,,1510961873,323844909,0,,,1443.6583252,217.826660156,642.221252441,,-0.0122681558132,0.710286915302,0.0115385577083,-0.703710734844
1510961873343871641,,100,,1510961873,343295097,0,,,1443.6060791,217.783935547,642.291442871,,-0.0119458884001,0.710123062134,0.0109132900834,-0.703891694546
1510961873364245391,,101,,1510961873,363293886,0,,,1443.56555176,217.638916016,642.820495605,,-0.0123674571514,0.70992910862,0.0088634416461,-0.704108595848
1510961873383415911,,102,,1510961873,382833003,0,,,1443.55847168,217.642089844,642.460571289,,-0.0117683559656,0.709883213043,0.0104936361313,-0.704142928123
1510961873403414140,,103,,1510961873,402864933,0,,,1443.47045898,217.409179688,642.067565918,,-0.0120628476143,0.709723174572,0.0112300366163,-0.704287707806
1510961873423720911,,104,,1510961873,423199892,0,,,1443.58483887,217.817626953,642.117614746,,-0.0122667253017,0.710335314274,0.0118831768632,-0.703656196594
1510961873442853828,,105,,1510961873,442249059,0,,,1443.76867676,217.526123047,642.492370605,,-0.0127255022526,0.710218787193,0.0103023201227,-0.703790545464
1510961873464255911,,106,,1510961873,462925910,0,,,1443.57092285,217.798828125,642.428894043,,-0.0119745135307,0.709909975529,0.0112177655101,-0.704101324081
1510961873484982786,,107,,1510961873,483549118,0,,,1443.42883301,217.553710938,642.230529785,,-0.0121741443872,0.709736466408,0.0112375319004,-0.704272449017
1510961873507519349,,108,,1510961873,506679058,0,,,1443.44921875,217.713378906,642.403930664,,-0.0121059268713,0.710147202015,0.00992511957884,-0.703879117966
1510961873524540963,,109,,1510961873,522495985,0,,,1443.7767334,217.544189453,642.802307129,,-0.011982485652,0.71028059721,0.00857652723789,-0.703764379025
1510961873546052890,,110,,1510961873,545377016,0,,,1443.59411621,217.529052734,642.286071777,,-0.0114283710718,0.70972776413,0.0104114189744,-0.704306423664
1510961873563913620,,111,,1510961873,562887907,0,,,1443.68469238,217.704589844,642.510253906,,-0.0120644420385,0.710251569748,0.0106499046087,-0.703763961792
1510961873584785443,,112,,1510961873,582356929,0,,,1443.64477539,217.608886719,642.088317871,,-0.0125209242105,0.710455417633,0.0112336799502,-0.70354115963
1510961873601752734,,113,,1510961873,600872993,0,,,1443.6270752,217.683349609,642.83215332,,-0.0123631507158,0.710156559944,0.00935730338097,-0.703872919083
1510961873622447265,,114,,1510961873,620841979,0,,,1443.48205566,217.60546875,642.465637207,,-0.0114301294088,0.709779024124,0.0101916193962,-0.704257905483
1510961873642571797,,115,,1510961873,641367912,0,,,1443.43029785,217.847167969,642.594482422,,-0.0117843151093,0.709687590599,0.01048630476,-0.70433986187
1510961873661595963,,116,,1510961873,660783052,0,,,1443.68322754,217.51171875,642.294372559,,-0.0124810934067,0.710415482521,0.0111849680543,-0.703582882881
1510961873680661536,,117,,1510961873,680078983,0,,,1443.69348145,217.535400391,642.640686035,,-0.0127739459276,0.710496008396,0.010181106627,-0.703511595726
1510961873700678307,,118,,1510961873,699763059,0,,,1443.7064209,217.665039062,642.437805176,,-0.0124595314264,0.709903180599,0.0108688399196,-0.704105138779
1510961873720497630,,119,,1510961873,719715118,0,,,1443.68835449,217.697265625,642.318664551,,-0.0122507512569,0.71010273695,0.0109117925167,-0.70390689373
1510961873740497474,,120,,1510961873,739571094,0,,,1443.80529785,217.508544922,642.028991699,,-0.0130501240492,0.709988176823,0.0126729682088,-0.703978657722
1510961873764597005,,121,,1510961873,762713909,0,,,1443.58300781,217.259033203,642.607910156,,-0.0121676772833,0.7098736763,0.00925824046135,-0.704162955284
1510961873790000390,,122,,1510961873,788619995,0,,,1443.40270996,217.522949219,642.393127441,,-0.0119385719299,0.709553003311,0.0110193267465,-0.704464793205
1510961873798911380,,123,,1510961873,798437118,0,,,1443.72497559,217.336669922,642.41027832,,-0.0118719786406,0.709934592247,0.010909371078,-0.70408308506
1510961873818919765,,124,,1510961873,818434953,0,,,1443.68603516,217.784912109,642.058410645,,-0.012641876936,0.710486531258,0.012173935771,-0.703491926193
1510961873838906276,,125,,1510961873,838052034,0,,,1443.83886719,217.657226562,642.78314209,,-0.0126384496689,0.710126698017,0.00981748849154,-0.703891992569
1510961873858297265,,126,,1510961873,857777118,0,,,1443.59545898,217.750244141,642.416809082,,-0.0122805088758,0.709774315357,0.0104812830687,-0.704244196415
1510961873878061536,,127,,1510961873,877547025,0,,,1443.6072998,217.64453125,642.504211426,,-0.0119889378548,0.709938406944,0.0110668987036,-0.70407474041
1510961873897906640,,128,,1510961873,897459983,0,,,1443.3873291,217.436035156,642.032592773,,-0.0119654089212,0.710114002228,0.0110589712858,-0.703898131847
1510961873918392213,,129,,1510961873,917737007,0,,,1443.67199707,217.648193359,642.65020752,,-0.0125450342894,0.710295021534,0.00978533178568,-0.703724384308
1510961873938130338,,130,,1510961873,937529087,0,,,1443.79064941,217.712158203,642.211608887,,-0.0122262537479,0.710030674934,0.0111695304513,-0.703975856304
1510961873957498515,,131,,1510961873,956878900,0,,,1443.74987793,217.824462891,642.442810059,,-0.0123674720526,0.710078239441,0.011425986886,-0.703921437263
1510961873977511224,,132,,1510961873,976758003,0,,,1443.6439209,217.545166016,642.163024902,,-0.0127221494913,0.710244953632,0.0113166943192,-0.703748643398
1510961873997674661,,133,,1510961873,996972084,0,,,1443.56115723,217.604003906,642.736633301,,-0.0124965310097,0.709949016571,0.0094124302268,-0.704079270363
1510961874016877057,,134,,1510961874,16124963,0,,,1443.68518066,217.538574219,642.383422852,,-0.0120178163052,0.709817111492,0.0109555795789,-0.704198181629
1510961874037706744,,135,,1510961874,36252021,0,,,1443.54101562,217.451171875,642.527893066,,-0.0116190910339,0.70972019434,0.0107716247439,-0.704305410385
1510961874056655859,,136,,1510961874,55870056,0,,,1443.57128906,217.570068359,642.104675293,,-0.012797832489,0.710517466068,0.0118417963386,-0.703463613987
1510961874079247786,,137,,1510961874,78550100,0,,,1443.78869629,217.414794922,642.687927246,,-0.0129891932011,0.710392355919,0.00979139655828,-0.703617930412
1510961874098481119,,138,,1510961874,97862958,0,,,1443.78991699,217.833496094,642.338806152,,-0.0119365751743,0.70996260643,0.0114885643125,-0.704044520855
1510961874115855755,,139,,1510961874,115295886,0,,,1443.52648926,217.580566406,642.385986328,,-0.0120992958546,0.709885179996,0.0107001066208,-0.704132199287
1510961874135404192,,140,,1510961874,134880065,0,,,1443.3626709,217.674804688,642.129821777,,-0.0121778100729,0.71010184288,0.0112307667732,-0.703904092312
1510961874156281640,,141,,1510961874,155836105,0,,,1443.75402832,217.210693359,642.68927002,,-0.011955216527,0.710098743439,0.0092608332634,-0.703939735889
1510961874191162474,,142,,1510961874,190562009,0,,,1443.63781738,217.607910156,642.203552246,,-0.0124832242727,0.710048377514,0.0115890726447,-0.703946828842
1510961874195066380,,143,,1510961874,194611072,0,,,1443.7923584,217.751953125,642.392822266,,-0.0125072151423,0.710022330284,0.011275306344,-0.703977704048
1510961874214668567,,144,,1510961874,214184999,0,,,1443.84008789,217.835449219,642.191467285,,-0.013032913208,0.710401713848,0.0119601562619,-0.703574061394
1510961874234346119,,145,,1510961874,233968019,0,,,1443.79626465,217.860595703,642.99420166,,-0.0130664259195,0.710503637791,0.0100584924221,-0.703500270844
1510961874255583619,,146,,1510961874,255187034,0,,,1443.46105957,217.607421875,642.306335449,,-0.0116798579693,0.709771633148,0.0105691179633,-0.704255759716
1510961874279203880,,147,,1510961874,278844118,0,,,1443.46984863,217.696289062,642.567443848,,-0.0119094103575,0.709770798683,0.0110319554806,-0.704245567322
1510961874293460651,,148,,1510961874,293096065,0,,,1443.74523926,217.408691406,642.104309082,,-0.0124152004719,0.710199952126,0.0116968229413,-0.703793287277
1510961874314336848,,149,,1510961874,313795089,0,,,1443.84887695,217.791503906,642.671813965,,-0.0125834941864,0.710318684578,0.0101908221841,-0.70369386673
1510961874333349088,,150,,1510961874,332901000,0,,,1443.81030273,217.781005859,642.211547852,,-0.0125373750925,0.710033118725,0.01109854877,-0.703969180584
1510961874354036067,,151,,1510961874,353549957,0,,,1443.55285645,217.887451172,642.410888672,,-0.0120797306299,0.709972262383,0.0110185965896,-0.704039752483
1510961874372921953,,152,,1510961874,372390031,0,,,1443.0559082,217.684814453,642.259094238,,-0.0111815333366,0.710208952427,0.0125753283501,-0.703789889812
1510961874393281692,,153,,1510961874,392258882,0,,,1441.86584473,217.174560547,642.86907959,,-0.0105152130127,0.709878861904,0.010271653533,-0.704170465469
1510961874412219244,,154,,1510961874,411809921,0,,,1440.48620605,217.500488281,642.072937012,,-0.0120825916529,0.709643483162,0.0132070556283,-0.704333543777
1510961874432355755,,155,,1510961874,431901931,0,,,1439.23986816,217.636230469,642.462341309,,-0.0130057483912,0.710108757019,0.011081956327,-0.703884720802
1510961874452172526,,156,,1510961874,451627016,0,,,1437.71826172,217.957275391,642.191833496,,-0.0132431685925,0.710425198078,0.0118668228388,-0.703547954559
1510961874472334921,,157,,1510961874,471601963,0,,,1435.91577148,217.784179688,642.501220703,,-0.0115941017866,0.710399389267,0.0101743638515,-0.703629732132
1510961874491589661,,158,,1510961874,491106033,0,,,1433.70129395,218.130615234,642.036315918,,-0.0105543583632,0.709777832031,0.0123085901141,-0.704239010811
1510961874511714192,,159,,1510961874,511209011,0,,,1431.50427246,217.806396484,642.215026855,,-0.010780274868,0.71019423008,0.0122723951936,-0.703816175461
1510961874534329296,,160,,1510961874,533344984,0,,,1428.42541504,217.805908203,641.838989258,,-0.0109501481056,0.710341393948,0.0119330137968,-0.703670859337
1510961874557377057,,161,,1510961874,552316904,0,,,1425.2364502,218.17578125,642.200073242,,-0.0115498453379,0.71056586504,0.0111467912793,-0.703447580338
1510961874572407630,,162,,1510961874,570852994,0,,,1421.44592285,218.575683594,641.630065918,,-0.0104308873415,0.710595428944,0.0135898962617,-0.703392207623
1510961874604659036,,163,,1510961874,604007959,0,,,1416.70874023,218.877197266,641.840270996,,-0.0101886987686,0.710676014423,0.0141676738858,-0.703302979469
1510961874610942890,,164,,1510961874,610305070,0,,,1411.01306152,218.62109375,641.517028809,,-0.0105949938297,0.710739016533,0.0137585029006,-0.703241407871
1510961874637813411,,165,,1510961874,636405944,0,,,1404.79699707,218.571289062,642.034851074,,-0.0112538784742,0.710766851902,0.0117975845933,-0.703238725662
1510961874658488463,,166,,1510961874,657155990,0,,,1398.3848877,218.274658203,641.367248535,,-0.010666936636,0.710639894009,0.0130825191736,-0.703353404999
1510961874677418098,,167,,1510961874,676605939,0,,,1391.1619873,218.634033203,640.900695801,,-0.0106966942549,0.711094617844,0.0136412829161,-0.702882647514
1510961874691533880,,168,,1510961874,690778970,0,,,1383.46276855,218.616455078,640.252868652,,-0.0102897584438,0.711264848709,0.0139552727342,-0.702710270882
1510961874711562109,,169,,1510961874,710025072,0,,,1375.04321289,218.541503906,640.098205566,,-0.010553970933,0.711406588554,0.0117278397083,-0.702603697777
1510961874729777942,,170,,1510961874,729120969,0,,,1365.74206543,218.564941406,639.484069824,,-0.00928772985935,0.711182832718,0.0132079422474,-0.702821493149
1510961874750385963,,171,,1510961874,749636888,0,,,1355.57556152,218.243408203,639.262023926,,-0.00866210460663,0.710994005203,0.0114782378078,-0.70305109024
1510961874772344452,,172,,1510961874,770512104,0,,,1344.91174316,218.437255859,638.559875488,,-0.00993523001671,0.711412370205,0.0133218616247,-0.702578246593
1510961874797583827,,173,,1510961874,796783924,0,,,1334.15637207,218.461914062,638.530212402,,-0.0101436674595,0.711633682251,0.0114144235849,-0.702384650707
1510961874810533046,,174,,1510961874,807970046,0,,,1322.71179199,218.897705078,637.583251953,,-0.00939530134201,0.711407661438,0.0120850801468,-0.702612876892
1510961874831711432,,175,,1510961874,829499959,0,,,1310.43164062,218.655517578,637.260437012,,-0.0094467997551,0.711544215679,0.0121023729444,-0.702473402023
1510961874848478307,,176,,1510961874,847539901,0,,,1297.58361816,218.739990234,636.488708496,,-0.00912211835384,0.712078928947,0.0121543556452,-0.701934814453
1510961874870010130,,177,,1510961874,867631912,0,,,1284.54431152,218.34765625,636.86541748,,-0.0094259083271,0.712652146816,0.0105804130435,-0.701374411583
1510961874889865077,,178,,1510961874,887607097,0,,,1271.13037109,218.739013672,635.840026855,,-0.0100296884775,0.712343156338,0.0152688398957,-0.701593518257
1510961874910202630,,179,,1510961874,907321929,0,,,1256.80358887,218.747070312,636.015808105,,-0.0109580904245,0.712483108044,0.0148314237595,-0.701446890831
1510961874927435182,,180,,1510961874,926660060,0,,,1242.21008301,219.463623047,634.7890625,,-0.0134006142616,0.713157534599,0.0195788741112,-0.700602173805
1510961875013770286,,181,,1510961875,13079881,0,,,1227.12097168,219.921386719,634.351013184,,-0.0135328769684,0.713289678097,0.01810143888,-0.70050483942
1510961875021850807,,182,,1510961875,21225929,0,,,1212.27392578,219.428955078,633.909729004,,-0.010556653142,0.712226271629,0.0182391703129,-0.701633512974
1510961875022795546,,183,,1510961875,22294998,0,,,1196.33789062,219.76171875,632.601013184,,-0.0110296458006,0.712359428406,0.0210319757462,-0.701412796974
1510961875024895182,,184,,1510961875,24396896,0,,,1180.38598633,219.369384766,631.037780762,,-0.0127263069153,0.712794244289,0.0234462916851,-0.70086568594
1510961875025993567,,185,,1510961875,25496959,0,,,1163.49121094,219.248046875,631.085388184,,-0.0108059793711,0.712336778641,0.0174138322473,-0.701538622379
1510961875047386119,,186,,1510961875,45897960,0,,,1146.19213867,219.317871094,629.898925781,,-0.0109033882618,0.711703717709,0.0172066763043,-0.702184259892
1510961875065940911,,187,,1510961875,65071105,0,,,1128.71606445,219.987304688,628.926452637,,-0.0125598311424,0.712364196777,0.0184914618731,-0.701453864574
1510961875085854661,,188,,1510961875,85176944,0,,,1110.66271973,220.252929688,627.96270752,,-0.0116406679153,0.712364196777,0.0185288637877,-0.701468765736
1510961875105505911,,189,,1510961875,104845046,0,,,1092.27624512,219.829589844,628.488769531,,-0.011455565691,0.712446212769,0.0159251838923,-0.701452434063
1510961875125713463,,190,,1510961875,124963045,0,,,1073.76367188,220.096923828,627.731140137,,-0.0118551701307,0.712450265884,0.0204175263643,-0.701325297356
1510961875145149504,,191,,1510961875,144531965,0,,,1055.08032227,220.391113281,627.392272949,,-0.0127823203802,0.71255928278,0.0226285755634,-0.701130390167
1510961875165444661,,192,,1510961875,164323091,0,,,1035.8717041,220.783447266,626.696350098,,-0.0117823630571,0.712860584259,0.0217466801405,-0.700869441032
1510961875184813254,,193,,1510961875,184027910,0,,,1016.0345459,220.286621094,626.90637207,,-0.0120678693056,0.7128251791,0.0183149427176,-0.700998783112
1510961875204911119,,194,,1510961875,204073905,0,,,996.099853516,220.022460938,625.495849609,,-0.0117065906525,0.713344097137,0.0188468024135,-0.700462698936
1510961875224406015,,195,,1510961875,223691940,0,,,975.816345215,220.656982422,624.219177246,,-0.0135578662157,0.714276492596,0.0219778493047,-0.699386954308
1510961875246640754,,196,,1510961875,244559049,0,,,954.881713867,220.801269531,623.098327637,,-0.0118822306395,0.714606106281,0.0205387249589,-0.699124574661
1510961875271305806,,197,,1510961875,268642902,0,,,933.647521973,220.677001953,623.641662598,,-0.0132562816143,0.714237093925,0.0181141644716,-0.699543714523
1510961875296600598,,198,,1510961875,295202016,0,,,912.477416992,221.344970703,622.389038086,,-0.0151964128017,0.713924527168,0.0235080942512,-0.699662923813
1510961875305232734,,199,,1510961875,303786993,0,,,891.028076172,221.567138672,621.245300293,,-0.0142747014761,0.71342420578,0.0253813490272,-0.700127065182
1510961875324388463,,200,,1510961875,323347091,0,,,869.37878418,221.191894531,620.942443848,,-0.0135466754436,0.712893486023,0.0223548933864,-0.700784921646
1510961875346867734,,201,,1510961875,346127986,0,,,846.93737793,220.806152344,621.071472168,,-0.01224835217,0.712742388248,0.018995821476,-0.701061606407
1510961875364759296,,202,,1510961875,363604068,0,,,824.436035156,221.016601562,619.178833008,,-0.0144019126892,0.713075518608,0.0209209769964,-0.700626909733
1510961875385235911,,203,,1510961875,383258104,0,,,801.07043457,221.584228516,617.875915527,,-0.0136439204216,0.713305354118,0.0183872655034,-0.700479209423
1510961875403161848,,204,,1510961875,402167081,0,,,777.963623047,221.729492188,617.269104004,,-0.0157411694527,0.713203549385,0.016406096518,-0.700588047504
1510961875423596692,,205,,1510961875,422482013,0,,,754.544494629,222.394042969,617.356872559,,-0.0174191892147,0.713587164879,0.0131487771869,-0.70022636652
1510961875443538775,,206,,1510961875,442539930,0,,,731.16027832,223.220458984,615.927124023,,-0.014848023653,0.714700877666,0.016495667398,-0.699078023434
1510961875466270233,,207,,1510961875,465387105,0,,,707.670654297,222.761230469,615.413452148,,-0.0125290006399,0.714517951012,0.0170216932893,-0.699297785759
1510961875481629036,,208,,1510961875,481013059,0,,,684.140991211,222.077148438,614.519104004,,-0.0118269324303,0.714827597141,0.0180956348777,-0.698966562748
1510961875502963567,,209,,1510961875,502177953,0,,,659.598022461,221.344238281,614.385070801,,-0.0138550847769,0.714610934258,0.0163555070758,-0.69919359684
1510961875521051483,,210,,1510961875,520397901,0,,,634.696716309,221.34375,613.174682617,,-0.0140669047832,0.715286314487,0.0178764909506,-0.698461294174
1510961875540747108,,211,,1510961875,540164947,0,,,609.219848633,221.981933594,611.542053223,,-0.0155572593212,0.715573489666,0.0170694068074,-0.698155522346
1510961875560586015,,212,,1510961875,559972047,0,,,584.166687012,222.37890625,610.491149902,,-0.0193459689617,0.71593862772,0.01865106076,-0.697645783424
1510961875580883723,,213,,1510961875,580023050,0,,,558.877807617,223.050292969,610.799499512,,-0.0188459903002,0.716649770737,0.0143358111382,-0.697031140327
1510961875600077577,,214,,1510961875,599528074,0,,,533.943359375,222.555664062,608.633605957,,-0.0153521597385,0.716687917709,0.018197260797,-0.696987450123
1510961875620287525,,215,,1510961875,619713068,0,,,508.087768555,222.097167969,607.433349609,,-0.0150082856417,0.717096984386,0.0190353617072,-0.696551799774
1510961875639844400,,216,,1510961875,639364957,0,,,481.631744385,221.539306641,605.519958496,,-0.0155789256096,0.718339681625,0.0200631916523,-0.69522857666
1510961875659435129,,217,,1510961875,658864021,0,,,454.822723389,222.058105469,604.500061035,,-0.0164534300566,0.719282269478,0.0140538960695,-0.694380760193
1510961875679208723,,218,,1510961875,678802013,0,,,428.057403564,221.888427734,602.495300293,,-0.0191121548414,0.718241035938,0.0156002044678,-0.695356845856
1510961875699365442,,219,,1510961875,698592901,0,,,401.542572021,221.958496094,600.420288086,,-0.0234253406525,0.719829559326,0.0202997326851,-0.693458378315
1510961875718559296,,220,,1510961875,718127012,0,,,375.524627686,222.983886719,599.299377441,,-0.0197424143553,0.71997064352,0.0206170752645,-0.693417191505
1510961875738161640,,221,,1510961875,737720012,0,,,348.375396729,222.267578125,599.902770996,,-0.0144800245762,0.719547510147,0.0148544237018,-0.694133400917
1510961875759867942,,222,,1510961875,758871078,0,,,322.046600342,221.900146484,596.637695312,,-0.0171229690313,0.720597028732,0.0234839469194,-0.692744612694
1510961875785310910,,223,,1510961875,782387971,0,,,293.960601807,221.290771484,594.637573242,,-0.0189767926931,0.721057891846,0.0255291908979,-0.692144155502
1510961875798372004,,224,,1510961875,797473907,0,,,265.849395752,220.947021484,593.417602539,,-0.0204388946295,0.720806479454,0.0258587896824,-0.692352175713
1510961875818078046,,225,,1510961875,817569017,0,,,237.272064209,221.664550781,593.158630371,,-0.0201914608479,0.72100675106,0.0222292691469,-0.692276835442
1510961875837856796,,226,,1510961875,837060928,0,,,209.164337158,222.698242188,590.758666992,,-0.0181733518839,0.72125095129,0.0228711217642,-0.692057549953
1510961875857108567,,227,,1510961875,856626033,0,,,180.685455322,223.302246094,588.637939453,,-0.0183951556683,0.720910131931,0.026143334806,-0.692290782928
1510961875877137733,,228,,1510961875,876633882,0,,,152.12286377,222.920654297,586.755554199,,-0.0164627730846,0.720642745495,0.0254884362221,-0.692642271519
1510961875897711119,,229,,1510961875,896480083,0,,,122.472923279,222.131835938,585.844604492,,-0.0186908692122,0.720625758171,0.0209462866187,-0.692755699158
1510961875923460442,,230,,1510961875,922579050,0,,,92.6769943237,222.338867188,583.746643066,,-0.0169522762299,0.721346020699,0.0219545066357,-0.692019164562
1510961875937630494,,231,,1510961875,936001062,0,,,63.5520553589,223.512939453,582.308959961,,-0.0152394920588,0.721924901009,0.0209744125605,-0.691485524178
1510961875956553671,,232,,1510961875,955884933,0,,,34.5949325562,224.421630859,580.562133789,,-0.0143671482801,0.721992194653,0.0227078571916,-0.691379189491
1510961875976863515,,233,,1510961875,975929021,0,,,4.75218963623,224.956542969,579.567565918,,-0.0138251036406,0.722543120384,0.0212523043156,-0.690860688686
1510961875997363723,,234,,1510961875,996721029,0,,,-24.9999771118,224.780029297,577.504821777,,-0.0146546959877,0.72285592556,0.0231915786862,-0.690454006195
1510961876015550077,,235,,1510961876,14991998,0,,,-55.4268264771,224.092773438,575.558776855,,-0.0156203061342,0.723520457745,0.0216518491507,-0.689786434174
1510961876035913046,,236,,1510961876,35129070,0,,,-86.2233352661,223.302001953,573.492431641,,-0.0159855633974,0.723239481449,0.0209359824657,-0.690094769001
1510961876055794452,,237,,1510961876,54944038,0,,,-116.617774963,224.013916016,572.825195312,,-0.015649408102,0.723744869232,0.0195818021894,-0.689612150192
1510961876075292264,,238,,1510961876,74568986,0,,,-147.063842773,226.264648438,569.424316406,,-0.0135868340731,0.724890947342,0.0227545797825,-0.688353538513
1510961876094740598,,239,,1510961876,94306945,0,,,-178.021484375,226.112060547,568.066467285,,-0.0142141878605,0.724906086922,0.019977375865,-0.688411235809
1510961876116910494,,240,,1510961876,116159915,0,,,-209.343109131,225.911621094,565.753723145,,-0.0164056718349,0.725081920624,0.0194358825684,-0.688192725182
1510961876134788150,,241,,1510961876,133893013,0,,,-241.365234375,225.399169922,564.52142334,,-0.0194405019283,0.725813150406,0.016853839159,-0.687410473824
1510961876156045494,,242,,1510961876,154613971,0,,,-272.747497559,225.603759766,561.324829102,,-0.0180586874485,0.726377129555,0.0205322243273,-0.686752200127
1510961876174643462,,243,,1510961876,173796892,0,,,-303.824676514,225.506591797,559.110900879,,-0.0160702168941,0.727087378502,0.0210491903126,-0.686033964157
1510961876194255858,,244,,1510961876,193458080,0,,,-334.890563965,226.385498047,556.764038086,,-0.0144000798464,0.727739334106,0.0216740742326,-0.685359954834
1510961876213994764,,245,,1510961876,213231086,0,,,-366.785949707,226.992431641,555.380065918,,-0.0159417837858,0.728423058987,0.0180297493935,-0.684704840183
1510961876238475650,,246,,1510961876,237344980,0,,,-399.017578125,226.626220703,551.75982666,,-0.0161139965057,0.728108108044,0.0181231535971,-0.685033142567
1510961876254409608,,247,,1510961876,253369092,0,,,-431.854919434,225.925537109,548.762023926,,-0.0165918767452,0.728317022324,0.0190661661327,-0.68477410078
1510961876273954139,,248,,1510961876,273175001,0,,,-464.441192627,226.461914062,546.100524902,,-0.0158688426018,0.728915691376,0.0197753049433,-0.684133768082
1510961876293840546,,249,,1510961876,292932987,0,,,-497.530944824,227.564697266,544.343139648,,-0.0159020721912,0.729897022247,0.0176379680634,-0.683144450188
1510961876316811119,,250,,1510961876,315875053,0,,,-529.698608398,227.853027344,540.999267578,,-0.0161808133125,0.729979395866,0.0198350585997,-0.68298971653
1510961876334001014,,251,,1510961876,332531929,0,,,-562.787963867,227.520263672,538.328430176,,-0.0148194730282,0.73050391674,0.0171963982284,-0.682531118393
1510961876352992108,,252,,1510961876,352246999,0,,,-595.628601074,227.564697266,535.262817383,,-0.0143718570471,0.731778860092,0.0178050138056,-0.681157886982
1510961876373498879,,253,,1510961876,372361898,0,,,-629.356933594,227.634277344,533.234130859,,-0.0140257030725,0.732759654522,0.0154408589005,-0.680167675018
1510961876392060806,,254,,1510961876,391345024,0,,,-663.100830078,227.44921875,529.58026123,,-0.0122505575418,0.732643663883,0.0180120840669,-0.680263638496
1510961876411715025,,255,,1510961876,411041021,0,,,-696.702819824,228.125976562,526.920837402,,-0.0132520198822,0.733567178249,0.018515791744,-0.679235398769
1510961876432973879,,256,,1510961876,431583881,0,,,-730.092346191,228.508056641,522.674072266,,-0.0119543373585,0.734949827194,0.0174069218338,-0.677792549133
1510961876452146848,,257,,1510961876,451484918,0,,,-764.478881836,227.858398438,520.712036133,,-0.0121863335371,0.734882056713,0.0135749615729,-0.677949547768
1510961876473921118,,258,,1510961876,472728967,0,,,-799.019897461,228.725097656,516.421569824,,-0.0138108730316,0.734389901161,0.0182629935443,-0.678341448307
1510961876493008306,,259,,1510961876,491900920,0,,,-832.991455078,228.740234375,512.582824707,,-0.0132113099098,0.735661625862,0.0179347470403,-0.676982879639
1510961876512849712,,260,,1510961876,511603116,0,,,-867.152709961,229.383789062,508.4559021,,-0.0140618085861,0.736611425877,0.0157926157117,-0.675985515118
1510961876530766587,,261,,1510961876,530056953,0,,,-902.757995605,228.857666016,506.173492432,,-0.0145049244165,0.736618995667,0.012160949409,-0.6760430336
1510961876550899348,,262,,1510961876,550201892,0,,,-936.795288086,228.869873047,501.252105713,,-0.01277731359,0.737366735935,0.0151153542101,-0.675202667713
1510961876574433410,,263,,1510961876,572814941,0,,,-971.726928711,228.952880859,498.317779541,,-0.0117060244083,0.737908184528,0.0164239406586,-0.674599647522
1510961876593342733,,264,,1510961876,592483997,0,,,-1006.43359375,228.880126953,494.694671631,,-0.00945165753365,0.738507807255,0.0155094340444,-0.674000263214
1510961876611540441,,265,,1510961876,610934019,0,,,-1042.42602539,228.155029297,491.400878906,,-0.00976046919823,0.738042473793,0.0126723088324,-0.674564599991
1510961876630855650,,266,,1510961876,629867076,0,,,-1077.66882324,228.500244141,486.770477295,,-0.0113219022751,0.737441182137,0.0162450112402,-0.675121068954
1510961876652514504,,267,,1510961876,651376008,0,,,-1112.95703125,229.477294922,483.156005859,,-0.00896203517914,0.738072514534,0.0152669586241,-0.674489140511
1510961876672701535,,268,,1510961876,670877933,0,,,-1148.29016113,230.496337891,479.639648438,,-0.00953833758831,0.738038480282,0.0165051221848,-0.674489319324
1510961876691502473,,269,,1510961876,688237905,0,,,-1185.05761719,230.358886719,476.471160889,,-0.0112915188074,0.73827713728,0.0138555541635,-0.674260556698
1510961876717378150,,270,,1510961876,715852975,0,,,-1220.53625488,229.770019531,471.712921143,,-0.0126219391823,0.738586425781,0.0169874690473,-0.673826575279
1510961876728402629,,271,,1510961876,727638006,0,,,-1256.85070801,229.34765625,468.209777832,,-0.0104720443487,0.738429844379,0.0142459794879,-0.674098491669
1510961876748210285,,272,,1510961876,747541904,0,,,-1291.99279785,230.155273438,463.986541748,,-0.0107765644789,0.739144444466,0.0168843381107,-0.673249006271
1510961876768123462,,273,,1510961876,767348051,0,,,-1329.02905273,230.526123047,460.430908203,,-0.0122492164373,0.739534318447,0.0161237046123,-0.672814249992
1510961876788791587,,274,,1510961876,787487030,0,,,-1364.88464355,231.036132812,455.445037842,,-0.0121392309666,0.7400598526,0.0157582126558,-0.672246813774
1510961876807698202,,275,,1510961876,807086944,0,,,-1402.60461426,230.487792969,452.453857422,,-0.0129718780518,0.73936611414,0.0134388245642,-0.67304444313
1510961876827353254,,276,,1510961876,826689958,0,,,-1439.65759277,231.140869141,448.170135498,,-0.0132047235966,0.739766418934,0.0124545693398,-0.672618806362
1510961876846841952,,277,,1510961876,846335887,0,,,-1477.16809082,231.436279297,444.84753418,,-0.0143807828426,0.740740716457,0.00900361314416,-0.671576738358
1510961876867320702,,278,,1510961876,866316080,0,,,-1513.87121582,231.860839844,440.219451904,,-0.0155872702599,0.740323066711,0.0101565159857,-0.671993851662
1510961876886423306,,279,,1510961876,885777950,0,,,-1551.56396484,231.318847656,436.092651367,,-0.0148832201958,0.740348279476,0.00922825559974,-0.671995341778
1510961876906439660,,280,,1510961876,905776023,0,,,-1588.42370605,231.404052734,431.405029297,,-0.0147175639868,0.742024004459,0.0117627307773,-0.670108437538
1510961876926222316,,281,,1510961876,925504922,0,,,-1625.62365723,231.964355469,427.916809082,,-0.0137248337269,0.74328070879,0.00960579514503,-0.668769836426
1510961876945922316,,282,,1510961876,945264101,0,,,-1662.91040039,231.990478516,422.525024414,,-0.0136447101831,0.742544293404,0.0138702429831,-0.669514298439
1510961876966274035,,283,,1510961876,965570926,0,,,-1701.14331055,231.633300781,418.08972168,,-0.0132310837507,0.742820739746,0.013868574053,-0.669215917587
1510961876987357993,,284,,1510961876,985358953,0,,,-1738.72338867,231.772705078,413.681488037,,-0.0140116363764,0.743669509888,0.014576908201,-0.668241620064
1510961877005510129,,285,,1510961877,5047082,0,,,-1777.70263672,232.218261719,409.254638672,,-0.0108035802841,0.74437046051,0.0111941508949,-0.667585611343
1510961877025181847,,286,,1510961877,24609088,0,,,-1815.42431641,233.349853516,403.919372559,,-0.012598335743,0.744608879089,0.0152728185058,-0.667207360268
1510961877045164556,,287,,1510961877,44533014,0,,,-1854.4588623,232.860595703,399.579681396,,-0.0127431899309,0.745309054852,0.0155037157238,-0.666417002678
1510961877065385962,,288,,1510961877,64655065,0,,,-1892.10534668,232.872070312,394.911529541,,-0.0101370066404,0.746102511883,0.0158781521022,-0.665564596653
1510961877085177785,,289,,1510961877,84252119,0,,,-1931.44909668,232.579589844,390.423248291,,-0.00873619318008,0.745897173882,0.0148313529789,-0.66583865881
1510961877105049868,,290,,1510961877,104336023,0,,,-1969.86169434,233.056884766,384.656951904,,-0.00576332211494,0.746591150761,0.0157629810274,-0.665071368217
1510961877124635389,,291,,1510961877,123974084,0,,,-2009.29736328,233.826416016,379.798034668,,-0.00799998641014,0.74688410759,0.0168219506741,-0.664693236351
1510961877144866379,,292,,1510961877,143984079,0,,,-2047.8248291,234.170898438,373.790710449,,-0.0109829455614,0.74713486433,0.0156524442136,-0.664397418499
1510961877165425754,,293,,1510961877,164269924,0,,,-2087.85327148,233.682617188,369.948608398,,-0.0119857341051,0.748240172863,0.011421803385,-0.663221359253
1510961877185147472,,294,,1510961877,183726072,0,,,-2124.68432617,235.389404297,363.126953125,,-0.014501273632,0.748266458511,0.0127076804638,-0.663118004799
1510961877203802264,,295,,1510961877,202994108,0,,,-2161.10083008,236.353271484,358.472595215,,-0.0161868333817,0.748749613762,0.015228394419,-0.6624802351
1510961877225595702,,296,,1510961877,224570035,0,,,-2195.82739258,236.671875,353.824707031,,-0.0134636163712,0.750460267067,0.0171980187297,-0.660554528236
1510961877243505754,,297,,1510961877,242917060,0,,,-2231.3059082,236.168457031,350.261962891,,-0.0117973834276,0.75177937746,0.015841063112,-0.659118771553
1510961877264005024,,298,,1510961877,262902021,0,,,-2263.31835938,235.737304688,344.051025391,,-0.0127024501562,0.752486050129,0.0194557644427,-0.65819811821
1510961877283044504,,299,,1510961877,282140016,0,,,-2296.84643555,236.262695312,338.945983887,,-0.013796582818,0.753456473351,0.0224336273968,-0.656970143318
1510961877302997577,,300,,1510961877,302287101,0,,,-2329.21630859,236.468505859,334.92767334,,-0.0190508812666,0.753633201122,0.0215636044741,-0.656665086746
1510961877322752941,,301,,1510961877,321592092,0,,,-2361.59594727,237.505615234,330.813781738,,-0.0167458206415,0.754412829876,0.0193716622889,-0.655900597572
1510961877341959451,,302,,1510961877,341279983,0,,,-2390.30371094,238.268554688,326.253356934,,-0.0143383145332,0.756417989731,0.0171576961875,-0.65370619297
1510961877362180597,,303,,1510961877,361118078,0,,,-2419.06225586,238.959472656,321.599975586,,-0.0117385238409,0.758313119411,0.0192913785577,-0.651499271393
1510961877380996951,,304,,1510961877,380609989,0,,,-2447.74707031,238.144042969,317.864105225,,-0.00935167074203,0.758285999298,0.0195988416672,-0.651560306549
1510961877401227004,,305,,1510961877,400649070,0,,,-2476.98681641,237.800537109,313.332885742,,-0.01101526618,0.759715974331,0.0203374736011,-0.64984357357
1510961877421006431,,306,,1510961877,420419931,0,,,-2503.45556641,237.777587891,308.780029297,,-0.0116055905819,0.761911153793,0.0180310830474,-0.647326469421
1510961877440868983,,307,,1510961877,440319061,0,,,-2529.94555664,238.405517578,304.590698242,,-0.0126581043005,0.761629521847,0.0169612392783,-0.647667050362
1510961877465904139,,308,,1510961877,461174011,0,,,-2554.76708984,240.434082031,300.278778076,,-0.0153027623892,0.762584269047,0.0210519134998,-0.646365106106
1510961877480565754,,309,,1510961877,479924917,0,,,-2579.97802734,241.297363281,296.162261963,,-0.014590471983,0.763715028763,0.0213438458741,-0.645035624504
1510961877501145389,,310,,1510961877,499978065,0,,,-2602.93994141,240.871337891,291.852905273,,-0.0102645754814,0.766524016857,0.0187527053058,-0.641859650612
1510961877528951899,,311,,1510961877,527551889,0,,,-2626.37353516,239.83984375,288.620239258,,-0.0115675330162,0.766802728176,0.0172278396785,-0.641547203064
1510961877540789816,,312,,1510961877,539937973,0,,,-2648.58032227,239.164794922,284.722991943,,-0.0146608352661,0.768030524254,0.0188730247319,-0.63996720314
1510961877564430545,,313,,1510961877,563642978,0,,,-2670.76904297,239.528076172,281.188873291,,-0.01574832201,0.767964601517,0.017076857388,-0.640070915222
1510961877580756743,,314,,1510961877,579138994,0,,,-2691.32788086,241.632324219,277.251373291,,-0.0116595923901,0.76973170042,0.0150452591479,-0.638083815575
1510961877598873253,,315,,1510961877,598303079,0,,,-2710.13793945,242.219970703,273.578887939,,-0.0120745450258,0.769462823868,0.0164025239646,-0.638366758823
1510961877618982733,,316,,1510961877,618304967,0,,,-2728.2565918,242.730712891,269.577667236,,-0.0124224424362,0.770786166191,0.0188958346844,-0.636692404747
1510961877638838045,,317,,1510961877,638046026,0,,,-2747.71264648,241.949707031,266.281738281,,-0.0119760036469,0.77122348547,0.01521762833,-0.63626986742
1510961877658450389,,318,,1510961877,657860994,0,,,-2765.38354492,240.900634766,262.872131348,,-0.0134617686272,0.771623671055,0.0155742578208,-0.635746061802
1510961877679982993,,319,,1510961877,677809953,0,,,-2782.61523438,241.239257812,258.994506836,,-0.015147536993,0.77163797617,0.0153969042003,-0.635695099831
1510961877698248931,,320,,1510961877,697452068,0,,,-2797.71484375,241.925292969,255.058227539,,-0.0162566006184,0.772123396397,0.0170767083764,-0.635035037994
1510961877718704191,,321,,1510961877,717580080,0,,,-2813.42382812,242.415283203,251.875457764,,-0.0154023617506,0.771650731564,0.0143259800971,-0.6356985569
1510961877738389660,,322,,1510961877,737540006,0,,,-2827.52075195,242.501953125,248.124145508,,-0.0130688250065,0.772364258766,0.0124238356948,-0.634923815727
1510961877757431118,,323,,1510961877,756752967,0,,,-2842.11889648,242.317382812,244.671875,,-0.0118417143822,0.773384034634,0.0122375115752,-0.633709013462
1510961877777346118,,324,,1510961877,776611089,0,,,-2854.90893555,241.614013672,241.791351318,,-0.0112991183996,0.773842453957,0.0132911577821,-0.633137881756
1510961877796869764,,325,,1510961877,796206951,0,,,-2869.49438477,240.80078125,239.80380249,,-0.0112179219723,0.772728025913,0.0108838900924,-0.634544849396
1510961877817402680,,326,,1510961877,816629886,0,,,-2881.6862793,242.072998047,236.70715332,,-0.0139478445053,0.772788822651,0.0138516426086,-0.634358584881
1510961877838793983,,327,,1510961877,837743997,0,,,-2893.96630859,242.551269531,234.180389404,,-0.0150725692511,0.773102760315,0.0138297230005,-0.633950889111
1510961877858249555,,328,,1510961877,857547998,0,,,-2904.87036133,241.609375,231.594970703,,-0.01709677279,0.773625731468,0.0147399455309,-0.633240580559
1510961877876733305,,329,,1510961877,875772953,0,,,-2916.64575195,241.259521484,230.042663574,,-0.0181246101856,0.772486329079,0.0104961283505,-0.63468593359
1510961877896256430,,330,,1510961877,895514011,0,,,-2926.91992188,240.506591797,226.874450684,,-0.0202675759792,0.773511946201,0.0132256634533,-0.633319377899
1510961877915417212,,331,,1510961877,914921998,0,,,-2936.56347656,240.75390625,224.553436279,,-0.0222634375095,0.773433446884,0.0153166018426,-0.633301317692
1510961877936611430,,332,,1510961877,935354948,0,,,-2946.11767578,241.744628906,223.764038086,,-0.0160230398178,0.773493468761,0.0123228728771,-0.633481800556
1510961877955336066,,333,,1510961877,954700946,0,,,-2955.92895508,242.350830078,222.584228516,,-0.0132160037756,0.77376294136,0.00891579687595,-0.633274614811
1510961877976906170,,334,,1510961877,975656032,0,,,-2963.66430664,242.982910156,219.839874268,,-0.0147311091423,0.773829996586,0.0100074373186,-0.633142828941
1510961877995013670,,335,,1510961877,994358062,0,,,-2970.25878906,242.644042969,217.511108398,,-0.0137152820826,0.77436375618,0.0107542350888,-0.632500648499
1510961878018376118,,336,,1510961878,16676902,0,,,-2978.49536133,241.961425781,216.854064941,,-0.0143205225468,0.774373352528,0.007837112993,-0.632518291473
1510961878034554087,,337,,1510961878,34001111,0,,,-2987.22192383,241.810791016,215.381164551,,-0.0144054740667,0.774176061153,0.00745299458504,-0.632762491703
1510961878055329816,,338,,1510961878,54187059,0,,,-2993.17260742,241.854980469,213.411071777,,-0.0152039527893,0.77417910099,0.00944658741355,-0.632713377476
1510961878075155493,,339,,1510961878,74261903,0,,,-3000.18408203,241.667480469,212.718658447,,-0.0145893394947,0.773744404316,0.00855500623584,-0.633272051811
1510961878094294243,,340,,1510961878,93638896,0,,,-3005.59375,241.355224609,211.857757568,,-0.0157549679279,0.77415317297,0.00877666473389,-0.632741332054
1510961878113680910,,341,,1510961878,113074064,0,,,-3012.52075195,240.025390625,210.923858643,,-0.0129202753305,0.774192273617,0.00560635700822,-0.632793843746
1510961878133880076,,342,,1510961878,132991075,0,,,-3017.17456055,240.730712891,208.923553467,,-0.012021869421,0.774874925613,0.00815761089325,-0.631947636604
1510961878153711743,,343,,1510961878,152930021,0,,,-3022.72680664,240.643554688,208.695709229,,-0.0161201059818,0.774132549763,0.00764516368508,-0.632772028446
1510961878174198097,,344,,1510961878,173280000,0,,,-3026.71972656,240.343017578,207.717590332,,-0.0167528092861,0.773551046848,0.0119196772575,-0.633400321007
1510961878195000337,,345,,1510961878,194263935,0,,,-3031.28149414,240.203369141,207.149200439,,-0.0141026973724,0.774734735489,0.00893266126513,-0.632066071033
1510961878214401118,,346,,1510961878,213596105,0,,,-3034.46508789,239.998535156,205.191894531,,-0.019639134407,0.773812949657,0.0152562782168,-0.63292580843
1510961878232505805,,347,,1510961878,231898069,0,,,-3038.26611328,240.629394531,204.334960938,,-0.0147410929203,0.773807406425,0.0077962204814,-0.633201539516
1510961878252417368,,348,,1510961878,251743078,0,,,-3041.23754883,240.457519531,203.841888428,,-0.0156281888485,0.774832367897,0.00927093625069,-0.631905555725
1510961878273439712,,349,,1510961878,271958112,0,,,-3044.80932617,240.414306641,203.38684082,,-0.0129873603582,0.775129497051,0.00725160911679,-0.631627261639
1510961878291517055,,350,,1510961878,290939092,0,,,-3047.56103516,240.310058594,202.925811768,,-0.0151286423206,0.773703038692,0.00768987461925,-0.633321046829
1510961878311570597,,351,,1510961878,310936927,0,,,-3049.70239258,240.727050781,202.481536865,,-0.0178087502718,0.774188041687,0.0103599727154,-0.632620096207
1510961878331098826,,352,,1510961878,330665111,0,,,-3050.26000977,240.007324219,203.1640625,,-0.0177751928568,0.775433123112,0.0123687386513,-0.63105815649
1510961878352906847,,353,,1510961878,352283954,0,,,-3052.88452148,239.58203125,203.085021973,,-0.016060218215,0.775349318981,0.008555483073,-0.63127040863
1510961878371484191,,354,,1510961878,370714902,0,,,-3052.8293457,239.971679688,202.723327637,,-0.0155574530363,0.774684846401,0.00738479197025,-0.63211286068
1510961878398328097,,355,,1510961878,397592067,0,,,-3055.96069336,240.111328125,200.952056885,,-0.0163110345602,0.774738311768,0.00930089503527,-0.632003068924
1510961878411668305,,356,,1510961878,410753011,0,,,-3055.19042969,240.140136719,201.522369385,,-0.016391441226,0.77570605278,0.00873770192266,-0.630820930004
1510961878438390857,,357,,1510961878,437742948,0,,,-3058.1862793,239.749023438,202.086700439,,-0.0128343850374,0.774604737759,0.00495614483953,-0.632296025753
1510961878450310545,,358,,1510961878,449367046,0,,,-3057.94775391,240.024902344,201.695007324,,-0.012815952301,0.775920331478,0.00772359967232,-0.630653381348
1510961878472989191,,359,,1510961878,472294092,0,,,-3058.85766602,240.282226562,200.74230957,,-0.0189917236567,0.773896574974,0.0097339823842,-0.632952392101
1510961878490532941,,360,,1510961878,489917039,0,,,-3058.24829102,239.591308594,199.98425293,,-0.0201937407255,0.774216294289,0.0111024640501,-0.632501423359
1510961878511954868,,361,,1510961878,510056018,0,,,-3058.82788086,239.583740234,201.350708008,,-0.0160663425922,0.775127470493,0.00602272152901,-0.631571948528
1510961878529617524,,362,,1510961878,528867006,0,,,-3058.59716797,239.987304688,200.179840088,,-0.0190188735723,0.774128139019,0.0101945661008,-0.632660984993
1510961878549013149,,363,,1510961878,548378944,0,,,-3058.27368164,240.01171875,200.510284424,,-0.0192886143923,0.773881435394,0.0102579630911,-0.632953584194
1510961878569151066,,364,,1510961878,568402051,0,,,-3057.87304688,239.775878906,200.669647217,,-0.0199881196022,0.773462831974,0.0116921253502,-0.633418500423
1510961878588897368,,365,,1510961878,588319063,0,,,-3057.82250977,239.953125,201.191925049,,-0.0166741460562,0.774181902409,0.00761427357793,-0.632697820663
1510961878608356170,,366,,1510961878,607712030,0,,,-3055.83666992,239.392089844,201.41519165,,-0.013424962759,0.77621114254,0.00894564762712,-0.630266487598
1510961878628632732,,367,,1510961878,627810001,0,,,-3055.23071289,239.626220703,200.871887207,,-0.0132106691599,0.7757127285,0.0085110142827,-0.630890488625
1510961878647986378,,368,,1510961878,647349119,0,,,-3054.84741211,239.752441406,201.498535156,,-0.0142055004835,0.775598704815,0.0087676346302,-0.631005525589
1510961878668608201,,369,,1510961878,667732954,0,,,-3055.55004883,239.781494141,201.825195312,,-0.0142192989588,0.775490403175,0.0081407353282,-0.631146609783
1510961878687488566,,370,,1510961878,686908960,0,,,-3054.890625,240.061523438,201.464996338,,-0.0138278454542,0.775452375412,0.0103881172836,-0.63116902113
1510961878708143878,,371,,1510961878,707410097,0,,,-3055.58642578,240.402832031,200.728393555,,-0.0149537026882,0.77387791872,0.0136335119605,-0.633011579514
1510961878727814034,,372,,1510961878,727185964,0,,,-3055.77612305,239.952880859,200.866149902,,-0.014166072011,0.775045514107,0.0119247660041,-0.631633996964
1510961878746895388,,373,,1510961878,746283054,0,,,-3058.13696289,239.3203125,200.6484375,,-0.0162954628468,0.774789094925,0.00916919484735,-0.631943166256
1510961878767157628,,374,,1510961878,766493082,0,,,-3058.52758789,239.7265625,199.911010742,,-0.0178799331188,0.774764120579,0.00815166532993,-0.631945014
1510961878789951847,,375,,1510961878,787870883,0,,,-3059.95727539,240.436523438,200.061279297,,-0.0169739425182,0.774456679821,0.00689340755343,-0.632361471653
1510961878806390649,,376,,1510961878,805754899,0,,,-3059.60473633,240.218505859,200.449005127,,-0.0195548832417,0.774466753006,0.0107517316937,-0.632220864296
1510961878826698826,,377,,1510961878,825668096,0,,,-3060.25805664,240.279541016,199.85559082,,-0.0195365697145,0.774047732353,0.0130346938968,-0.632691442966
1510961878846269243,,378,,1510961878,845665931,0,,,-3058.79418945,240.095458984,198.663604736,,-0.0190131366253,0.774467170238,0.0129864960909,-0.63219499588
