rosbagTimestamp,motor_states,name,pololu_id,motor_id,pulse,radians,degrees,calibration,min_pulse,min_radians,min_degrees,max_pulse,max_radians,max_degrees,name,pololu_id,motor_id,pulse,radians,degrees,calibration,min_pulse,min_radians,min_degrees,max_pulse,max_radians,max_degrees
1510962725525801420,,0,12,0,1500,0.0,0.0,,825,3.14159265359,180.0,2175,-3.14159265359,-180.0,1,12,1,1500,0.0,0.0,,825,3.14159265359,180.0,2175,-3.14159265359,-180.0
1510962725545383555,,0,12,0,1500,0.0,0.0,,825,3.14159265359,180.0,2175,-3.14159265359,-180.0,1,12,1,1500,0.0,0.0,,825,3.14159265359,180.0,2175,-3.14159265359,-180.0
1510962725565624076,,0,12,0,1500,0.0,0.0,,825,3.14159265359,180.0,2175,-3.14159265359,-180.0,1,12,1,1500,0.0,0.0,,825,3.14159265359,180.0,2175,-3.14159265359,-180.0
1510962725585154388,,0,12,0,1500,0.0,0.0,,825,3.14159265359,180.0,2175,-3.14159265359,-180.0,1,12,1,1500,0.0,0.0,,825,3.14159265359,180.0,2175,-3.14159265359,-180.0
1510962725605050326,,0,12,0,1500,0.0,0.0,,825,3.14159265359,180.0,2175,-3.14159265359,-180.0,1,12,1,1500,0.0,0.0,,825,3.14159265359,180.0,2175,-3.14159265359,-180.0
1510962725625029440,,0,12,0,1500,0.0,0.0,,825,3.14159265359,180.0,2175,-3.14159265359,-180.0,1,12,1,1500,0.0,0.0,,825,3.14159265359,180.0,2175,-3.14159265359,-180.0
1510962725645959388,,0,12,0,1500,0.0,0.0,,825,3.14159265359,180.0,2175,-3.14159265359,-180.0,1,12,1,1500,0.0,0.0,,825,3.14159265359,180.0,2175,-3.14159265359,-180.0
1510962725667689753,,0,12,0,1500,0.0,0.0,,825,3.14159265359,180.0,2175,-3.14159265359,-180.0,1,12,1,1500,0.0,0.0,,825,3.14159265359,180.0,2175,-3.14159265359,-180.0
1510962725685078242,,0,12,0,1500,0.0,0.0,,825,3.14159265359,180.0,2175,-3.14159265359,-180.0,1,12,1,1500,0.0,0.0,,825,3.14159265359,180.0,2175,-3.14159265359,-180.0
1510962725705089597,,0,12,0,1500,0.0,0.0,,825,3.14159265359,180.0,2175,-3.14159265359,-180.0,1,12,1,1500,0.0,0.0,,825,3.14159265359,180.0,2175,-3.14159265359,-180.0
1510962725726275222,,0,12,0,1500,0.0,0.0,,825,3.14159265359,180.0,2175,-3.14159265359,-180.0,1,12,1,1500,0.0,0.0,,825,3.14159265359,180.0,2175,-3.14159265359,-180.0
1510962725745244857,,0,12,0,1500,0.0,0.0,,825,3.14159265359,180.0,2175,-3.14159265359,-180.0,1,12,1,1500,0.0,0.0,,825,3.14159265359,180.0,2175,-3.14159265359,-180.0
1510962725765989701,,0,12,0,1500,0.0,0.0,,825,3.14159265359,180.0,2175,-3.14159265359,-180.0,1,12,1,1500,0.0,0.0,,825,3.14159265359,180.0,2175,-3.14159265359,-180.0
1510962725785303763,,0,12,0,1500,0.0,0.0,,825,3.14159265359,180.0,2175,-3.14159265359,-180.0,1,12,1,1500,0.0,0.0,,825,3.14159265359,180.0,2175,-3.14159265359,-180.0
1510962725805833763,,0,12,0,1500,0.0,0.0,,825,3.14159265359,180.0,2175,-3.14159265359,-180.0,1,12,1,1500,0.0,0.0,,825,3.14159265359,180.0,2175,-3.14159265359,-180.0
1510962725826693503,,0,12,0,1500,0.0,0.0,,825,3.14159265359,180.0,2175,-3.14159265359,-180.0,1,12,1,1500,0.0,0.0,,825,3.14159265359,180.0,2175,-3.14159265359,-180.0
1510962725845471576,,0,12,0,1500,0.0,0.0,,825,3.14159265359,180.0,2175,-3.14159265359,-180.0,1,12,1,1500,0.0,0.0,,825,3.14159265359,180.0,2175,-3.14159265359,-180.0
1510962725865609232,,0,12,0,1500,0.0,0.0,,825,3.14159265359,180.0,2175,-3.14159265359,-180.0,1,12,1,1500,0.0,0.0,,825,3.14159265359,180.0,2175,-3.14159265359,-180.0
1510962725885125326,,0,12,0,1500,0.0,0.0,,825,3.14159265359,180.0,2175,-3.14159265359,-180.0,1,12,1,1500,0.0,0.0,,825,3.14159265359,180.0,2175,-3.14159265359,-180.0
1510962725905017201,,0,12,0,1500,0.0,0.0,,825,3.14159265359,180.0,2175,-3.14159265359,-180.0,1,12,1,1500,0.0,0.0,,825,3.14159265359,180.0,2175,-3.14159265359,-180.0
1510962725925774284,,0,12,0,1500,0.0,0.0,,825,3.14159265359,180.0,2175,-3.14159265359,-180.0,1,12,1,1500,0.0,0.0,,825,3.14159265359,180.0,2175,-3.14159265359,-180.0
1510962725945076419,,0,12,0,1500,0.0,0.0,,825,3.14159265359,180.0,2175,-3.14159265359,-180.0,1,12,1,1500,0.0,0.0,,825,3.14159265359,180.0,2175,-3.14159265359,-180.0
1510962725965194805,,0,12,0,1500,0.0,0.0,,825,3.14159265359,180.0,2175,-3.14159265359,-180.0,1,12,1,1500,0.0,0.0,,825,3.14159265359,180.0,2175,-3.14159265359,-180.0
1510962725984964805,,0,12,0,1500,0.0,0.0,,825,3.14159265359,180.0,2175,-3.14159265359,-180.0,1,12,1,1500,0.0,0.0,,825,3.14159265359,180.0,2175,-3.14159265359,-180.0
1510962726005145638,,0,12,0,1500,0.0,0.0,,825,3.14159265359,180.0,2175,-3.14159265359,-180.0,1,12,1,1500,0.0,0.0,,825,3.14159265359,180.0,2175,-3.14159265359,-180.0
1510962726025020065,,0,12,0,1500,0.0,0.0,,825,3.14159265359,180.0,2175,-3.14159265359,-180.0,1,12,1,1500,0.0,0.0,,825,3.14159265359,180.0,2175,-3.14159265359,-180.0
1510962726045117201,,0,12,0,1500,0.0,0.0,,825,3.14159265359,180.0,2175,-3.14159265359,-180.0,1,12,1,1500,0.0,0.0,,825,3.14159265359,180.0,2175,-3.14159265359,-180.0
1510962726065329909,,0,12,0,1500,0.0,0.0,,825,3.14159265359,180.0,2175,-3.14159265359,-180.0,1,12,1,1500,0.0,0.0,,825,3.14159265359,180.0,2175,-3.14159265359,-180.0
1510962726085214649,,0,12,0,1500,0.0,0.0,,825,3.14159265359,180.0,2175,-3.14159265359,-180.0,1,12,1,1500,0.0,0.0,,825,3.14159265359,180.0,2175,-3.14159265359,-180.0
1510962726105091159,,0,12,0,1500,0.0,0.0,,825,3.14159265359,180.0,2175,-3.14159265359,-180.0,1,12,1,1500,0.0,0.0,,825,3.14159265359,180.0,2175,-3.14159265359,-180.0
1510962726125147096,,0,12,0,1500,0.0,0.0,,825,3.14159265359,180.0,2175,-3.14159265359,-180.0,1,12,1,1500,0.0,0.0,,825,3.14159265359,180.0,2175,-3.14159265359,-180.0
1510962726145371315,,0,12,0,1500,0.0,0.0,,825,3.14159265359,180.0,2175,-3.14159265359,-180.0,1,12,1,1500,0.0,0.0,,825,3.14159265359,180.0,2175,-3.14159265359,-180.0
1510962726165042565,,0,12,0,1500,0.0,0.0,,825,3.14159265359,180.0,2175,-3.14159265359,-180.0,1,12,1,1500,0.0,0.0,,825,3.14159265359,180.0,2175,-3.14159265359,-180.0
1510962726185135169,,0,12,0,1500,0.0,0.0,,825,3.14159265359,180.0,2175,-3.14159265359,-180.0,1,12,1,1500,0.0,0.0,,825,3.14159265359,180.0,2175,-3.14159265359,-180.0
1510962726205165117,,0,12,0,1500,0.0,0.0,,825,3.14159265359,180.0,2175,-3.14159265359,-180.0,1,12,1,1500,0.0,0.0,,825,3.14159265359,180.0,2175,-3.14159265359,-180.0
1510962726224956836,,0,12,0,1500,0.0,0.0,,825,3.14159265359,180.0,2175,-3.14159265359,-180.0,1,12,1,1500,0.0,0.0,,825,3.14159265359,180.0,2175,-3.14159265359,-180.0
1510962726245369544,,0,12,0,1500,0.0,0.0,,825,3.14159265359,180.0,2175,-3.14159265359,-180.0,1,12,1,1500,0.0,0.0,,825,3.14159265359,180.0,2175,-3.14159265359,-180.0
1510962726265100794,,0,12,0,1500,0.0,0.0,,825,3.14159265359,180.0,2175,-3.14159265359,-180.0,1,12,1,1500,0.0,0.0,,825,3.14159265359,180.0,2175,-3.14159265359,-180.0
1510962726285144336,,0,12,0,1500,0.0,0.0,,825,3.14159265359,180.0,2175,-3.14159265359,-180.0,1,12,1,1500,0.0,0.0,,825,3.14159265359,180.0,2175,-3.14159265359,-180.0
1510962726304886784,,0,12,0,1500,0.0,0.0,,825,3.14159265359,180.0,2175,-3.14159265359,-180.0,1,12,1,1500,0.0,0.0,,825,3.14159265359,180.0,2175,-3.14159265359,-180.0
1510962726325920326,,0,12,0,1500,0.0,0.0,,825,3.14159265359,180.0,2175,-3.14159265359,-180.0,1,12,1,1500,0.0,0.0,,825,3.14159265359,180.0,2175,-3.14159265359,-180.0
1510962726345231523,,0,12,0,1500,0.0,0.0,,825,3.14159265359,180.0,2175,-3.14159265359,-180.0,1,12,1,1500,0.0,0.0,,825,3.14159265359,180.0,2175,-3.14159265359,-180.0
1510962726365099180,,0,12,0,1500,0.0,0.0,,825,3.14159265359,180.0,2175,-3.14159265359,-180.0,1,12,1,1500,0.0,0.0,,825,3.14159265359,180.0,2175,-3.14159265359,-180.0
1510962726385215846,,0,12,0,1500,0.0,0.0,,825,3.14159265359,180.0,2175,-3.14159265359,-180.0,1,12,1,1500,0.0,0.0,,825,3.14159265359,180.0,2175,-3.14159265359,-180.0
1510962726405010273,,0,12,0,1500,0.0,0.0,,825,3.14159265359,180.0,2175,-3.14159265359,-180.0,1,12,1,1500,0.0,0.0,,825,3.14159265359,180.0,2175,-3.14159265359,-180.0
1510962726425159805,,0,12,0,1500,0.0,0.0,,825,3.14159265359,180.0,2175,-3.14159265359,-180.0,1,12,1,1500,0.0,0.0,,825,3.14159265359,180.0,2175,-3.14159265359,-180.0
1510962726445304857,,0,12,0,1500,0.0,0.0,,825,3.14159265359,180.0,2175,-3.14159265359,-180.0,1,12,1,1500,0.0,0.0,,825,3.14159265359,180.0,2175,-3.14159265359,-180.0
1510962726466138242,,0,12,0,1500,0.0,0.0,,825,3.14159265359,180.0,2175,-3.14159265359,-180.0,1,12,1,1500,0.0,0.0,,825,3.14159265359,180.0,2175,-3.14159265359,-180.0
1510962726485156940,,0,12,0,1500,0.0,0.0,,825,3.14159265359,180.0,2175,-3.14159265359,-180.0,1,12,1,1500,0.0,0.0,,825,3.14159265359,180.0,2175,-3.14159265359,-180.0
1510962726505448190,,0,12,0,1500,0.0,0.0,,825,3.14159265359,180.0,2175,-3.14159265359,-180.0,1,12,1,1500,0.0,0.0,,825,3.14159265359,180.0,2175,-3.14159265359,-180.0
1510962726527392357,,0,12,0,1500,0.0,0.0,,825,3.14159265359,180.0,2175,-3.14159265359,-180.0,1,12,1,1500,0.0,0.0,,825,3.14159265359,180.0,2175,-3.14159265359,-180.0
1510962726545361107,,0,12,0,1500,0.0,0.0,,825,3.14159265359,180.0,2175,-3.14159265359,-180.0,1,12,1,1500,0.0,0.0,,825,3.14159265359,180.0,2175,-3.14159265359,-180.0
1510962726566766263,,0,12,0,1500,0.0,0.0,,825,3.14159265359,180.0,2175,-3.14159265359,-180.0,1,12,1,1500,0.0,0.0,,825,3.14159265359,180.0,2175,-3.14159265359,-180.0
1510962726585220378,,0,12,0,1500,0.0,0.0,,825,3.14159265359,180.0,2175,-3.14159265359,-180.0,1,12,1,1500,0.0,0.0,,825,3.14159265359,180.0,2175,-3.14159265359,-180.0
1510962726605238190,,0,12,0,1500,0.0,0.0,,825,3.14159265359,180.0,2175,-3.14159265359,-180.0,1,12,1,1500,0.0,0.0,,825,3.14159265359,180.0,2175,-3.14159265359,-180.0
1510962726626154544,,0,12,0,1500,0.0,0.0,,825,3.14159265359,180.0,2175,-3.14159265359,-180.0,1,12,1,1500,0.0,0.0,,825,3.14159265359,180.0,2175,-3.14159265359,-180.0
1510962726645181628,,0,12,0,1500,0.0,0.0,,825,3.14159265359,180.0,2175,-3.14159265359,-180.0,1,12,1,1500,0.0,0.0,,825,3.14159265359,180.0,2175,-3.14159265359,-180.0
1510962726666784544,,0,12,0,1500,0.0,0.0,,825,3.14159265359,180.0,2175,-3.14159265359,-180.0,1,12,1,1500,0.0,0.0,,825,3.14159265359,180.0,2175,-3.14159265359,-180.0
1510962726685044857,,0,12,0,1500,0.0,0.0,,825,3.14159265359,180.0,2175,-3.14159265359,-180.0,1,12,1,1500,0.0,0.0,,825,3.14159265359,180.0,2175,-3.14159265359,-180.0
1510962726705218034,,0,12,0,1500,0.0,0.0,,825,3.14159265359,180.0,2175,-3.14159265359,-180.0,1,12,1,1500,0.0,0.0,,825,3.14159265359,180.0,2175,-3.14159265359,-180.0
1510962726725759648,,0,12,0,1500,0.0,0.0,,825,3.14159265359,180.0,2175,-3.14159265359,-180.0,1,12,1,1500,0.0,0.0,,825,3.14159265359,180.0,2175,-3.14159265359,-180.0
1510962726745165273,,0,12,0,1500,0.0,0.0,,825,3.14159265359,180.0,2175,-3.14159265359,-180.0,1,12,1,1500,0.0,0.0,,825,3.14159265359,180.0,2175,-3.14159265359,-180.0
1510962726766026002,,0,12,0,1500,0.0,0.0,,825,3.14159265359,180.0,2175,-3.14159265359,-180.0,1,12,1,1500,0.0,0.0,,825,3.14159265359,180.0,2175,-3.14159265359,-180.0
1510962726786058086,,0,12,0,1500,0.0,0.0,,825,3.14159265359,180.0,2175,-3.14159265359,-180.0,1,12,1,1500,0.0,0.0,,825,3.14159265359,180.0,2175,-3.14159265359,-180.0
1510962726804904232,,0,12,0,1500,0.0,0.0,,825,3.14159265359,180.0,2175,-3.14159265359,-180.0,1,12,1,1500,0.0,0.0,,825,3.14159265359,180.0,2175,-3.14159265359,-180.0
1510962726824970950,,0,12,0,1500,0.0,0.0,,825,3.14159265359,180.0,2175,-3.14159265359,-180.0,1,12,1,1500,0.0,0.0,,825,3.14159265359,180.0,2175,-3.14159265359,-180.0
1510962726845193398,,0,12,0,1500,0.0,0.0,,825,3.14159265359,180.0,2175,-3.14159265359,-180.0,1,12,1,1500,0.0,0.0,,825,3.14159265359,180.0,2175,-3.14159265359,-180.0
1510962726865157252,,0,12,0,1500,0.0,0.0,,825,3.14159265359,180.0,2175,-3.14159265359,-180.0,1,12,1,1500,0.0,0.0,,825,3.14159265359,180.0,2175,-3.14159265359,-180.0
1510962726884935065,,0,12,0,1500,0.0,0.0,,825,3.14159265359,180.0,2175,-3.14159265359,-180.0,1,12,1,1500,0.0,0.0,,825,3.14159265359,180.0,2175,-3.14159265359,-180.0
1510962726905016940,,0,12,0,1500,0.0,0.0,,825,3.14159265359,180.0,2175,-3.14159265359,-180.0,1,12,1,1500,0.0,0.0,,825,3.14159265359,180.0,2175,-3.14159265359,-180.0
1510962726924916471,,0,12,0,1500,0.0,0.0,,825,3.14159265359,180.0,2175,-3.14159265359,-180.0,1,12,1,1500,0.0,0.0,,825,3.14159265359,180.0,2175,-3.14159265359,-180.0
1510962726945093086,,0,12,0,1500,0.0,0.0,,825,3.14159265359,180.0,2175,-3.14159265359,-180.0,1,12,1,1500,0.0,0.0,,825,3.14159265359,180.0,2175,-3.14159265359,-180.0
1510962726965384544,,0,12,0,1500,0.0,0.0,,825,3.14159265359,180.0,2175,-3.14159265359,-180.0,1,12,1,1500,0.0,0.0,,825,3.14159265359,180.0,2175,-3.14159265359,-180.0
1510962726985257044,,0,12,0,1500,0.0,0.0,,825,3.14159265359,180.0,2175,-3.14159265359,-180.0,1,12,1,1500,0.0,0.0,,825,3.14159265359,180.0,2175,-3.14159265359,-180.0
1510962727005204388,,0,12,0,1500,0.0,0.0,,825,3.14159265359,180.0,2175,-3.14159265359,-180.0,1,12,1,1500,0.0,0.0,,825,3.14159265359,180.0,2175,-3.14159265359,-180.0
1510962727025250794,,0,12,0,1500,0.0,0.0,,825,3.14159265359,180.0,2175,-3.14159265359,-180.0,1,12,1,1500,0.0,0.0,,825,3.14159265359,180.0,2175,-3.14159265359,-180.0
1510962727045029336,,0,12,0,1500,0.0,0.0,,825,3.14159265359,180.0,2175,-3.14159265359,-180.0,1,12,1,1500,0.0,0.0,,825,3.14159265359,180.0,2175,-3.14159265359,-180.0
1510962727065101419,,0,12,0,1500,0.0,0.0,,825,3.14159265359,180.0,2175,-3.14159265359,-180.0,1,12,1,1500,0.0,0.0,,825,3.14159265359,180.0,2175,-3.14159265359,-180.0
1510962727085673554,,0,12,0,1500,0.0,0.0,,825,3.14159265359,180.0,2175,-3.14159265359,-180.0,1,12,1,1500,0.0,0.0,,825,3.14159265359,180.0,2175,-3.14159265359,-180.0
1510962727105520429,,0,12,0,1500,0.0,0.0,,825,3.14159265359,180.0,2175,-3.14159265359,-180.0,1,12,1,1500,0.0,0.0,,825,3.14159265359,180.0,2175,-3.14159265359,-180.0
1510962727125166575,,0,12,0,1500,0.0,0.0,,825,3.14159265359,180.0,2175,-3.14159265359,-180.0,1,12,1,1500,0.0,0.0,,825,3.14159265359,180.0,2175,-3.14159265359,-180.0
1510962727145015586,,0,12,0,1500,0.0,0.0,,825,3.14159265359,180.0,2175,-3.14159265359,-180.0,1,12,1,1500,0.0,0.0,,825,3.14159265359,180.0,2175,-3.14159265359,-180.0
1510962727165146471,,0,12,0,1500,0.0,0.0,,825,3.14159265359,180.0,2175,-3.14159265359,-180.0,1,12,1,1500,0.0,0.0,,825,3.14159265359,180.0,2175,-3.14159265359,-180.0
1510962727185588502,,0,12,0,1500,0.0,0.0,,825,3.14159265359,180.0,2175,-3.14159265359,-180.0,1,12,1,1500,0.0,0.0,,825,3.14159265359,180.0,2175,-3.14159265359,-180.0
1510962727205014856,,0,12,0,1500,0.0,0.0,,825,3.14159265359,180.0,2175,-3.14159265359,-180.0,1,12,1,1500,0.0,0.0,,825,3.14159265359,180.0,2175,-3.14159265359,-180.0
1510962727225102096,,0,12,0,1500,0.0,0.0,,825,3.14159265359,180.0,2175,-3.14159265359,-180.0,1,12,1,1500,0.0,0.0,,825,3.14159265359,180.0,2175,-3.14159265359,-180.0
1510962727245393190,,0,12,0,1500,0.0,0.0,,825,3.14159265359,180.0,2175,-3.14159265359,-180.0,1,12,1,1500,0.0,0.0,,825,3.14159265359,180.0,2175,-3.14159265359,-180.0
1510962727265516836,,0,12,0,1500,0.0,0.0,,825,3.14159265359,180.0,2175,-3.14159265359,-180.0,1,12,1,1500,0.0,0.0,,825,3.14159265359,180.0,2175,-3.14159265359,-180.0
1510962727284868659,,0,12,0,1500,0.0,0.0,,825,3.14159265359,180.0,2175,-3.14159265359,-180.0,1,12,1,1500,0.0,0.0,,825,3.14159265359,180.0,2175,-3.14159265359,-180.0
1510962727305003294,,0,12,0,1500,0.0,0.0,,825,3.14159265359,180.0,2175,-3.14159265359,-180.0,1,12,1,1500,0.0,0.0,,825,3.14159265359,180.0,2175,-3.14159265359,-180.0
1510962727326106523,,0,12,0,1500,0.0,0.0,,825,3.14159265359,180.0,2175,-3.14159265359,-180.0,1,12,1,1500,0.0,0.0,,825,3.14159265359,180.0,2175,-3.14159265359,-180.0
1510962727345219804,,0,12,0,1500,0.0,0.0,,825,3.14159265359,180.0,2175,-3.14159265359,-180.0,1,12,1,1500,0.0,0.0,,825,3.14159265359,180.0,2175,-3.14159265359,-180.0
1510962727365086575,,0,12,0,1500,0.0,0.0,,825,3.14159265359,180.0,2175,-3.14159265359,-180.0,1,12,1,1500,0.0,0.0,,825,3.14159265359,180.0,2175,-3.14159265359,-180.0
1510962727385292877,,0,12,0,1500,0.0,0.0,,825,3.14159265359,180.0,2175,-3.14159265359,-180.0,1,12,1,1500,0.0,0.0,,825,3.14159265359,180.0,2175,-3.14159265359,-180.0
1510962727405127200,,0,12,0,1500,0.0,0.0,,825,3.14159265359,180.0,2175,-3.14159265359,-180.0,1,12,1,1500,0.0,0.0,,825,3.14159265359,180.0,2175,-3.14159265359,-180.0
1510962727425595586,,0,12,0,1500,0.0,0.0,,825,3.14159265359,180.0,2175,-3.14159265359,-180.0,1,12,1,1500,0.0,0.0,,825,3.14159265359,180.0,2175,-3.14159265359,-180.0
1510962727444991419,,0,12,0,1500,0.0,0.0,,825,3.14159265359,180.0,2175,-3.14159265359,-180.0,1,12,1,1500,0.0,0.0,,825,3.14159265359,180.0,2175,-3.14159265359,-180.0
1510962727465931315,,0,12,0,1500,0.0,0.0,,825,3.14159265359,180.0,2175,-3.14159265359,-180.0,1,12,1,1500,0.0,0.0,,825,3.14159265359,180.0,2175,-3.14159265359,-180.0
1510962727485293033,,0,12,0,1500,0.0,0.0,,825,3.14159265359,180.0,2175,-3.14159265359,-180.0,1,12,1,1500,0.0,0.0,,825,3.14159265359,180.0,2175,-3.14159265359,-180.0
1510962727506279388,,0,12,0,1500,0.0,0.0,,825,3.14159265359,180.0,2175,-3.14159265359,-180.0,1,12,1,1500,0.0,0.0,,825,3.14159265359,180.0,2175,-3.14159265359,-180.0
1510962727524935481,,0,12,0,1500,0.0,0.0,,825,3.14159265359,180.0,2175,-3.14159265359,-180.0,1,12,1,1500,0.0,0.0,,825,3.14159265359,180.0,2175,-3.14159265359,-180.0
1510962727545050533,,0,12,0,1500,0.0,0.0,,825,3.14159265359,180.0,2175,-3.14159265359,-180.0,1,12,1,1500,0.0,0.0,,825,3.14159265359,180.0,2175,-3.14159265359,-180.0
1510962727566476315,,0,12,0,1500,0.0,0.0,,825,3.14159265359,180.0,2175,-3.14159265359,-180.0,1,12,1,1500,0.0,0.0,,825,3.14159265359,180.0,2175,-3.14159265359,-180.0
1510962727585046210,,0,12,0,1500,0.0,0.0,,825,3.14159265359,180.0,2175,-3.14159265359,-180.0,1,12,1,1500,0.0,0.0,,825,3.14159265359,180.0,2175,-3.14159265359,-180.0
1510962727605267617,,0,12,0,1500,0.0,0.0,,825,3.14159265359,180.0,2175,-3.14159265359,-180.0,1,12,1,1500,0.0,0.0,,825,3.14159265359,180.0,2175,-3.14159265359,-180.0
1510962727625034752,,0,12,0,1500,0.0,0.0,,825,3.14159265359,180.0,2175,-3.14159265359,-180.0,1,12,1,1500,0.0,0.0,,825,3.14159265359,180.0,2175,-3.14159265359,-180.0
1510962727645031783,,0,12,0,1502,0.0093084226773,0.533333333333,,825,3.14159265359,180.0,2175,-3.14159265359,-180.0,1,12,1,1500,0.0,0.0,,825,3.14159265359,180.0,2175,-3.14159265359,-180.0
1510962727664890169,,0,12,0,1502,0.0093084226773,0.533333333333,,825,3.14159265359,180.0,2175,-3.14159265359,-180.0,1,12,1,1500,0.0,0.0,,825,3.14159265359,180.0,2175,-3.14159265359,-180.0
1510962727684968190,,0,12,0,1502,0.0093084226773,0.533333333333,,825,3.14159265359,180.0,2175,-3.14159265359,-180.0,1,12,1,1500,0.0,0.0,,825,3.14159265359,180.0,2175,-3.14159265359,-180.0
1510962727705018710,,0,12,0,1502,0.0093084226773,0.533333333333,,825,3.14159265359,180.0,2175,-3.14159265359,-180.0,1,12,1,1500,0.0,0.0,,825,3.14159265359,180.0,2175,-3.14159265359,-180.0
1510962727724815742,,0,12,0,1502,0.0093084226773,0.533333333333,,825,3.14159265359,180.0,2175,-3.14159265359,-180.0,1,12,1,1500,0.0,0.0,,825,3.14159265359,180.0,2175,-3.14159265359,-180.0
1510962727746767565,,0,12,0,1502,0.0093084226773,0.533333333333,,825,3.14159265359,180.0,2175,-3.14159265359,-180.0,1,12,1,1500,0.0,0.0,,825,3.14159265359,180.0,2175,-3.14159265359,-180.0
1510962727765122877,,0,12,0,1502,0.0093084226773,0.533333333333,,825,3.14159265359,180.0,2175,-3.14159265359,-180.0,1,12,1,1500,0.0,0.0,,825,3.14159265359,180.0,2175,-3.14159265359,-180.0
1510962727784899596,,0,12,0,1502,0.0093084226773,0.533333333333,,825,3.14159265359,180.0,2175,-3.14159265359,-180.0,1,12,1,1500,0.0,0.0,,825,3.14159265359,180.0,2175,-3.14159265359,-180.0
1510962727805017877,,0,12,0,1502,0.0093084226773,0.533333333333,,825,3.14159265359,180.0,2175,-3.14159265359,-180.0,1,12,1,1500,0.0,0.0,,825,3.14159265359,180.0,2175,-3.14159265359,-180.0
1510962727825860950,,0,12,0,1502,0.0093084226773,0.533333333333,,825,3.14159265359,180.0,2175,-3.14159265359,-180.0,1,12,1,1500,0.0,0.0,,825,3.14159265359,180.0,2175,-3.14159265359,-180.0
1510962727845503346,,0,12,0,1502,0.0093084226773,0.533333333333,,825,3.14159265359,180.0,2175,-3.14159265359,-180.0,1,12,1,1500,0.0,0.0,,825,3.14159265359,180.0,2175,-3.14159265359,-180.0
1510962727864974908,,0,12,0,1502,0.0093084226773,0.533333333333,,825,3.14159265359,180.0,2175,-3.14159265359,-180.0,1,12,1,1500,0.0,0.0,,825,3.14159265359,180.0,2175,-3.14159265359,-180.0
1510962727884853137,,0,12,0,1502,0.0093084226773,0.533333333333,,825,3.14159265359,180.0,2175,-3.14159265359,-180.0,1,12,1,1500,0.0,0.0,,825,3.14159265359,180.0,2175,-3.14159265359,-180.0
1510962727905051679,,0,12,0,1502,0.0093084226773,0.533333333333,,825,3.14159265359,180.0,2175,-3.14159265359,-180.0,1,12,1,1500,0.0,0.0,,825,3.14159265359,180.0,2175,-3.14159265359,-180.0
1510962727926428190,,0,12,0,1502,0.0093084226773,0.533333333333,,825,3.14159265359,180.0,2175,-3.14159265359,-180.0,1,12,1,1500,0.0,0.0,,825,3.14159265359,180.0,2175,-3.14159265359,-180.0
1510962727944993710,,0,12,0,1500,0.0,0.0,,825,3.14159265359,180.0,2175,-3.14159265359,-180.0,1,12,1,1500,0.0,0.0,,825,3.14159265359,180.0,2175,-3.14159265359,-180.0
1510962727965124075,,0,12,0,1500,0.0,0.0,,825,3.14159265359,180.0,2175,-3.14159265359,-180.0,1,12,1,1500,0.0,0.0,,825,3.14159265359,180.0,2175,-3.14159265359,-180.0
1510962727985134596,,0,12,0,1500,0.0,0.0,,825,3.14159265359,180.0,2175,-3.14159265359,-180.0,1,12,1,1500,0.0,0.0,,825,3.14159265359,180.0,2175,-3.14159265359,-180.0
1510962728004886314,,0,12,0,1500,0.0,0.0,,825,3.14159265359,180.0,2175,-3.14159265359,-180.0,1,12,1,1500,0.0,0.0,,825,3.14159265359,180.0,2175,-3.14159265359,-180.0
1510962728024964335,,0,12,0,1500,0.0,0.0,,825,3.14159265359,180.0,2175,-3.14159265359,-180.0,1,12,1,1500,0.0,0.0,,825,3.14159265359,180.0,2175,-3.14159265359,-180.0
1510962728045242148,,0,12,0,1500,0.0,0.0,,825,3.14159265359,180.0,2175,-3.14159265359,-180.0,1,12,1,1500,0.0,0.0,,825,3.14159265359,180.0,2175,-3.14159265359,-180.0
1510962728065075012,,0,12,0,1500,0.0,0.0,,825,3.14159265359,180.0,2175,-3.14159265359,-180.0,1,12,1,1500,0.0,0.0,,825,3.14159265359,180.0,2175,-3.14159265359,-180.0
1510962728085166471,,0,12,0,1500,0.0,0.0,,825,3.14159265359,180.0,2175,-3.14159265359,-180.0,1,12,1,1500,0.0,0.0,,825,3.14159265359,180.0,2175,-3.14159265359,-180.0
1510962728105190325,,0,12,0,1500,0.0,0.0,,825,3.14159265359,180.0,2175,-3.14159265359,-180.0,1,12,1,1500,0.0,0.0,,825,3.14159265359,180.0,2175,-3.14159265359,-180.0
1510962728126132148,,0,12,0,1500,0.0,0.0,,825,3.14159265359,180.0,2175,-3.14159265359,-180.0,1,12,1,1500,0.0,0.0,,825,3.14159265359,180.0,2175,-3.14159265359,-180.0
1510962728145425429,,0,12,0,1500,0.0,0.0,,825,3.14159265359,180.0,2175,-3.14159265359,-180.0,1,12,1,1500,0.0,0.0,,825,3.14159265359,180.0,2175,-3.14159265359,-180.0
1510962728166217564,,0,12,0,1500,0.0,0.0,,825,3.14159265359,180.0,2175,-3.14159265359,-180.0,1,12,1,1500,0.0,0.0,,825,3.14159265359,180.0,2175,-3.14159265359,-180.0
1510962728184933658,,0,12,0,1500,0.0,0.0,,825,3.14159265359,180.0,2175,-3.14159265359,-180.0,1,12,1,1500,0.0,0.0,,825,3.14159265359,180.0,2175,-3.14159265359,-180.0
1510962728205561471,,0,12,0,1500,0.0,0.0,,825,3.14159265359,180.0,2175,-3.14159265359,-180.0,1,12,1,1500,0.0,0.0,,825,3.14159265359,180.0,2175,-3.14159265359,-180.0
1510962728226420846,,0,12,0,1500,0.0,0.0,,825,3.14159265359,180.0,2175,-3.14159265359,-180.0,1,12,1,1500,0.0,0.0,,825,3.14159265359,180.0,2175,-3.14159265359,-180.0
1510962728245222252,,0,12,0,1511,0.0511963247252,2.93333333333,,825,3.14159265359,180.0,2175,-3.14159265359,-180.0,1,12,1,1500,0.0,0.0,,825,3.14159265359,180.0,2175,-3.14159265359,-180.0
1510962728265280794,,0,12,0,1511,0.0511963247252,2.93333333333,,825,3.14159265359,180.0,2175,-3.14159265359,-180.0,1,12,1,1500,0.0,0.0,,825,3.14159265359,180.0,2175,-3.14159265359,-180.0
1510962728285210637,,0,12,0,1511,0.0511963247252,2.93333333333,,825,3.14159265359,180.0,2175,-3.14159265359,-180.0,1,12,1,1500,0.0,0.0,,825,3.14159265359,180.0,2175,-3.14159265359,-180.0
1510962728305374908,,0,12,0,1511,0.0511963247252,2.93333333333,,825,3.14159265359,180.0,2175,-3.14159265359,-180.0,1,12,1,1505,0.0232710566933,1.33333333333,,825,3.14159265359,180.0,2175,-3.14159265359,-180.0
1510962728325670950,,0,12,0,1511,0.0511963247252,2.93333333333,,825,3.14159265359,180.0,2175,-3.14159265359,-180.0,1,12,1,1505,0.0232710566933,1.33333333333,,825,3.14159265359,180.0,2175,-3.14159265359,-180.0
1510962728345276783,,0,12,0,1519,0.0884300154344,5.06666666667,,825,3.14159265359,180.0,2175,-3.14159265359,-180.0,1,12,1,1505,0.0232710566933,1.33333333333,,825,3.14159265359,180.0,2175,-3.14159265359,-180.0
1510962728364928919,,0,12,0,1519,0.0884300154344,5.06666666667,,825,3.14159265359,180.0,2175,-3.14159265359,-180.0,1,12,1,1505,0.0232710566933,1.33333333333,,825,3.14159265359,180.0,2175,-3.14159265359,-180.0
1510962728385178085,,0,12,0,1519,0.0884300154344,5.06666666667,,825,3.14159265359,180.0,2175,-3.14159265359,-180.0,1,12,1,1536,0.167551608191,9.6,,825,3.14159265359,180.0,2175,-3.14159265359,-180.0
1510962728404992564,,0,12,0,1519,0.0884300154344,5.06666666667,,825,3.14159265359,180.0,2175,-3.14159265359,-180.0,1,12,1,1560,0.279252680319,16.0,,825,3.14159265359,180.0,2175,-3.14159265359,-180.0
1510962728425216523,,0,12,0,1519,0.0884300154344,5.06666666667,,825,3.14159265359,180.0,2175,-3.14159265359,-180.0,1,12,1,1560,0.279252680319,16.0,,825,3.14159265359,180.0,2175,-3.14159265359,-180.0
1510962728445583866,,0,12,0,1519,0.0884300154344,5.06666666667,,825,3.14159265359,180.0,2175,-3.14159265359,-180.0,1,12,1,1560,0.279252680319,16.0,,825,3.14159265359,180.0,2175,-3.14159265359,-180.0
1510962728465256002,,0,12,0,1519,0.0884300154344,5.06666666667,,825,3.14159265359,180.0,2175,-3.14159265359,-180.0,1,12,1,1560,0.279252680319,16.0,,825,3.14159265359,180.0,2175,-3.14159265359,-180.0
1510962728484967929,,0,12,0,1519,0.0884300154344,5.06666666667,,825,3.14159265359,180.0,2175,-3.14159265359,-180.0,1,12,1,1560,0.279252680319,16.0,,825,3.14159265359,180.0,2175,-3.14159265359,-180.0
1510962728505078450,,0,12,0,1519,0.0884300154344,5.06666666667,,825,3.14159265359,180.0,2175,-3.14159265359,-180.0,1,12,1,1560,0.279252680319,16.0,,825,3.14159265359,180.0,2175,-3.14159265359,-180.0
1510962728524909127,,0,12,0,1519,0.0884300154344,5.06666666667,,825,3.14159265359,180.0,2175,-3.14159265359,-180.0,1,12,1,1560,0.279252680319,16.0,,825,3.14159265359,180.0,2175,-3.14159265359,-180.0
1510962728545232304,,0,12,0,1555,0.255981623626,14.6666666667,,825,3.14159265359,180.0,2175,-3.14159265359,-180.0,1,12,1,1587,0.404916386463,23.2,,825,3.14159265359,180.0,2175,-3.14159265359,-180.0
1510962728566221627,,0,12,0,1555,0.255981623626,14.6666666667,,825,3.14159265359,180.0,2175,-3.14159265359,-180.0,1,12,1,1587,0.404916386463,23.2,,825,3.14159265359,180.0,2175,-3.14159265359,-180.0
1510962728585134908,,0,12,0,1555,0.255981623626,14.6666666667,,825,3.14159265359,180.0,2175,-3.14159265359,-180.0,1,12,1,1587,0.404916386463,23.2,,825,3.14159265359,180.0,2175,-3.14159265359,-180.0
1510962728604955741,,0,12,0,1555,0.255981623626,14.6666666667,,825,3.14159265359,180.0,2175,-3.14159265359,-180.0,1,12,1,1587,0.404916386463,23.2,,825,3.14159265359,180.0,2175,-3.14159265359,-180.0
1510962728625140481,,0,12,0,1555,0.255981623626,14.6666666667,,825,3.14159265359,180.0,2175,-3.14159265359,-180.0,1,12,1,1587,0.404916386463,23.2,,825,3.14159265359,180.0,2175,-3.14159265359,-180.0
1510962728645237200,,0,12,0,1555,0.255981623626,14.6666666667,,825,3.14159265359,180.0,2175,-3.14159265359,-180.0,1,12,1,1587,0.404916386463,23.2,,825,3.14159265359,180.0,2175,-3.14159265359,-180.0
1510962728664971366,,0,12,0,1555,0.255981623626,14.6666666667,,825,3.14159265359,180.0,2175,-3.14159265359,-180.0,1,12,1,1587,0.404916386463,23.2,,825,3.14159265359,180.0,2175,-3.14159265359,-180.0
1510962728685136262,,0,12,0,1555,0.255981623626,14.6666666667,,825,3.14159265359,180.0,2175,-3.14159265359,-180.0,1,12,1,1587,0.404916386463,23.2,,825,3.14159265359,180.0,2175,-3.14159265359,-180.0
1510962728705203137,,0,12,0,1555,0.255981623626,14.6666666667,,825,3.14159265359,180.0,2175,-3.14159265359,-180.0,1,12,1,1587,0.404916386463,23.2,,825,3.14159265359,180.0,2175,-3.14159265359,-180.0
1510962728725038554,,0,12,0,1555,0.255981623626,14.6666666667,,825,3.14159265359,180.0,2175,-3.14159265359,-180.0,1,12,1,1587,0.404916386463,23.2,,825,3.14159265359,180.0,2175,-3.14159265359,-180.0
1510962728745410533,,0,12,0,1555,0.255981623626,14.6666666667,,825,3.14159265359,180.0,2175,-3.14159265359,-180.0,1,12,1,1587,0.404916386463,23.2,,825,3.14159265359,180.0,2175,-3.14159265359,-180.0
1510962728765064283,,0,12,0,1555,0.255981623626,14.6666666667,,825,3.14159265359,180.0,2175,-3.14159265359,-180.0,1,12,1,1587,0.404916386463,23.2,,825,3.14159265359,180.0,2175,-3.14159265359,-180.0
1510962728785248345,,0,12,0,1555,0.255981623626,14.6666666667,,825,3.14159265359,180.0,2175,-3.14159265359,-180.0,1,12,1,1569,0.321140582367,18.4,,825,3.14159265359,180.0,2175,-3.14159265359,-180.0
1510962728805017356,,0,12,0,1555,0.255981623626,14.6666666667,,825,3.14159265359,180.0,2175,-3.14159265359,-180.0,1,12,1,1569,0.321140582367,18.4,,825,3.14159265359,180.0,2175,-3.14159265359,-180.0
1510962728825086627,,0,12,0,1555,0.255981623626,14.6666666667,,825,3.14159265359,180.0,2175,-3.14159265359,-180.0,1,12,1,1569,0.321140582367,18.4,,825,3.14159265359,180.0,2175,-3.14159265359,-180.0
1510962728845206262,,0,12,0,1558,0.269944257642,15.4666666667,,825,3.14159265359,180.0,2175,-3.14159265359,-180.0,1,12,1,1569,0.321140582367,18.4,,825,3.14159265359,180.0,2175,-3.14159265359,-180.0
1510962728864886418,,0,12,0,1558,0.269944257642,15.4666666667,,825,3.14159265359,180.0,2175,-3.14159265359,-180.0,1,12,1,1569,0.321140582367,18.4,,825,3.14159265359,180.0,2175,-3.14159265359,-180.0
1510962728885000429,,0,12,0,1558,0.269944257642,15.4666666667,,825,3.14159265359,180.0,2175,-3.14159265359,-180.0,1,12,1,1569,0.321140582367,18.4,,825,3.14159265359,180.0,2175,-3.14159265359,-180.0
1510962728905006314,,0,12,0,1558,0.269944257642,15.4666666667,,825,3.14159265359,180.0,2175,-3.14159265359,-180.0,1,12,1,1569,0.321140582367,18.4,,825,3.14159265359,180.0,2175,-3.14159265359,-180.0
1510962728925105637,,0,12,0,1558,0.269944257642,15.4666666667,,825,3.14159265359,180.0,2175,-3.14159265359,-180.0,1,12,1,1569,0.321140582367,18.4,,825,3.14159265359,180.0,2175,-3.14159265359,-180.0
1510962728945312981,,0,12,0,1558,0.269944257642,15.4666666667,,825,3.14159265359,180.0,2175,-3.14159265359,-180.0,1,12,1,1537,0.17220581953,9.86666666667,,825,3.14159265359,180.0,2175,-3.14159265359,-180.0
1510962728964895845,,0,12,0,1558,0.269944257642,15.4666666667,,825,3.14159265359,180.0,2175,-3.14159265359,-180.0,1,12,1,1528,0.130317917482,7.46666666667,,825,3.14159265359,180.0,2175,-3.14159265359,-180.0
1510962728984988502,,0,12,0,1558,0.269944257642,15.4666666667,,825,3.14159265359,180.0,2175,-3.14159265359,-180.0,1,12,1,1528,0.130317917482,7.46666666667,,825,3.14159265359,180.0,2175,-3.14159265359,-180.0
1510962729005472408,,0,12,0,1558,0.269944257642,15.4666666667,,825,3.14159265359,180.0,2175,-3.14159265359,-180.0,1,12,1,1528,0.130317917482,7.46666666667,,825,3.14159265359,180.0,2175,-3.14159265359,-180.0
1510962729026731835,,0,12,0,1558,0.269944257642,15.4666666667,,825,3.14159265359,180.0,2175,-3.14159265359,-180.0,1,12,1,1528,0.130317917482,7.46666666667,,825,3.14159265359,180.0,2175,-3.14159265359,-180.0
1510962729045673658,,0,12,0,1558,0.269944257642,15.4666666667,,825,3.14159265359,180.0,2175,-3.14159265359,-180.0,1,12,1,1528,0.130317917482,7.46666666667,,825,3.14159265359,180.0,2175,-3.14159265359,-180.0
1510962729065455793,,0,12,0,1558,0.269944257642,15.4666666667,,825,3.14159265359,180.0,2175,-3.14159265359,-180.0,1,12,1,1528,0.130317917482,7.46666666667,,825,3.14159265359,180.0,2175,-3.14159265359,-180.0
1510962729084862877,,0,12,0,1558,0.269944257642,15.4666666667,,825,3.14159265359,180.0,2175,-3.14159265359,-180.0,1,12,1,1528,0.130317917482,7.46666666667,,825,3.14159265359,180.0,2175,-3.14159265359,-180.0
1510962729105061106,,0,12,0,1558,0.269944257642,15.4666666667,,825,3.14159265359,180.0,2175,-3.14159265359,-180.0,1,12,1,1528,0.130317917482,7.46666666667,,825,3.14159265359,180.0,2175,-3.14159265359,-180.0
1510962729125559960,,0,12,0,1558,0.269944257642,15.4666666667,,825,3.14159265359,180.0,2175,-3.14159265359,-180.0,1,12,1,1528,0.130317917482,7.46666666667,,825,3.14159265359,180.0,2175,-3.14159265359,-180.0
1510962729145678866,,0,12,0,1568,0.316486371028,18.1333333333,,825,3.14159265359,180.0,2175,-3.14159265359,-180.0,1,12,1,1528,0.130317917482,7.46666666667,,825,3.14159265359,180.0,2175,-3.14159265359,-180.0
1510962729166316939,,0,12,0,1568,0.316486371028,18.1333333333,,825,3.14159265359,180.0,2175,-3.14159265359,-180.0,1,12,1,1528,0.130317917482,7.46666666667,,825,3.14159265359,180.0,2175,-3.14159265359,-180.0
1510962729185252199,,0,12,0,1568,0.316486371028,18.1333333333,,825,3.14159265359,180.0,2175,-3.14159265359,-180.0,1,12,1,1528,0.130317917482,7.46666666667,,825,3.14159265359,180.0,2175,-3.14159265359,-180.0
1510962729205711366,,0,12,0,1568,0.316486371028,18.1333333333,,825,3.14159265359,180.0,2175,-3.14159265359,-180.0,1,12,1,1528,0.130317917482,7.46666666667,,825,3.14159265359,180.0,2175,-3.14159265359,-180.0
1510962729225279491,,0,12,0,1568,0.316486371028,18.1333333333,,825,3.14159265359,180.0,2175,-3.14159265359,-180.0,1,12,1,1528,0.130317917482,7.46666666667,,825,3.14159265359,180.0,2175,-3.14159265359,-180.0
1510962729246236002,,0,12,0,1584,0.390953752447,22.4,,825,3.14159265359,180.0,2175,-3.14159265359,-180.0,1,12,1,1528,0.130317917482,7.46666666667,,825,3.14159265359,180.0,2175,-3.14159265359,-180.0
1510962729267221418,,0,12,0,1584,0.390953752447,22.4,,825,3.14159265359,180.0,2175,-3.14159265359,-180.0,1,12,1,1528,0.130317917482,7.46666666667,,825,3.14159265359,180.0,2175,-3.14159265359,-180.0
1510962729286000168,,0,12,0,1584,0.390953752447,22.4,,825,3.14159265359,180.0,2175,-3.14159265359,-180.0,1,12,1,1528,0.130317917482,7.46666666667,,825,3.14159265359,180.0,2175,-3.14159265359,-180.0
1510962729305677772,,0,12,0,1584,0.390953752447,22.4,,825,3.14159265359,180.0,2175,-3.14159265359,-180.0,1,12,1,1528,0.130317917482,7.46666666667,,825,3.14159265359,180.0,2175,-3.14159265359,-180.0
1510962729325888345,,0,12,0,1584,0.390953752447,22.4,,825,3.14159265359,180.0,2175,-3.14159265359,-180.0,1,12,1,1528,0.130317917482,7.46666666667,,825,3.14159265359,180.0,2175,-3.14159265359,-180.0
1510962729346293085,,0,12,0,1589,0.41422480914,23.7333333333,,825,3.14159265359,180.0,2175,-3.14159265359,-180.0,1,12,1,1528,0.130317917482,7.46666666667,,825,3.14159265359,180.0,2175,-3.14159265359,-180.0
1510962729366389283,,0,12,0,1589,0.41422480914,23.7333333333,,825,3.14159265359,180.0,2175,-3.14159265359,-180.0,1,12,1,1528,0.130317917482,7.46666666667,,825,3.14159265359,180.0,2175,-3.14159265359,-180.0
1510962729385295637,,0,12,0,1589,0.41422480914,23.7333333333,,825,3.14159265359,180.0,2175,-3.14159265359,-180.0,1,12,1,1528,0.130317917482,7.46666666667,,825,3.14159265359,180.0,2175,-3.14159265359,-180.0
1510962729405581991,,0,12,0,1589,0.41422480914,23.7333333333,,825,3.14159265359,180.0,2175,-3.14159265359,-180.0,1,12,1,1528,0.130317917482,7.46666666667,,825,3.14159265359,180.0,2175,-3.14159265359,-180.0
1510962729428058814,,0,12,0,1589,0.41422480914,23.7333333333,,825,3.14159265359,180.0,2175,-3.14159265359,-180.0,1,12,1,1528,0.130317917482,7.46666666667,,825,3.14159265359,180.0,2175,-3.14159265359,-180.0
1510962729445318397,,0,12,0,1589,0.41422480914,23.7333333333,,825,3.14159265359,180.0,2175,-3.14159265359,-180.0,1,12,1,1528,0.130317917482,7.46666666667,,825,3.14159265359,180.0,2175,-3.14159265359,-180.0
1510962729466600429,,0,12,0,1589,0.41422480914,23.7333333333,,825,3.14159265359,180.0,2175,-3.14159265359,-180.0,1,12,1,1528,0.130317917482,7.46666666667,,825,3.14159265359,180.0,2175,-3.14159265359,-180.0
1510962729485660533,,0,12,0,1589,0.41422480914,23.7333333333,,825,3.14159265359,180.0,2175,-3.14159265359,-180.0,1,12,1,1528,0.130317917482,7.46666666667,,825,3.14159265359,180.0,2175,-3.14159265359,-180.0
1510962729505186991,,0,12,0,1589,0.41422480914,23.7333333333,,825,3.14159265359,180.0,2175,-3.14159265359,-180.0,1,12,1,1528,0.130317917482,7.46666666667,,825,3.14159265359,180.0,2175,-3.14159265359,-180.0
1510962729526548033,,0,12,0,1589,0.41422480914,23.7333333333,,825,3.14159265359,180.0,2175,-3.14159265359,-180.0,1,12,1,1528,0.130317917482,7.46666666667,,825,3.14159265359,180.0,2175,-3.14159265359,-180.0
1510962729546035324,,0,12,0,1595,0.442150077172,25.3333333333,,825,3.14159265359,180.0,2175,-3.14159265359,-180.0,1,12,1,1528,0.130317917482,7.46666666667,,825,3.14159265359,180.0,2175,-3.14159265359,-180.0
1510962729566086887,,0,12,0,1595,0.442150077172,25.3333333333,,825,3.14159265359,180.0,2175,-3.14159265359,-180.0,1,12,1,1528,0.130317917482,7.46666666667,,825,3.14159265359,180.0,2175,-3.14159265359,-180.0
1510962729585506991,,0,12,0,1595,0.442150077172,25.3333333333,,825,3.14159265359,180.0,2175,-3.14159265359,-180.0,1,12,1,1528,0.130317917482,7.46666666667,,825,3.14159265359,180.0,2175,-3.14159265359,-180.0
1510962729605650220,,0,12,0,1595,0.442150077172,25.3333333333,,825,3.14159265359,180.0,2175,-3.14159265359,-180.0,1,12,1,1528,0.130317917482,7.46666666667,,825,3.14159265359,180.0,2175,-3.14159265359,-180.0
1510962729626272876,,0,12,0,1595,0.442150077172,25.3333333333,,825,3.14159265359,180.0,2175,-3.14159265359,-180.0,1,12,1,1528,0.130317917482,7.46666666667,,825,3.14159265359,180.0,2175,-3.14159265359,-180.0
1510962729645399856,,0,12,0,1605,0.488692190558,28.0,,825,3.14159265359,180.0,2175,-3.14159265359,-180.0,1,12,1,1528,0.130317917482,7.46666666667,,825,3.14159265359,180.0,2175,-3.14159265359,-180.0
1510962729665195168,,0,12,0,1605,0.488692190558,28.0,,825,3.14159265359,180.0,2175,-3.14159265359,-180.0,1,12,1,1528,0.130317917482,7.46666666667,,825,3.14159265359,180.0,2175,-3.14159265359,-180.0
1510962729685308606,,0,12,0,1605,0.488692190558,28.0,,825,3.14159265359,180.0,2175,-3.14159265359,-180.0,1,12,1,1528,0.130317917482,7.46666666667,,825,3.14159265359,180.0,2175,-3.14159265359,-180.0
1510962729705231470,,0,12,0,1605,0.488692190558,28.0,,825,3.14159265359,180.0,2175,-3.14159265359,-180.0,1,12,1,1528,0.130317917482,7.46666666667,,825,3.14159265359,180.0,2175,-3.14159265359,-180.0
1510962729726143293,,0,12,0,1605,0.488692190558,28.0,,825,3.14159265359,180.0,2175,-3.14159265359,-180.0,1,12,1,1528,0.130317917482,7.46666666667,,825,3.14159265359,180.0,2175,-3.14159265359,-180.0
1510962729745115689,,0,12,0,1605,0.488692190558,28.0,,825,3.14159265359,180.0,2175,-3.14159265359,-180.0,1,12,1,1528,0.130317917482,7.46666666667,,825,3.14159265359,180.0,2175,-3.14159265359,-180.0
1510962729765331470,,0,12,0,1605,0.488692190558,28.0,,825,3.14159265359,180.0,2175,-3.14159265359,-180.0,1,12,1,1528,0.130317917482,7.46666666667,,825,3.14159265359,180.0,2175,-3.14159265359,-180.0
1510962729785173710,,0,12,0,1605,0.488692190558,28.0,,825,3.14159265359,180.0,2175,-3.14159265359,-180.0,1,12,1,1528,0.130317917482,7.46666666667,,825,3.14159265359,180.0,2175,-3.14159265359,-180.0
1510962729805115949,,0,12,0,1605,0.488692190558,28.0,,825,3.14159265359,180.0,2175,-3.14159265359,-180.0,1,12,1,1528,0.130317917482,7.46666666667,,825,3.14159265359,180.0,2175,-3.14159265359,-180.0
1510962729825866574,,0,12,0,1605,0.488692190558,28.0,,825,3.14159265359,180.0,2175,-3.14159265359,-180.0,1,12,1,1528,0.130317917482,7.46666666667,,825,3.14159265359,180.0,2175,-3.14159265359,-180.0
1510962729846575376,,0,12,0,1605,0.488692190558,28.0,,825,3.14159265359,180.0,2175,-3.14159265359,-180.0,1,12,1,1528,0.130317917482,7.46666666667,,825,3.14159265359,180.0,2175,-3.14159265359,-180.0
1510962729866769803,,0,12,0,1605,0.488692190558,28.0,,825,3.14159265359,180.0,2175,-3.14159265359,-180.0,1,12,1,1528,0.130317917482,7.46666666667,,825,3.14159265359,180.0,2175,-3.14159265359,-180.0
1510962729885411158,,0,12,0,1605,0.488692190558,28.0,,825,3.14159265359,180.0,2175,-3.14159265359,-180.0,1,12,1,1528,0.130317917482,7.46666666667,,825,3.14159265359,180.0,2175,-3.14159265359,-180.0
1510962729905451835,,0,12,0,1605,0.488692190558,28.0,,825,3.14159265359,180.0,2175,-3.14159265359,-180.0,1,12,1,1528,0.130317917482,7.46666666667,,825,3.14159265359,180.0,2175,-3.14159265359,-180.0
1510962729925056730,,0,12,0,1605,0.488692190558,28.0,,825,3.14159265359,180.0,2175,-3.14159265359,-180.0,1,12,1,1528,0.130317917482,7.46666666667,,825,3.14159265359,180.0,2175,-3.14159265359,-180.0
1510962729946165741,,0,12,0,1605,0.488692190558,28.0,,825,3.14159265359,180.0,2175,-3.14159265359,-180.0,1,12,1,1528,0.130317917482,7.46666666667,,825,3.14159265359,180.0,2175,-3.14159265359,-180.0
1510962729966785532,,0,12,0,1605,0.488692190558,28.0,,825,3.14159265359,180.0,2175,-3.14159265359,-180.0,1,12,1,1528,0.130317917482,7.46666666667,,825,3.14159265359,180.0,2175,-3.14159265359,-180.0
1510962729985734855,,0,12,0,1605,0.488692190558,28.0,,825,3.14159265359,180.0,2175,-3.14159265359,-180.0,1,12,1,1528,0.130317917482,7.46666666667,,825,3.14159265359,180.0,2175,-3.14159265359,-180.0
1510962730005661053,,0,12,0,1605,0.488692190558,28.0,,825,3.14159265359,180.0,2175,-3.14159265359,-180.0,1,12,1,1528,0.130317917482,7.46666666667,,825,3.14159265359,180.0,2175,-3.14159265359,-180.0
1510962730025559335,,0,12,0,1605,0.488692190558,28.0,,825,3.14159265359,180.0,2175,-3.14159265359,-180.0,1,12,1,1528,0.130317917482,7.46666666667,,825,3.14159265359,180.0,2175,-3.14159265359,-180.0
1510962730045618189,,0,12,0,1605,0.488692190558,28.0,,825,3.14159265359,180.0,2175,-3.14159265359,-180.0,1,12,1,1528,0.130317917482,7.46666666667,,825,3.14159265359,180.0,2175,-3.14159265359,-180.0
1510962730065275845,,0,12,0,1605,0.488692190558,28.0,,825,3.14159265359,180.0,2175,-3.14159265359,-180.0,1,12,1,1528,0.130317917482,7.46666666667,,825,3.14159265359,180.0,2175,-3.14159265359,-180.0
1510962730085113241,,0,12,0,1605,0.488692190558,28.0,,825,3.14159265359,180.0,2175,-3.14159265359,-180.0,1,12,1,1528,0.130317917482,7.46666666667,,825,3.14159265359,180.0,2175,-3.14159265359,-180.0
1510962730105242460,,0,12,0,1605,0.488692190558,28.0,,825,3.14159265359,180.0,2175,-3.14159265359,-180.0,1,12,1,1528,0.130317917482,7.46666666667,,825,3.14159265359,180.0,2175,-3.14159265359,-180.0
1510962730126128032,,0,12,0,1605,0.488692190558,28.0,,825,3.14159265359,180.0,2175,-3.14159265359,-180.0,1,12,1,1528,0.130317917482,7.46666666667,,825,3.14159265359,180.0,2175,-3.14159265359,-180.0
1510962730146356262,,0,12,0,1593,0.432841654495,24.8,,825,3.14159265359,180.0,2175,-3.14159265359,-180.0,1,12,1,1500,0.0,0.0,,825,3.14159265359,180.0,2175,-3.14159265359,-180.0
1510962730165103605,,0,12,0,1593,0.432841654495,24.8,,825,3.14159265359,180.0,2175,-3.14159265359,-180.0,1,12,1,1500,0.0,0.0,,825,3.14159265359,180.0,2175,-3.14159265359,-180.0
1510962730185353709,,0,12,0,1593,0.432841654495,24.8,,825,3.14159265359,180.0,2175,-3.14159265359,-180.0,1,12,1,1500,0.0,0.0,,825,3.14159265359,180.0,2175,-3.14159265359,-180.0
1510962730205011626,,0,12,0,1593,0.432841654495,24.8,,825,3.14159265359,180.0,2175,-3.14159265359,-180.0,1,12,1,1500,0.0,0.0,,825,3.14159265359,180.0,2175,-3.14159265359,-180.0
1510962730225855376,,0,12,0,1593,0.432841654495,24.8,,825,3.14159265359,180.0,2175,-3.14159265359,-180.0,1,12,1,1479,-0.0977384381117,-5.6,,825,3.14159265359,180.0,2175,-3.14159265359,-180.0
1510962730244990532,,0,12,0,1567,0.31183215969,17.8666666667,,825,3.14159265359,180.0,2175,-3.14159265359,-180.0,1,12,1,1479,-0.0977384381117,-5.6,,825,3.14159265359,180.0,2175,-3.14159265359,-180.0
1510962730265374491,,0,12,0,1567,0.31183215969,17.8666666667,,825,3.14159265359,180.0,2175,-3.14159265359,-180.0,1,12,1,1479,-0.0977384381117,-5.6,,825,3.14159265359,180.0,2175,-3.14159265359,-180.0
1510962730284818293,,0,12,0,1567,0.31183215969,17.8666666667,,825,3.14159265359,180.0,2175,-3.14159265359,-180.0,1,12,1,1479,-0.0977384381117,-5.6,,825,3.14159265359,180.0,2175,-3.14159265359,-180.0
1510962730305181782,,0,12,0,1567,0.31183215969,17.8666666667,,825,3.14159265359,180.0,2175,-3.14159265359,-180.0,1,12,1,1447,-0.246673200949,-14.1333333333,,825,3.14159265359,180.0,2175,-3.14159265359,-180.0
1510962730325194387,,0,12,0,1567,0.31183215969,17.8666666667,,825,3.14159265359,180.0,2175,-3.14159265359,-180.0,1,12,1,1437,-0.293215314335,-16.8,,825,3.14159265359,180.0,2175,-3.14159265359,-180.0
1510962730344992616,,0,12,0,1547,0.218747932917,12.5333333333,,825,3.14159265359,180.0,2175,-3.14159265359,-180.0,1,12,1,1437,-0.293215314335,-16.8,,825,3.14159265359,180.0,2175,-3.14159265359,-180.0
1510962730365831470,,0,12,0,1547,0.218747932917,12.5333333333,,825,3.14159265359,180.0,2175,-3.14159265359,-180.0,1,12,1,1437,-0.293215314335,-16.8,,825,3.14159265359,180.0,2175,-3.14159265359,-180.0
1510962730384993345,,0,12,0,1547,0.218747932917,12.5333333333,,825,3.14159265359,180.0,2175,-3.14159265359,-180.0,1,12,1,1405,-0.442150077172,-25.3333333333,,825,3.14159265359,180.0,2175,-3.14159265359,-180.0
1510962730405026366,,0,12,0,1547,0.218747932917,12.5333333333,,825,3.14159265359,180.0,2175,-3.14159265359,-180.0,1,12,1,1359,-0.65624379875,-37.6,,825,3.14159265359,180.0,2175,-3.14159265359,-180.0
1510962730425596782,,0,12,0,1547,0.218747932917,12.5333333333,,825,3.14159265359,180.0,2175,-3.14159265359,-180.0,1,12,1,1359,-0.65624379875,-37.6,,825,3.14159265359,180.0,2175,-3.14159265359,-180.0
1510962730445277511,,0,12,0,1517,0.0791215927571,4.53333333333,,825,3.14159265359,180.0,2175,-3.14159265359,-180.0,1,12,1,1359,-0.65624379875,-37.6,,825,3.14159265359,180.0,2175,-3.14159265359,-180.0
1510962730465998032,,0,12,0,1517,0.0791215927571,4.53333333333,,825,3.14159265359,180.0,2175,-3.14159265359,-180.0,1,12,1,1359,-0.65624379875,-37.6,,825,3.14159265359,180.0,2175,-3.14159265359,-180.0
1510962730484948970,,0,12,0,1517,0.0791215927571,4.53333333333,,825,3.14159265359,180.0,2175,-3.14159265359,-180.0,1,12,1,1359,-0.65624379875,-37.6,,825,3.14159265359,180.0,2175,-3.14159265359,-180.0
1510962730505033553,,0,12,0,1517,0.0791215927571,4.53333333333,,825,3.14159265359,180.0,2175,-3.14159265359,-180.0,1,12,1,1359,-0.65624379875,-37.6,,825,3.14159265359,180.0,2175,-3.14159265359,-180.0
1510962730525753553,,0,12,0,1517,0.0791215927571,4.53333333333,,825,3.14159265359,180.0,2175,-3.14159265359,-180.0,1,12,1,1359,-0.65624379875,-37.6,,825,3.14159265359,180.0,2175,-3.14159265359,-180.0
1510962730545899491,,0,12,0,1506,0.0279252680319,1.6,,825,3.14159265359,180.0,2175,-3.14159265359,-180.0,1,12,1,1328,-0.800524350248,-45.8666666667,,825,3.14159265359,180.0,2175,-3.14159265359,-180.0
1510962730565479595,,0,12,0,1506,0.0279252680319,1.6,,825,3.14159265359,180.0,2175,-3.14159265359,-180.0,1,12,1,0,-6.98131700798,-400.0,,825,3.14159265359,180.0,2175,-3.14159265359,-180.0
1510962730585126626,,0,12,0,1506,0.0279252680319,1.6,,825,3.14159265359,180.0,2175,-3.14159265359,-180.0,1,12,1,1201,-1.39160919026,-79.7333333333,,825,3.14159265359,180.0,2175,-3.14159265359,-180.0
1510962730605666678,,0,12,0,1506,0.0279252680319,1.6,,825,3.14159265359,180.0,2175,-3.14159265359,-180.0,1,12,1,0,-6.98131700798,-400.0,,825,3.14159265359,180.0,2175,-3.14159265359,-180.0
1510962730625317355,,0,12,0,1506,0.0279252680319,1.6,,825,3.14159265359,180.0,2175,-3.14159265359,-180.0,1,12,1,0,-6.98131700798,-400.0,,825,3.14159265359,180.0,2175,-3.14159265359,-180.0
1510962730645665168,,0,12,0,1500,0.0,0.0,,825,3.14159265359,180.0,2175,-3.14159265359,-180.0,1,12,1,0,-6.98131700798,-400.0,,825,3.14159265359,180.0,2175,-3.14159265359,-180.0
1510962730665183605,,0,12,0,1500,0.0,0.0,,825,3.14159265359,180.0,2175,-3.14159265359,-180.0,1,12,1,0,-6.98131700798,-400.0,,825,3.14159265359,180.0,2175,-3.14159265359,-180.0
1510962730684986053,,0,12,0,1500,0.0,0.0,,825,3.14159265359,180.0,2175,-3.14159265359,-180.0,1,12,1,0,-6.98131700798,-400.0,,825,3.14159265359,180.0,2175,-3.14159265359,-180.0
1510962730705003605,,0,12,0,1500,0.0,0.0,,825,3.14159265359,180.0,2175,-3.14159265359,-180.0,1,12,1,0,-6.98131700798,-400.0,,825,3.14159265359,180.0,2175,-3.14159265359,-180.0
1510962730726305532,,0,12,0,1500,0.0,0.0,,825,3.14159265359,180.0,2175,-3.14159265359,-180.0,1,12,1,0,-6.98131700798,-400.0,,825,3.14159265359,180.0,2175,-3.14159265359,-180.0
1510962730744830897,,0,12,0,1500,0.0,0.0,,825,3.14159265359,180.0,2175,-3.14159265359,-180.0,1,12,1,0,-6.98131700798,-400.0,,825,3.14159265359,180.0,2175,-3.14159265359,-180.0
1510962730765669230,,0,12,0,1500,0.0,0.0,,825,3.14159265359,180.0,2175,-3.14159265359,-180.0,1,12,1,0,-6.98131700798,-400.0,,825,3.14159265359,180.0,2175,-3.14159265359,-180.0
1510962730784723397,,0,12,0,1500,0.0,0.0,,825,3.14159265359,180.0,2175,-3.14159265359,-180.0,1,12,1,0,-6.98131700798,-400.0,,825,3.14159265359,180.0,2175,-3.14159265359,-180.0
1510962730804837459,,0,12,0,1500,0.0,0.0,,825,3.14159265359,180.0,2175,-3.14159265359,-180.0,1,12,1,0,-6.98131700798,-400.0,,825,3.14159265359,180.0,2175,-3.14159265359,-180.0
1510962730825187095,,0,12,0,1500,0.0,0.0,,825,3.14159265359,180.0,2175,-3.14159265359,-180.0,1,12,1,0,-6.98131700798,-400.0,,825,3.14159265359,180.0,2175,-3.14159265359,-180.0
1510962730845091418,,0,12,0,1500,0.0,0.0,,825,3.14159265359,180.0,2175,-3.14159265359,-180.0,1,12,1,0,-6.98131700798,-400.0,,825,3.14159265359,180.0,2175,-3.14159265359,-180.0
1510962730864939022,,0,12,0,1500,0.0,0.0,,825,3.14159265359,180.0,2175,-3.14159265359,-180.0,1,12,1,0,-6.98131700798,-400.0,,825,3.14159265359,180.0,2175,-3.14159265359,-180.0
1510962730884866001,,0,12,0,1500,0.0,0.0,,825,3.14159265359,180.0,2175,-3.14159265359,-180.0,1,12,1,0,-6.98131700798,-400.0,,825,3.14159265359,180.0,2175,-3.14159265359,-180.0
1510962730905126053,,0,12,0,1500,0.0,0.0,,825,3.14159265359,180.0,2175,-3.14159265359,-180.0,1,12,1,0,-6.98131700798,-400.0,,825,3.14159265359,180.0,2175,-3.14159265359,-180.0
1510962730924781261,,0,12,0,1500,0.0,0.0,,825,3.14159265359,180.0,2175,-3.14159265359,-180.0,1,12,1,0,-6.98131700798,-400.0,,825,3.14159265359,180.0,2175,-3.14159265359,-180.0
1510962730944973397,,0,12,0,1537,0.17220581953,9.86666666667,,825,3.14159265359,180.0,2175,-3.14159265359,-180.0,1,12,1,0,-6.98131700798,-400.0,,825,3.14159265359,180.0,2175,-3.14159265359,-180.0
1510962730964727303,,0,12,0,1537,0.17220581953,9.86666666667,,825,3.14159265359,180.0,2175,-3.14159265359,-180.0,1,12,1,0,-6.98131700798,-400.0,,825,3.14159265359,180.0,2175,-3.14159265359,-180.0
1510962730985034022,,0,12,0,1537,0.17220581953,9.86666666667,,825,3.14159265359,180.0,2175,-3.14159265359,-180.0,1,12,1,0,-6.98131700798,-400.0,,825,3.14159265359,180.0,2175,-3.14159265359,-180.0
1510962731004972824,,0,12,0,1537,0.17220581953,9.86666666667,,825,3.14159265359,180.0,2175,-3.14159265359,-180.0,1,12,1,0,-6.98131700798,-400.0,,825,3.14159265359,180.0,2175,-3.14159265359,-180.0
1510962731028776053,,0,12,0,1537,0.17220581953,9.86666666667,,825,3.14159265359,180.0,2175,-3.14159265359,-180.0,1,12,1,1179,-1.49400183971,-85.6,,825,3.14159265359,180.0,2175,-3.14159265359,-180.0
1510962731047109647,,0,12,0,1572,0.335103216383,19.2,,825,3.14159265359,180.0,2175,-3.14159265359,-180.0,1,12,1,0,-6.98131700798,-400.0,,825,3.14159265359,180.0,2175,-3.14159265359,-180.0
1510962731067039334,,0,12,0,1572,0.335103216383,19.2,,825,3.14159265359,180.0,2175,-3.14159265359,-180.0,1,12,1,1304,-0.912225422376,-52.2666666667,,825,3.14159265359,180.0,2175,-3.14159265359,-180.0
1510962731087623345,,0,12,0,1572,0.335103216383,19.2,,825,3.14159265359,180.0,2175,-3.14159265359,-180.0,1,12,1,1304,-0.912225422376,-52.2666666667,,825,3.14159265359,180.0,2175,-3.14159265359,-180.0
1510962731105429334,,0,12,0,1572,0.335103216383,19.2,,825,3.14159265359,180.0,2175,-3.14159265359,-180.0,1,12,1,1336,-0.763290659539,-43.7333333333,,825,3.14159265359,180.0,2175,-3.14159265359,-180.0
1510962731125139438,,0,12,0,1572,0.335103216383,19.2,,825,3.14159265359,180.0,2175,-3.14159265359,-180.0,1,12,1,1375,-0.581776417331,-33.3333333333,,825,3.14159265359,180.0,2175,-3.14159265359,-180.0
1510962731145766626,,0,12,0,1600,0.465421133865,26.6666666667,,825,3.14159265359,180.0,2175,-3.14159265359,-180.0,1,12,1,1375,-0.581776417331,-33.3333333333,,825,3.14159265359,180.0,2175,-3.14159265359,-180.0
1510962731166661470,,0,12,0,1600,0.465421133865,26.6666666667,,825,3.14159265359,180.0,2175,-3.14159265359,-180.0,1,12,1,1375,-0.581776417331,-33.3333333333,,825,3.14159265359,180.0,2175,-3.14159265359,-180.0
1510962731185033240,,0,12,0,1600,0.465421133865,26.6666666667,,825,3.14159265359,180.0,2175,-3.14159265359,-180.0,1,12,1,1381,-0.5538511493,-31.7333333333,,825,3.14159265359,180.0,2175,-3.14159265359,-180.0
1510962731204977407,,0,12,0,1600,0.465421133865,26.6666666667,,825,3.14159265359,180.0,2175,-3.14159265359,-180.0,1,12,1,1381,-0.5538511493,-31.7333333333,,825,3.14159265359,180.0,2175,-3.14159265359,-180.0
1510962731225030897,,0,12,0,1600,0.465421133865,26.6666666667,,825,3.14159265359,180.0,2175,-3.14159265359,-180.0,1,12,1,1381,-0.5538511493,-31.7333333333,,825,3.14159265359,180.0,2175,-3.14159265359,-180.0
1510962731245103136,,0,12,0,1602,0.474729556542,27.2,,825,3.14159265359,180.0,2175,-3.14159265359,-180.0,1,12,1,1381,-0.5538511493,-31.7333333333,,825,3.14159265359,180.0,2175,-3.14159265359,-180.0
1510962731265068449,,0,12,0,1602,0.474729556542,27.2,,825,3.14159265359,180.0,2175,-3.14159265359,-180.0,1,12,1,1381,-0.5538511493,-31.7333333333,,825,3.14159265359,180.0,2175,-3.14159265359,-180.0
1510962731285502876,,0,12,0,1602,0.474729556542,27.2,,825,3.14159265359,180.0,2175,-3.14159265359,-180.0,1,12,1,1381,-0.5538511493,-31.7333333333,,825,3.14159265359,180.0,2175,-3.14159265359,-180.0
1510962731305444386,,0,12,0,1602,0.474729556542,27.2,,825,3.14159265359,180.0,2175,-3.14159265359,-180.0,1,12,1,1381,-0.5538511493,-31.7333333333,,825,3.14159265359,180.0,2175,-3.14159265359,-180.0
1510962731325662980,,0,12,0,1602,0.474729556542,27.2,,825,3.14159265359,180.0,2175,-3.14159265359,-180.0,1,12,1,1381,-0.5538511493,-31.7333333333,,825,3.14159265359,180.0,2175,-3.14159265359,-180.0
1510962731345896001,,0,12,0,1605,0.488692190558,28.0,,825,3.14159265359,180.0,2175,-3.14159265359,-180.0,1,12,1,1388,-0.521271669929,-29.8666666667,,825,3.14159265359,180.0,2175,-3.14159265359,-180.0
1510962731365923709,,0,12,0,1605,0.488692190558,28.0,,825,3.14159265359,180.0,2175,-3.14159265359,-180.0,1,12,1,1388,-0.521271669929,-29.8666666667,,825,3.14159265359,180.0,2175,-3.14159265359,-180.0
1510962731385396782,,0,12,0,1605,0.488692190558,28.0,,825,3.14159265359,180.0,2175,-3.14159265359,-180.0,1,12,1,1388,-0.521271669929,-29.8666666667,,825,3.14159265359,180.0,2175,-3.14159265359,-180.0
1510962731405073188,,0,12,0,1605,0.488692190558,28.0,,825,3.14159265359,180.0,2175,-3.14159265359,-180.0,1,12,1,1388,-0.521271669929,-29.8666666667,,825,3.14159265359,180.0,2175,-3.14159265359,-180.0
1510962731425133761,,0,12,0,1605,0.488692190558,28.0,,825,3.14159265359,180.0,2175,-3.14159265359,-180.0,1,12,1,1395,-0.488692190558,-28.0,,825,3.14159265359,180.0,2175,-3.14159265359,-180.0
1510962731446316678,,0,12,0,1605,0.488692190558,28.0,,825,3.14159265359,180.0,2175,-3.14159265359,-180.0,1,12,1,1395,-0.488692190558,-28.0,,825,3.14159265359,180.0,2175,-3.14159265359,-180.0
1510962731465098657,,0,12,0,1605,0.488692190558,28.0,,825,3.14159265359,180.0,2175,-3.14159265359,-180.0,1,12,1,1395,-0.488692190558,-28.0,,825,3.14159265359,180.0,2175,-3.14159265359,-180.0
1510962731485583501,,0,12,0,1605,0.488692190558,28.0,,825,3.14159265359,180.0,2175,-3.14159265359,-180.0,1,12,1,1395,-0.488692190558,-28.0,,825,3.14159265359,180.0,2175,-3.14159265359,-180.0
1510962731505221261,,0,12,0,1605,0.488692190558,28.0,,825,3.14159265359,180.0,2175,-3.14159265359,-180.0,1,12,1,1402,-0.456112711188,-26.1333333333,,825,3.14159265359,180.0,2175,-3.14159265359,-180.0
1510962731525324490,,0,12,0,1605,0.488692190558,28.0,,825,3.14159265359,180.0,2175,-3.14159265359,-180.0,1,12,1,1402,-0.456112711188,-26.1333333333,,825,3.14159265359,180.0,2175,-3.14159265359,-180.0
1510962731545389334,,0,12,0,1608,0.502654824574,28.8,,825,3.14159265359,180.0,2175,-3.14159265359,-180.0,1,12,1,1402,-0.456112711188,-26.1333333333,,825,3.14159265359,180.0,2175,-3.14159265359,-180.0
1510962731565916782,,0,12,0,1608,0.502654824574,28.8,,825,3.14159265359,180.0,2175,-3.14159265359,-180.0,1,12,1,1402,-0.456112711188,-26.1333333333,,825,3.14159265359,180.0,2175,-3.14159265359,-180.0
1510962731584967146,,0,12,0,1608,0.502654824574,28.8,,825,3.14159265359,180.0,2175,-3.14159265359,-180.0,1,12,1,1395,-0.488692190558,-28.0,,825,3.14159265359,180.0,2175,-3.14159265359,-180.0
1510962731604966626,,0,12,0,1608,0.502654824574,28.8,,825,3.14159265359,180.0,2175,-3.14159265359,-180.0,1,12,1,1395,-0.488692190558,-28.0,,825,3.14159265359,180.0,2175,-3.14159265359,-180.0
1510962731625161990,,0,12,0,1608,0.502654824574,28.8,,825,3.14159265359,180.0,2175,-3.14159265359,-180.0,1,12,1,1395,-0.488692190558,-28.0,,825,3.14159265359,180.0,2175,-3.14159265359,-180.0
1510962731645061990,,0,12,0,1611,0.51661745859,29.6,,825,3.14159265359,180.0,2175,-3.14159265359,-180.0,1,12,1,1395,-0.488692190558,-28.0,,825,3.14159265359,180.0,2175,-3.14159265359,-180.0
1510962731665307146,,0,12,0,1611,0.51661745859,29.6,,825,3.14159265359,180.0,2175,-3.14159265359,-180.0,1,12,1,1395,-0.488692190558,-28.0,,825,3.14159265359,180.0,2175,-3.14159265359,-180.0
1510962731685221574,,0,12,0,1611,0.51661745859,29.6,,825,3.14159265359,180.0,2175,-3.14159265359,-180.0,1,12,1,1395,-0.488692190558,-28.0,,825,3.14159265359,180.0,2175,-3.14159265359,-180.0
1510962731704990011,,0,12,0,1611,0.51661745859,29.6,,825,3.14159265359,180.0,2175,-3.14159265359,-180.0,1,12,1,1395,-0.488692190558,-28.0,,825,3.14159265359,180.0,2175,-3.14159265359,-180.0
1510962731724934021,,0,12,0,1611,0.51661745859,29.6,,825,3.14159265359,180.0,2175,-3.14159265359,-180.0,1,12,1,1395,-0.488692190558,-28.0,,825,3.14159265359,180.0,2175,-3.14159265359,-180.0
1510962731745860376,,0,12,0,1614,0.530580092606,30.4,,825,3.14159265359,180.0,2175,-3.14159265359,-180.0,1,12,1,1390,-0.511963247252,-29.3333333333,,825,3.14159265359,180.0,2175,-3.14159265359,-180.0
1510962731765162198,,0,12,0,1614,0.530580092606,30.4,,825,3.14159265359,180.0,2175,-3.14159265359,-180.0,1,12,1,1390,-0.511963247252,-29.3333333333,,825,3.14159265359,180.0,2175,-3.14159265359,-180.0
1510962731785055428,,0,12,0,1614,0.530580092606,30.4,,825,3.14159265359,180.0,2175,-3.14159265359,-180.0,1,12,1,1390,-0.511963247252,-29.3333333333,,825,3.14159265359,180.0,2175,-3.14159265359,-180.0
1510962731805203969,,0,12,0,1614,0.530580092606,30.4,,825,3.14159265359,180.0,2175,-3.14159265359,-180.0,1,12,1,1390,-0.511963247252,-29.3333333333,,825,3.14159265359,180.0,2175,-3.14159265359,-180.0
1510962731825060636,,0,12,0,1614,0.530580092606,30.4,,825,3.14159265359,180.0,2175,-3.14159265359,-180.0,1,12,1,1396,-0.48403797922,-27.7333333333,,825,3.14159265359,180.0,2175,-3.14159265359,-180.0
1510962731845163605,,0,12,0,1619,0.5538511493,31.7333333333,,825,3.14159265359,180.0,2175,-3.14159265359,-180.0,1,12,1,1396,-0.48403797922,-27.7333333333,,825,3.14159265359,180.0,2175,-3.14159265359,-180.0
1510962731865106834,,0,12,0,1619,0.5538511493,31.7333333333,,825,3.14159265359,180.0,2175,-3.14159265359,-180.0,1,12,1,1396,-0.48403797922,-27.7333333333,,825,3.14159265359,180.0,2175,-3.14159265359,-180.0
1510962731885197251,,0,12,0,1619,0.5538511493,31.7333333333,,825,3.14159265359,180.0,2175,-3.14159265359,-180.0,1,12,1,1396,-0.48403797922,-27.7333333333,,825,3.14159265359,180.0,2175,-3.14159265359,-180.0
1510962731905204178,,0,12,0,1619,0.5538511493,31.7333333333,,825,3.14159265359,180.0,2175,-3.14159265359,-180.0,1,12,1,1403,-0.451458499849,-25.8666666667,,825,3.14159265359,180.0,2175,-3.14159265359,-180.0
1510962731925097615,,0,12,0,1619,0.5538511493,31.7333333333,,825,3.14159265359,180.0,2175,-3.14159265359,-180.0,1,12,1,1403,-0.451458499849,-25.8666666667,,825,3.14159265359,180.0,2175,-3.14159265359,-180.0
