rosbagTimestamp,header,seq,stamp,secs,nsecs,frame_id,pose,position,x,y,z,orientation,x,y,z,w
1510962725546146940,,1,,1510962725,542318105,0,,,1932.32104492,211.053955078,1202.60974121,,-0.0180941671133,0.807541012764,0.0278739891946,-0.588874399662
1510962725562339805,,2,,1510962725,561862945,0,,,1932.22839355,210.94140625,1202.66809082,,-0.0179443508387,0.807572245598,0.0277311652899,-0.588842988014
1510962725582754649,,3,,1510962725,581974029,0,,,1932.24572754,210.984130859,1202.78259277,,-0.0178356021643,0.807517647743,0.0276329629123,-0.58892583847
1510962725601959961,,4,,1510962725,601351976,0,,,1932.39819336,211.174560547,1202.81860352,,-0.0180666148663,0.807482123375,0.0276864729822,-0.588964879513
1510962725621948815,,5,,1510962725,621356010,0,,,1932.5189209,211.341064453,1202.75219727,,-0.018325611949,0.807504653931,0.0278028734028,-0.588920533657
1510962725644579024,,6,,1510962725,642266988,0,,,1932.5246582,211.352050781,1202.7019043,,-0.0183442682028,0.807539045811,0.0279332250357,-0.588866591454
1510962725669499232,,7,,1510962725,662471055,0,,,1932.38476562,210.968261719,1202.24755859,,-0.0195049345493,0.807299077511,0.0298682078719,-0.589063286781
1510962725681863555,,8,,1510962725,681157112,0,,,1932.26220703,211.020263672,1202.57165527,,-0.0183826684952,0.807502567768,0.0282846130431,-0.588898718357
1510962725702246732,,9,,1510962725,700962066,0,,,1932.2644043,211.146240234,1202.76318359,,-0.0176594108343,0.807466685772,0.027377218008,-0.589012920856
1510962725721169336,,10,,1510962725,720550060,0,,,1932.39306641,211.290283203,1202.74060059,,-0.0176700055599,0.807447314262,0.0273965522647,-0.589038133621
1510962725741417670,,11,,1510962725,740627050,0,,,1932.55029297,211.417480469,1202.75341797,,-0.0178695619106,0.807468473911,0.0275093093514,-0.5889980793
1510962725761091211,,12,,1510962725,760270118,0,,,1932.60803223,211.453125,1202.69055176,,-0.018130749464,0.807543516159,0.0277015008032,-0.588878035545
1510962725780774545,,13,,1510962725,780046939,0,,,1932.47338867,211.282958984,1202.64196777,,-0.0180508494377,0.807550251484,0.0277043394744,-0.588871181011
1510962725802949857,,14,,1510962725,801664113,0,,,1932.29846191,211.102050781,1202.67431641,,-0.017952889204,0.807489752769,0.0277013480663,-0.588957190514
1510962725824566524,,15,,1510962725,820343017,0,,,1932.25012207,211.083984375,1202.71923828,,-0.017995968461,0.807449102402,0.0276831313968,-0.589012503624
1510962725842315274,,16,,1510962725,840346097,0,,,1932.34753418,211.183105469,1202.73303223,,-0.0179538875818,0.807473599911,0.0277144573629,-0.588978767395
1510962725859829753,,17,,1510962725,859163045,0,,,1932.47888184,211.298095703,1202.75976562,,-0.0182154625654,0.807510077953,0.0277510024607,-0.588918924332
1510962725879884284,,18,,1510962725,879105091,0,,,1932.49841309,211.283691406,1202.69812012,,-0.0184105187654,0.807541787624,0.0278742983937,-0.588863492012
1510962725899604753,,19,,1510962725,898830890,0,,,1932.44592285,211.230712891,1202.66040039,,-0.0183315724134,0.807516276836,0.0277868844569,-0.588905215263
1510962725919788972,,20,,1510962725,918603897,0,,,1932.36828613,211.134521484,1202.68835449,,-0.0179914534092,0.807499229908,0.027709402144,-0.58894276619
1510962725939889961,,21,,1510962725,938699007,0,,,1932.26574707,210.977783203,1202.7220459,,-0.0178569257259,0.807455420494,0.0275300554931,-0.589015185833
1510962725959335586,,22,,1510962725,958506107,0,,,1932.27966309,210.964111328,1202.71203613,,-0.0179513096809,0.807493329048,0.0276633538306,-0.588954150677
1510962725978514909,,23,,1510962725,977947950,0,,,1932.3873291,211.153076172,1202.71594238,,-0.0180203020573,0.807529389858,0.0277274027467,-0.588899612427
1510962725998389180,,24,,1510962725,997598886,0,,,1932.51416016,211.318847656,1202.71618652,,-0.0181508362293,0.807551860809,0.027765262872,-0.588862895966
1510962726018084805,,25,,1510962726,17431020,0,,,1932.50158691,211.314697266,1202.72460938,,-0.0182684659958,0.807526528835,0.0278686285019,-0.588889181614
1510962726037519076,,26,,1510962726,36959886,0,,,1932.40332031,211.291015625,1202.7232666,,-0.0181526094675,0.80750721693,0.0278500244021,-0.588920116425
1510962726059235638,,27,,1510962726,57276964,0,,,1932.3338623,211.21875,1202.65820312,,-0.0180824398994,0.807462334633,0.0279891118407,-0.588977217674
1510962726077334701,,28,,1510962726,76677083,0,,,1932.31481934,211.166992188,1202.74255371,,-0.0176152586937,0.807454943657,0.0274759493768,-0.589025735855
1510962726101322617,,29,,1510962726,97649097,0,,,1932.35229492,211.155761719,1202.65722656,,-0.017846390605,0.807503163815,0.0275627374649,-0.588948607445
1510962726120391836,,30,,1510962726,117369890,0,,,1932.39880371,211.251220703,1202.57470703,,-0.0183110684156,0.807632923126,0.0279723666608,-0.588737130165
1510962726139553242,,31,,1510962726,138047933,0,,,1932.58105469,211.347900391,1202.66931152,,-0.018266916275,0.807543754578,0.027950655669,-0.588861763477
1510962726159043034,,32,,1510962726,156925916,0,,,1932.56030273,211.319580078,1202.75183105,,-0.0181159377098,0.807512104511,0.0277741029859,-0.588918149471
1510962726178109440,,33,,1510962726,176537990,0,,,1932.37133789,211.158203125,1202.73474121,,-0.017824947834,0.807491123676,0.0276420339942,-0.58896201849
1510962726198333138,,34,,1510962726,197274923,0,,,1932.2421875,211.045166016,1202.71740723,,-0.0177120119333,0.807541489601,0.0275676436722,-0.588899850845
1510962726216055117,,35,,1510962726,215306043,0,,,1932.23095703,210.986572266,1202.72949219,,-0.0177440941334,0.807481169701,0.0276866555214,-0.588976204395
1510962726238249336,,36,,1510962726,235789060,0,,,1932.38305664,211.126953125,1202.72631836,,-0.0182401835918,0.807523429394,0.0279475040734,-0.588890552521
1510962726258754909,,37,,1510962726,256931066,0,,,1932.60412598,211.348876953,1202.68371582,,-0.0185513496399,0.807527184486,0.0281292423606,-0.588867068291
1510962726277084753,,38,,1510962726,275253057,0,,,1932.64575195,211.434082031,1202.68811035,,-0.0183316171169,0.807483911514,0.0280667953193,-0.588936269283
1510962726295830951,,39,,1510962726,294559001,0,,,1932.48059082,211.362304688,1202.74499512,,-0.017944201827,0.807445287704,0.0277361683547,-0.589016675949
1510962726320572773,,40,,1510962726,319731950,0,,,1932.25549316,211.167236328,1202.76330566,,-0.0175257623196,0.807382047176,0.027556411922,-0.589124560356
1510962726339886263,,41,,1510962726,335772037,0,,,1932.19421387,210.983642578,1202.74279785,,-0.0174552500248,0.807466685772,0.0274732895195,-0.589014649391
1510962726355652357,,42,,1510962726,354470014,0,,,1932.34289551,211.014160156,1202.70812988,,-0.0177733302116,0.807478427887,0.0276531912386,-0.588980555534
1510962726374171211,,43,,1510962726,373505115,0,,,1932.56005859,211.212646484,1202.68493652,,-0.0181274116039,0.807511091232,0.0279767289758,-0.588909566402
1510962726398164128,,44,,1510962726,393328905,0,,,1932.62207031,211.385498047,1202.64660645,,-0.018374055624,0.807536423206,0.0279678553343,-0.588867664337
1510962726414997513,,45,,1510962726,413937091,0,,,1932.48791504,211.400878906,1202.69445801,,-0.0181234329939,0.807457089424,0.0279331095517,-0.588985800743
1510962726434029805,,46,,1510962726,432899951,0,,,1932.2689209,211.302246094,1202.79846191,,-0.0178794264793,0.807427763939,0.0277488641441,-0.589042246342
1510962726454165586,,47,,1510962726,453016042,0,,,1932.18261719,211.080078125,1202.83410645,,-0.0177800506353,0.807447910309,0.0276521109045,-0.589022040367
1510962726473192096,,48,,1510962726,472346067,0,,,1932.33605957,211.053222656,1202.72595215,,-0.0178084671497,0.80744934082,0.0277231782675,-0.589016020298
1510962726498255950,,49,,1510962726,493634939,0,,,1932.52026367,211.186279297,1202.59729004,,-0.018115028739,0.807520508766,0.027773167938,-0.588906705379
1510962726513886315,,50,,1510962726,512617111,0,,,1932.62487793,211.300537109,1202.57617188,,-0.0184156149626,0.807495951653,0.0279840752482,-0.588921070099
1510962726535546940,,51,,1510962726,532202005,0,,,1932.52490234,211.3203125,1202.67321777,,-0.0182515829802,0.807518720627,0.0279389061034,-0.588897109032
1510962726553836003,,52,,1510962726,552226066,0,,,1932.33862305,211.208251953,1202.85534668,,-0.0176005512476,0.807420372963,0.0277089811862,-0.589062511921
1510962726572644596,,53,,1510962726,571671009,0,,,1932.1673584,210.942626953,1202.89318848,,-0.0174969881773,0.807419657707,0.0274836905301,-0.589077293873
1510962726592388398,,54,,1510962726,591485977,0,,,1932.18322754,210.9140625,1202.78051758,,-0.0178480446339,0.807427585125,0.0276441238821,-0.589048326015
1510962726618895378,,55,,1510962726,617765903,0,,,1932.42590332,211.212402344,1202.61560059,,-0.0181563347578,0.807436645031,0.0279305055737,-0.589013040066
1510962726631639857,,56,,1510962726,630841970,0,,,1932.67687988,211.446777344,1202.47973633,,-0.0188179165125,0.807462573051,0.0286970809102,-0.588919758797
1510962726652041419,,57,,1510962726,651026010,0,,,1932.7130127,211.591796875,1202.78674316,,-0.0185281783342,0.80746036768,0.0281476005912,-0.588958621025
1510962726671006836,,58,,1510962726,670331001,0,,,1932.46594238,211.40234375,1202.8536377,,-0.0180885642767,0.807369232178,0.0277148894966,-0.589117586613
1510962726691326419,,59,,1510962726,690614938,0,,,1932.23852539,211.1953125,1202.7701416,,-0.0175949633121,0.807364344597,0.0274332650006,-0.58915245533
1510962726710905794,,60,,1510962726,710196018,0,,,1932.18688965,211.023925781,1202.6159668,,-0.0173702538013,0.807394385338,0.0273657031357,-0.589120984077
1510962726732046107,,61,,1510962726,731157064,0,,,1932.36462402,211.036621094,1202.53356934,,-0.0175941437483,0.807465434074,0.0274992883205,-0.589010953903
1510962726750732252,,62,,1510962726,750056982,0,,,1932.54675293,211.234863281,1202.58422852,,-0.0180890709162,0.807471573353,0.0278161913157,-0.588972508907
1510962726770153919,,63,,1510962726,769548892,0,,,1932.59375,211.375976562,1202.77893066,,-0.0184065103531,0.807510375977,0.028150036931,-0.588893711567
1510962726793204961,,64,,1510962726,790566921,0,,,1932.52355957,211.381347656,1202.87475586,,-0.0183713436127,0.807477712631,0.0280373878777,-0.588944911957
1510962726809922148,,65,,1510962726,809273004,0,,,1932.28710938,211.156494141,1202.81201172,,-0.0180547535419,0.807468414307,0.0278612561524,-0.588975846767
1510962726829529127,,66,,1510962726,828815937,0,,,1932.14160156,210.913574219,1202.71459961,,-0.0178085118532,0.807448089123,0.0277015939355,-0.589018642902
1510962726850194180,,67,,1510962726,849128961,0,,,1932.22619629,210.827392578,1202.67553711,,-0.0179826766253,0.807402610779,0.0277759730816,-0.589072227478
1510962726871532409,,68,,1510962726,870645999,0,,,1932.42822266,210.993896484,1202.6776123,,-0.0183503180742,0.807489275932,0.0279984362423,-0.588931560516
1510962726888767617,,69,,1510962726,888102054,0,,,1932.60888672,211.356201172,1202.67053223,,-0.0184995830059,0.807484924793,0.0280325263739,-0.588931202888
1510962726910061679,,70,,1510962726,909260988,0,,,1932.63317871,211.55859375,1202.74768066,,-0.0180250704288,0.807432174683,0.0279497951269,-0.589022278786
1510962726928831315,,71,,1510962726,928112030,0,,,1932.40112305,211.443359375,1202.79040527,,-0.0178196877241,0.807545423508,0.0274758785963,-0.588895440102
1510962726948770013,,72,,1510962726,947880983,0,,,1932.21081543,210.980712891,1202.71252441,,-0.0176817327738,0.807454168797,0.0276938453317,-0.589014530182
1510962726968706836,,73,,1510962726,967866897,0,,,1932.19848633,210.832275391,1202.61584473,,-0.0175707787275,0.807504594326,0.0278477072716,-0.588941454887
1510962726992951211,,74,,1510962726,991883039,0,,,1932.40234375,211.108642578,1202.60437012,,-0.017944470048,0.807555496693,0.0280736498535,-0.588849663734
1510962727009753034,,75,,1510962727,8975028,0,,,1932.6550293,211.547119141,1202.72497559,,-0.0180250108242,0.807565927505,0.0279806479812,-0.588837385178
1510962727027524752,,76,,1510962727,26902914,0,,,1932.71130371,211.727050781,1202.85046387,,-0.0181027203798,0.807527720928,0.027971893549,-0.588887751102
1510962727047802044,,77,,1510962727,46895027,0,,,1932.55432129,211.528564453,1202.86633301,,-0.0179359614849,0.807425677776,0.0279391258955,-0.589034259319
1510962727067244232,,78,,1510962727,66399097,0,,,1932.23571777,211.109375,1202.71728516,,-0.0178367495537,0.807441651821,0.0277312062681,-0.589025378227
1510962727086932929,,79,,1510962727,86250066,0,,,1932.10668945,210.916992188,1202.50598145,,-0.0177491307259,0.807456970215,0.0278067402542,-0.589003324509
1510962727107648659,,80,,1510962727,106645107,0,,,1932.2208252,210.990966797,1202.53674316,,-0.0178935080767,0.807564020157,0.0279398746789,-0.588845849037
1510962727127245065,,81,,1510962727,126307010,0,,,1932.48596191,211.239990234,1202.70227051,,-0.0183233916759,0.807543158531,0.0281172469258,-0.588852822781
1510962727146939075,,82,,1510962727,146009922,0,,,1932.67553711,211.518798828,1202.88391113,,-0.0184581279755,0.807457864285,0.0280337929726,-0.588969647884
1510962727171208502,,83,,1510962727,170445919,0,,,1932.52185059,211.429443359,1202.91052246,,-0.0184387117624,0.807485282421,0.028138641268,-0.588927567005
1510962727188605846,,84,,1510962727,186933994,0,,,1932.2689209,211.117675781,1202.76220703,,-0.0180255919695,0.807491719723,0.0278378762305,-0.588945746422
1510962727206250065,,85,,1510962727,205430984,0,,,1932.07128906,210.7890625,1202.59460449,,-0.017839089036,0.80749630928,0.0280837342143,-0.588933706284
1510962727227901367,,86,,1510962727,226667881,0,,,1932.14880371,210.847167969,1202.69030762,,-0.0179009288549,0.807539045811,0.0280288867652,-0.588875830173
1510962727249304179,,87,,1510962727,247708082,0,,,1932.40197754,211.177490234,1202.7713623,,-0.0179499536753,0.807507395744,0.0280371531844,-0.588917195797
1510962727266849492,,88,,1510962727,265438079,0,,,1932.61853027,211.514404297,1202.80981445,,-0.0181698948145,0.807452082634,0.0281039178371,-0.588983058929
1510962727285631992,,89,,1510962727,284599065,0,,,1932.70349121,211.7734375,1202.8104248,,-0.0181939154863,0.807415664196,0.0280384793878,-0.589035391808
1510962727304971627,,90,,1510962727,303868055,0,,,1932.50134277,211.588623047,1202.7833252,,-0.0177667886019,0.807466745377,0.0278466157615,-0.588987588882
1510962727324757096,,91,,1510962727,323999881,0,,,1932.30310059,211.207519531,1202.65441895,,-0.0177087783813,0.807496249676,0.0278708301485,-0.58894765377
1510962727347083606,,92,,1510962727,343700885,0,,,1932.20275879,210.98828125,1202.61682129,,-0.0176996588707,0.807509362698,0.027882270515,-0.588929414749
1510962727370865013,,93,,1510962727,367023944,0,,,1932.31994629,211.102539062,1202.62097168,,-0.017777711153,0.807512223721,0.0279812663794,-0.588918507099
1510962727383601263,,94,,1510962727,382817983,0,,,1932.53869629,211.447265625,1202.75231934,,-0.0178925246,0.80745857954,0.0279582068324,-0.588989675045
1510962727406483867,,95,,1510962727,405855894,0,,,1932.64562988,211.574707031,1202.63134766,,-0.0182194858789,0.807260990143,0.0285498313606,-0.589221954346
1510962727427601158,,96,,1510962727,426350116,0,,,1932.54260254,211.431396484,1202.79797363,,-0.0183162987232,0.807508230209,0.0282437950373,-0.588894724846
1510962727443059179,,97,,1510962727,442163944,0,,,1932.32751465,211.090087891,1202.74304199,,-0.0181512981653,0.807502508163,0.0280580967665,-0.58891671896
1510962727462965013,,98,,1510962727,462117910,0,,,1932.13781738,210.842041016,1202.61120605,,-0.0179609060287,0.807508707047,0.0281063579023,-0.588911771774
1510962727495772565,,99,,1510962727,495269060,0,,,1932.11914062,210.86328125,1202.65075684,,-0.0180770456791,0.807472705841,0.0281325764954,-0.588956356049
1510962727509253190,,100,,1510962727,507889986,0,,,1932.32922363,211.106933594,1202.78295898,,-0.0182328373194,0.807477653027,0.0281249210238,-0.588945090771
1510962727521999752,,101,,1510962727,521373033,0,,,1932.56311035,211.38671875,1202.86572266,,-0.0184905529022,0.807499170303,0.028273448348,-0.588900446892
1510962727542217513,,102,,1510962727,541590929,0,,,1932.60888672,211.407470703,1202.81848145,,-0.0181538462639,0.807504713535,0.0281695239246,-0.588908195496
1510962727570114179,,103,,1510962727,561552047,0,,,1932.45703125,211.200195312,1202.71313477,,-0.0180658251047,0.807501077652,0.0279698297381,-0.588925659657
1510962727581535742,,104,,1510962727,580811977,0,,,1932.25793457,210.983642578,1202.62219238,,-0.0177383124828,0.807505905628,0.028041921556,-0.588925421238
1510962727602535169,,105,,1510962727,600720882,0,,,1932.14978027,210.963623047,1202.66894531,,-0.01750010252,0.807527542114,0.0279979147017,-0.58890491724
1510962727620989960,,106,,1510962727,620328903,0,,,1932.28186035,211.17578125,1202.74743652,,-0.017819866538,0.807559013367,0.0281192138791,-0.588846504688
1510962727640876835,,107,,1510962727,640270948,0,,,1932.6159668,211.511230469,1202.64477539,,-0.0182545483112,0.807351410389,0.0287060812116,-0.589089512825
1510962727660736210,,108,,1510962727,660024881,0,,,1932.70874023,211.718261719,1202.77746582,,-0.0182662904263,0.807536005974,0.0284037142992,-0.588850617409
1510962727680898815,,109,,1510962727,680140018,0,,,1932.59924316,211.585449219,1202.65905762,,-0.0181685239077,0.807551860809,0.028178602457,-0.588842749596
1510962727699846367,,110,,1510962727,699346065,0,,,1932.38293457,211.219970703,1202.57080078,,-0.0177294462919,0.807524800301,0.0280300192535,-0.588900446892
1510962727719612565,,111,,1510962727,719127893,0,,,1932.22839355,210.960205078,1202.60205078,,-0.0177124738693,0.807538747787,0.02796170488,-0.588884949684
1510962727741911992,,112,,1510962727,740552902,0,,,1932.21264648,210.964355469,1202.69958496,,-0.0177317559719,0.807532846928,0.0280478745699,-0.588888347149
1510962727761015690,,113,,1510962727,759706020,0,,,1932.31530762,211.137451172,1202.78894043,,-0.0182028263807,0.807521879673,0.0282230786979,-0.58888065815
1510962727779529023,,114,,1510962727,778867006,0,,,1932.52722168,211.318847656,1202.79504395,,-0.0184681415558,0.807510375977,0.0282373651862,-0.588887631893
1510962727799452773,,115,,1510962727,798644065,0,,,1932.49523926,211.155273438,1202.58190918,,-0.0189012438059,0.807467877865,0.0291069857776,-0.588889718056
1510962727819076835,,116,,1510962727,818465948,0,,,1932.34924316,210.959960938,1202.73205566,,-0.0183379948139,0.807570457458,0.028272613883,-0.588807523251
1510962727839093710,,117,,1510962727,838288068,0,,,1932.16601562,210.732666016,1202.71704102,,-0.0180421322584,0.80752325058,0.0281252302229,-0.588888347149
1510962727858418033,,118,,1510962727,857950925,0,,,1932.10876465,210.748291016,1202.75549316,,-0.0180666595697,0.807525634766,0.0281697921455,-0.58888220787
1510962727878272981,,119,,1510962727,877780914,0,,,1932.30163574,211.078857422,1202.82458496,,-0.0182743519545,0.80750310421,0.0281856171787,-0.588905930519
1510962727898689908,,120,,1510962727,897897958,0,,,1932.54406738,211.428466797,1202.82775879,,-0.0182413458824,0.80752068758,0.0283235907555,-0.588876366615
1510962727918280742,,121,,1510962727,917536020,0,,,1932.62438965,211.506591797,1202.73840332,,-0.0184885114431,0.807512879372,0.0283063575625,-0.588880062103
1510962727938475637,,122,,1510962727,937433004,0,,,1932.47180176,211.286132812,1202.61877441,,-0.0180535912514,0.807582914829,0.0281399227679,-0.588805437088
1510962727958192356,,123,,1510962727,957269906,0,,,1932.32592773,211.065917969,1202.57849121,,-0.0176231265068,0.807538628578,0.0278879776597,-0.588891386986
1510962727978184544,,124,,1510962727,977391958,0,,,1932.25744629,211.030029297,1202.67810059,,-0.0173897147179,0.807504534721,0.0278448909521,-0.588947057724
1510962727997529960,,125,,1510962727,996912002,0,,,1932.32958984,211.184082031,1202.76550293,,-0.0175177156925,0.807499706745,0.0278130620718,-0.588951349258
1510962728017844335,,126,,1510962728,16863107,0,,,1932.50146484,211.423339844,1202.70019531,,-0.0183123201132,0.807536303997,0.0285710655153,-0.588840842247
1510962728036670377,,127,,1510962728,35922050,0,,,1932.57556152,211.594970703,1202.77514648,,-0.0183299481869,0.807586729527,0.028409011662,-0.588778793812
1510962728057284804,,128,,1510962728,56348085,0,,,1932.53088379,211.440185547,1202.61901855,,-0.0186100155115,0.807582139969,0.0285988114774,-0.588767170906
1510962728076192564,,129,,1510962728,75566053,0,,,1932.4029541,211.177978516,1202.65759277,,-0.0182122886181,0.807527959347,0.0282660834491,-0.588869869709
1510962728096832617,,130,,1510962728,96020936,0,,,1932.24499512,210.947509766,1202.69348145,,-0.017953440547,0.807504415512,0.0281983278692,-0.588913500309
1510962728116194804,,131,,1510962728,115454912,0,,,1932.16040039,210.773925781,1202.51452637,,-0.0186001062393,0.807284414768,0.0290618948638,-0.589153051376
1510962728147539908,,132,,1510962728,146210908,0,,,1932.2545166,211.020019531,1202.81872559,,-0.0182837992907,0.807490825653,0.0281946286559,-0.588922202587
1510962728158305533,,133,,1510962728,155854940,0,,,1932.43579102,211.147949219,1202.71765137,,-0.018720433116,0.807513773441,0.0286536291242,-0.588854789734
1510962728175314804,,134,,1510962728,174642086,0,,,1932.45007324,211.183105469,1202.75463867,,-0.0184874385595,0.807540297508,0.0282423719764,-0.588845610619
1510962728198982564,,135,,1510962728,194694042,0,,,1932.34362793,210.999511719,1202.73461914,,-0.0184487402439,0.807514548302,0.0282562859356,-0.588881552219
1510962728215817512,,136,,1510962728,214747905,0,,,1932.28039551,210.934570312,1202.79992676,,-0.0183091014624,0.807452082634,0.0282327346504,-0.588972687721
1510962728235147148,,137,,1510962728,234483003,0,,,1932.2857666,211.026367188,1202.82214355,,-0.0181320607662,0.8073990345,0.0281958393753,-0.58905261755
1510962728255801627,,138,,1510962728,255038022,0,,,1932.28771973,211.19140625,1202.82116699,,-0.0183101296425,0.807438254356,0.0281787328422,-0.588994204998
1510962728274254856,,139,,1510962728,273524045,0,,,1932.37573242,211.3125,1202.77368164,,-0.0186751037836,0.80746781826,0.0283340476453,-0.588934779167
1510962728296814179,,140,,1510962728,293888092,0,,,1932.50183105,211.348144531,1202.71020508,,-0.0185245424509,0.807514429092,0.0282533280551,-0.588879466057
1510962728318213710,,141,,1510962728,317279100,0,,,1932.52075195,211.257324219,1202.63757324,,-0.0186060220003,0.807444632053,0.0285672321916,-0.588957428932
1510962728333856523,,142,,1510962728,332828998,0,,,1932.45251465,211.161865234,1202.70178223,,-0.0179044604301,0.807449400425,0.027946472168,-0.589002370834
1510962728353334908,,143,,1510962728,352713108,0,,,1932.38781738,211.015625,1202.74597168,,-0.017801463604,0.807439267635,0.0279151387513,-0.589020907879
1510962728373077356,,144,,1510962728,372371912,0,,,1932.31005859,211.078369141,1202.71130371,,-0.0179772228003,0.807463407516,0.0280466936529,-0.588976264
1510962728393173814,,145,,1510962728,392601013,0,,,1932.34875488,211.209228516,1202.74206543,,-0.0181377530098,0.807504177094,0.0281759239733,-0.588909268379
1510962728412241366,,146,,1510962728,411668062,0,,,1932.49987793,211.303466797,1202.7635498,,-0.0184881240129,0.807507753372,0.0282324068248,-0.588890790939
1510962728433763866,,147,,1510962728,432243108,0,,,1932.55810547,211.191162109,1202.52758789,,-0.0189759582281,0.807313919067,0.0289073251188,-0.589108228683
1510962728452622252,,148,,1510962728,451783895,0,,,1932.42834473,211.105957031,1202.71813965,,-0.0186424255371,0.807486534119,0.0284309461713,-0.588905334473
1510962728472756991,,149,,1510962728,471512079,0,,,1932.32409668,210.974121094,1202.63330078,,-0.018606543541,0.807391703129,0.0284778699279,-0.589034318924
1510962728491471679,,150,,1510962728,490844011,0,,,1932.21813965,210.884765625,1202.73022461,,-0.0183400064707,0.80756509304,0.0281710512936,-0.588819682598
1510962728512084543,,151,,1510962728,511322975,0,,,1932.23461914,210.895751953,1202.70471191,,-0.018580943346,0.807622373104,0.0283422730863,-0.588725328445
1510962728531219179,,152,,1510962728,530607938,0,,,1932.37658691,211.064208984,1202.65393066,,-0.0186541229486,0.807731568813,0.028300318867,-0.588575124741
1510962728551589231,,153,,1510962728,550772905,0,,,1932.46276855,211.191162109,1202.67797852,,-0.0186578035355,0.807665586472,0.0283725522459,-0.588662147522
1510962728571028762,,154,,1510962728,570276021,0,,,1932.4362793,211.108886719,1202.68115234,,-0.0185283869505,0.807600319386,0.0282878093421,-0.588759899139
1510962728591757148,,155,,1510962728,590342044,0,,,1932.31665039,210.953369141,1202.73205566,,-0.0184007287025,0.807566225529,0.0281310640275,-0.588818132877
1510962728611976262,,156,,1510962728,611334085,0,,,1932.26403809,210.950195312,1202.78027344,,-0.0184479951859,0.807605922222,0.0282808467746,-0.588755130768
1510962728630597095,,157,,1510962728,629959106,0,,,1932.27453613,211.107421875,1202.7791748,,-0.0184452682734,0.807646453381,0.0283707305789,-0.588695287704
1510962728650710533,,158,,1510962728,649955987,0,,,1932.20556641,211.28125,1202.63500977,,-0.018487855792,0.807721972466,0.0288783945143,-0.588565528393
1510962728670824543,,159,,1510962728,669841051,0,,,1931.92956543,211.311767578,1202.42944336,,-0.0184810310602,0.807838559151,0.0290856510401,-0.588395595551
1510962728689976158,,160,,1510962728,689316034,0,,,1931.43249512,211.231201172,1202.27026367,,-0.0184829086065,0.807878494263,0.0286861620843,-0.588360369205
1510962728710611835,,161,,1510962728,709891080,0,,,1930.86657715,211.052246094,1202.1295166,,-0.0184220671654,0.807850420475,0.0279114730656,-0.588438034058
1510962728729600012,,162,,1510962728,728980064,0,,,1930.50292969,211.023681641,1201.96472168,,-0.0184185057878,0.807852685452,0.027759745717,-0.588442087173
1510962728749607825,,163,,1510962728,748933076,0,,,1930.35131836,211.103515625,1201.79882812,,-0.0184417366982,0.807882666588,0.0278283618391,-0.588396966457
1510962728769486575,,164,,1510962728,768809080,0,,,1930.32324219,211.174316406,1201.7076416,,-0.0185468047857,0.807914376259,0.0279571637511,-0.588344216347
1510962728789139908,,165,,1510962728,788228988,0,,,1930.35168457,211.173583984,1201.8326416,,-0.0187720656395,0.8079662323,0.0284003578126,-0.588244497776
1510962728808652773,,166,,1510962728,808017015,0,,,1930.42980957,211.084960938,1201.94445801,,-0.018985375762,0.807958066463,0.0286956652999,-0.58823466301
1510962728828480325,,167,,1510962728,827825069,0,,,1930.42980957,210.982910156,1202.09094238,,-0.0187906324863,0.807955503464,0.02869040519,-0.588244438171
1510962728848439387,,168,,1510962728,847610950,0,,,1930.43554688,210.714355469,1202.05859375,,-0.0194091051817,0.807895362377,0.0294811651111,-0.588267922401
1510962728871771366,,169,,1510962728,870949983,0,,,1930.49511719,210.830322266,1202.05810547,,-0.0187262892723,0.807881295681,0.0283622741699,-0.588364362717
1510962728889506106,,170,,1510962728,888027906,0,,,1930.64221191,210.895263672,1202.02282715,,-0.0185306221247,0.807945966721,0.0284629203379,-0.588276982307
1510962728907938554,,171,,1510962728,907058954,0,,,1930.76733398,211.003662109,1202.07556152,,-0.0184350311756,0.807955384254,0.0285384654999,-0.588263392448
1510962728927463293,,172,,1510962728,926665067,0,,,1930.77209473,211.05078125,1202.12841797,,-0.0183527618647,0.807922780514,0.0284157954156,-0.588316679001
1510962728949987877,,173,,1510962728,948772907,0,,,1930.72155762,211.05078125,1202.07727051,,-0.0183617025614,0.807886779308,0.0282118208706,-0.588375627995
1510962728967187772,,174,,1510962728,966383934,0,,,1930.64099121,211.0390625,1201.9354248,,-0.0186879187822,0.807870745659,0.0284998081625,-0.588373482227
1510962728989464908,,175,,1510962728,986849069,0,,,1930.56262207,211.099609375,1201.90087891,,-0.0186004936695,0.807875156403,0.0284096449614,-0.588374614716
1510962729007037564,,176,,1510962729,6062030,0,,,1930.50061035,211.160400391,1201.92663574,,-0.0186166912317,0.807920455933,0.0285126492381,-0.588306903839
1510962729033188137,,177,,1510962729,31791925,0,,,1930.44030762,211.2109375,1202.04821777,,-0.0186737626791,0.807923316956,0.0285210125148,-0.588300704956
1510962729053220741,,178,,1510962729,52284955,0,,,1930.43286133,211.211181641,1201.98034668,,-0.0188300460577,0.807762920856,0.028521001339,-0.588515996933
1510962729068686262,,179,,1510962729,67435979,0,,,1930.41479492,211.158935547,1202.02380371,,-0.0183307677507,0.807796120644,0.0280312262475,-0.588509559631
1510962729085906835,,180,,1510962729,85303068,0,,,1930.43579102,210.968505859,1201.93432617,,-0.0182032734156,0.807712078094,0.028067547828,-0.5886272192
1510962729117189856,,181,,1510962729,115365028,0,,,1930.46594238,210.877441406,1201.92358398,,-0.0184418261051,0.807796835899,0.0282417982817,-0.588495194912
1510962729133780220,,182,,1510962729,133136034,0,,,1930.40539551,210.674072266,1201.82653809,,-0.0193157345057,0.807810842991,0.0294688045979,-0.588387668133
1510962729145581991,,183,,1510962729,144876956,0,,,1930.52563477,210.98046875,1201.85522461,,-0.0190007537603,0.807787597179,0.0290977954865,-0.588448286057
1510962729166266366,,184,,1510962729,164252042,0,,,1930.51342773,211.188720703,1202.05688477,,-0.018767118454,0.807888567448,0.028717264533,-0.588335871696
1510962729188313345,,185,,1510962729,186531066,0,,,1930.5513916,211.194580078,1202.08459473,,-0.0185827314854,0.807832241058,0.0286294706166,-0.588423371315
1510962729204550064,,186,,1510962729,203694105,0,,,1930.53564453,211.013671875,1202.0526123,,-0.0185286104679,0.807866811752,0.0285921692848,-0.588379383087
1510962729227376679,,187,,1510962729,226747989,0,,,1930.43615723,210.863525391,1201.9654541,,-0.0183091908693,0.80791002512,0.0286972485483,-0.58832192421
1510962729244087668,,188,,1510962729,243261098,0,,,1930.24523926,210.860595703,1201.92590332,,-0.0182944983244,0.807885348797,0.0286232978106,-0.588359832764
1510962729265934439,,189,,1510962729,264729022,0,,,1930.03173828,210.985107422,1201.88928223,,-0.0183462947607,0.80781596899,0.0284948423505,-0.588459789753
1510962729283630012,,190,,1510962729,282879114,0,,,1929.78869629,211.175537109,1201.83776855,,-0.0185057073832,0.807802200317,0.0282439962029,-0.588485717773
1510962729311850324,,191,,1510962729,302994966,0,,,1929.58984375,211.31640625,1201.76721191,,-0.0185239166021,0.807799577713,0.0281631536782,-0.588492631912
1510962729324053762,,192,,1510962729,322580099,0,,,1929.38330078,211.247070312,1201.59509277,,-0.0182162970304,0.807804524899,0.0284262932837,-0.588482737541
1510962729343363241,,193,,1510962729,342530965,0,,,1929.01025391,211.059570312,1201.39404297,,-0.0179168283939,0.807857334614,0.0289507769048,-0.588393807411
1510962729363134283,,194,,1510962729,362468004,0,,,1928.40454102,211.006103516,1201.19396973,,-0.0178770273924,0.807907581329,0.0291855074465,-0.588314592838
1510962729386424074,,195,,1510962729,382179975,0,,,1927.71252441,211.149658203,1201.04040527,,-0.0179712623358,0.807951450348,0.0288219451904,-0.588269352913
1510962729404322824,,196,,1510962729,402153015,0,,,1926.99731445,211.314208984,1200.86315918,,-0.0184445679188,0.807976782322,0.0283747315407,-0.588241577148
1510962729422539335,,197,,1510962729,421914100,0,,,1926.23449707,211.418701172,1200.62939453,,-0.0181709975004,0.8079687953,0.0282297581434,-0.588267982006
1510962729442663033,,198,,1510962729,441350936,0,,,1925.34753418,211.27734375,1200.27282715,,-0.0175602138042,0.808048129082,0.0291322730482,-0.588133513927
1510962729461508085,,199,,1510962729,460866928,0,,,1924.14929199,211.010009766,1199.82446289,,-0.0171548128128,0.808158516884,0.0298863053322,-0.587955951691
1510962729483175272,,200,,1510962729,482237100,0,,,1922.59680176,210.856689453,1199.31665039,,-0.0173953771591,0.808242559433,0.0297862254083,-0.58783853054
1510962729501323710,,201,,1510962729,500441074,0,,,1920.88916016,210.981933594,1198.7677002,,-0.0181749910116,0.808340549469,0.0290209650993,-0.587718486786
1510962729521072460,,202,,1510962729,520389080,0,,,1919.28161621,211.357910156,1198.2557373,,-0.0187061727047,0.808431446552,0.0284810476005,-0.587603092194
1510962729542610481,,203,,1510962729,541311979,0,,,1917.72167969,211.675048828,1197.7076416,,-0.0181451737881,0.808482766151,0.0286675207317,-0.587541103363
1510962729562596574,,204,,1510962729,561070919,0,,,1915.99914551,211.692382812,1196.94519043,,-0.0172758847475,0.808516204357,0.0292652733624,-0.587491869926
1510962729581918814,,205,,1510962729,580660104,0,,,1913.8963623,211.405273438,1195.99743652,,-0.0171035081148,0.808623313904,0.0297060124576,-0.587327301502
1510962729600505272,,206,,1510962729,599605083,0,,,1911.58984375,211.219726562,1195.16748047,,-0.0172218680382,0.808740615845,0.0290997549891,-0.587192595005
1510962729621159856,,207,,1510962729,620232105,0,,,1909.11572266,211.146240234,1194.20178223,,-0.0178516358137,0.808807849884,0.0303676836193,-0.587016999722
1510962729640001053,,208,,1510962729,639193058,0,,,1906.57629395,211.710449219,1193.55480957,,-0.0170631855726,0.809110879898,0.0292807295918,-0.586677908897
1510962729660393293,,209,,1510962729,659466028,0,,,1903.65100098,212.007324219,1192.60437012,,-0.0167750269175,0.809222579002,0.0293841958046,-0.586527049541
1510962729680550272,,210,,1510962729,679904937,0,,,1900.30517578,211.980957031,1191.43347168,,-0.0169148147106,0.809279561043,0.0293911136687,-0.586443960667
1510962729700594178,,211,,1510962729,699253082,0,,,1896.70422363,211.883789062,1190.09985352,,-0.0170970857143,0.809369981289,0.0289425551891,-0.586336314678
1510962729721283137,,212,,1510962729,720613956,0,,,1892.89050293,211.85546875,1188.6138916,,-0.0167645812035,0.80948805809,0.0287325643003,-0.586193144321
1510962729739554647,,213,,1510962729,738616943,0,,,1888.79077148,211.893554688,1187.05725098,,-0.0164707154036,0.809739053249,0.0291698276997,-0.585833251476
1510962729758547303,,214,,1510962729,757890939,0,,,1884.47753906,212.166015625,1185.40209961,,-0.0162338465452,0.809896469116,0.0294404551387,-0.58560860157
1510962729779195585,,215,,1510962729,777997016,0,,,1879.73840332,212.392089844,1183.6126709,,-0.0159889161587,0.810068070889,0.0293330438435,-0.585383415222
1510962729798383605,,216,,1510962729,797540903,0,,,1874.50476074,212.452636719,1181.64770508,,-0.0156051814556,0.81012314558,0.028633210808,-0.585352122784
1510962729818488033,,217,,1510962729,817370891,0,,,1868.78344727,212.333007812,1179.50378418,,-0.0152783691883,0.81026750803,0.02837594226,-0.585173428059
1510962729839747564,,218,,1510962729,837728977,0,,,1862.77587891,212.088623047,1177.28491211,,-0.015289530158,0.810459733009,0.028599884361,-0.584896028042
1510962729861630012,,219,,1510962729,859278917,0,,,1856.56640625,212.138671875,1174.92346191,,-0.0150997042656,0.810546219349,0.0290772989392,-0.584757506847
1510962729880079751,,220,,1510962729,878846883,0,,,1850.14367676,212.51953125,1172.46337891,,-0.0146277695894,0.81083470583,0.0287153162062,-0.584387302399
1510962729899592616,,221,,1510962729,897339105,0,,,1843.33105469,212.905517578,1170.00378418,,-0.0142969489098,0.81097728014,0.0285498984158,-0.584205627441
1510962729917463189,,222,,1510962729,916620016,0,,,1836.01208496,212.887207031,1167.53186035,,-0.0144290477037,0.811136305332,0.0286045148969,-0.583979010582
1510962729947094439,,223,,1510962729,945485115,0,,,1828.21813965,212.683349609,1164.95007324,,-0.0147111862898,0.8113489151,0.0289415717125,-0.583660006523
1510962729960586522,,224,,1510962729,956743955,0,,,1820.10632324,212.612060547,1162.1315918,,-0.0149205625057,0.811908662319,0.0286057777703,-0.582892239094
1510962729976718762,,225,,1510962729,975704908,0,,,1811.87927246,212.764892578,1159.1953125,,-0.0150526612997,0.812172889709,0.0285441353917,-0.58252376318
1510962729997442980,,226,,1510962729,995779037,0,,,1803.36694336,212.997558594,1156.14855957,,-0.0157170891762,0.812565028667,0.0287448130548,-0.581949114799
1510962730016202043,,227,,1510962730,15506982,0,,,1794.63146973,213.281005859,1153.078125,,-0.0156267732382,0.812926828861,0.0294251963496,-0.581411957741
1510962730036210012,,228,,1510962730,35471916,0,,,1785.54162598,213.477539062,1150.03234863,,-0.015107601881,0.813595831394,0.0287981294096,-0.580520629883
1510962730056915428,,229,,1510962730,55645942,0,,,1776.32531738,213.452148438,1146.69714355,,-0.01538169384,0.814115643501,0.0293705202639,-0.579755485058
1510962730075443241,,230,,1510962730,74738025,0,,,1766.7947998,213.4375,1143.03442383,,-0.0156496167183,0.814751923084,0.0296460576355,-0.5788397789
1510962730095708189,,231,,1510962730,94563961,0,,,1756.92248535,213.482177734,1139.30749512,,-0.0159580558538,0.815310776234,0.0293926559389,-0.578056931496
1510962730115305845,,232,,1510962730,114706039,0,,,1746.86474609,213.778564453,1135.53686523,,-0.0161126703024,0.815649807453,0.028698220849,-0.577608942986
1510962730134688293,,233,,1510962730,133949041,0,,,1736.5723877,213.887939453,1131.83117676,,-0.0168795734644,0.81610172987,0.0290637128055,-0.576930224895
1510962730154703085,,234,,1510962730,153915882,0,,,1726.27331543,214.051269531,1128.00280762,,-0.0164907574654,0.816432237625,0.0294436141849,-0.576454281807
1510962730174856678,,235,,1510962730,173777103,0,,,1715.62695312,214.053955078,1124.17248535,,-0.0157690644264,0.816850960255,0.0292786955833,-0.575889348984
1510962730195176887,,236,,1510962730,193304061,0,,,1704.77355957,214.016845703,1120.05041504,,-0.01539260149,0.8172057271,0.0300219804049,-0.575357794762
1510962730218877668,,237,,1510962730,213177919,0,,,1693.69299316,214.076660156,1115.78735352,,-0.0158547908068,0.817723631859,0.0306731536984,-0.57457447052
1510962730233782355,,238,,1510962730,232974052,0,,,1682.63269043,214.230224609,1111.50732422,,-0.0161863565445,0.818246245384,0.0308177806437,-0.573812961578
1510962730253861782,,239,,1510962730,252721071,0,,,1671.55871582,214.773193359,1107.49267578,,-0.0157315284014,0.818345248699,0.0292293578386,-0.573767542839
1510962730273862772,,240,,1510962730,272810935,0,,,1660.38317871,215.222167969,1103.41906738,,-0.0154617726803,0.818318843842,0.0281770564616,-0.573865175247
1510962730292810272,,241,,1510962730,292123079,0,,,1649.44799805,215.544677734,1098.99475098,,-0.0146383196115,0.818417787552,0.0284888930619,-0.573730349541
1510962730318073866,,242,,1510962730,312408924,0,,,1638.40637207,215.328857422,1094.33251953,,-0.0136383622885,0.818730115891,0.02850734815,-0.573308110237
1510962730332909543,,243,,1510962730,332179069,0,,,1627.19287109,214.839111328,1089.97387695,,-0.0128026008606,0.818867683411,0.027182828635,-0.573195397854
1510962730358014491,,244,,1510962730,354249000,0,,,1615.98498535,214.716552734,1085.58410645,,-0.0130062699318,0.819393932819,0.0267154984176,-0.572460234165
1510962730371930220,,245,,1510962730,371249914,0,,,1604.95495605,215.074707031,1081.52929688,,-0.0126223266125,0.819688737392,0.0257691852748,-0.572090029716
1510962730392123189,,246,,1510962730,391233921,0,,,1594.48596191,215.912841797,1077.4119873,,-0.011769682169,0.819652438164,0.0250591337681,-0.57219171524
1510962730411528084,,247,,1510962730,410850048,0,,,1583.89001465,216.39453125,1073.5760498,,-0.0107221007347,0.819645106792,0.0243268348277,-0.572254300117
1510962730432576418,,248,,1510962730,431322097,0,,,1573.45007324,216.573486328,1069.5814209,,-0.00950156152248,0.819070994854,0.0228764489293,-0.573157131672
1510962730451014751,,249,,1510962730,450434923,0,,,1563.1685791,216.307617188,1065.73046875,,-0.00898680090904,0.818739056587,0.0226502157748,-0.573648452759
1510962730471694803,,250,,1510962730,470504999,0,,,1553.23840332,216.137207031,1061.97753906,,-0.00805392861366,0.818307876587,0.022339489311,-0.574289441109
1510962730490505949,,251,,1510962730,489964008,0,,,1543.53479004,216.188232422,1058.67456055,,-0.00703290104866,0.817847013474,0.0223469212651,-0.574958562851
1510962730510767043,,252,,1510962730,509984970,0,,,1534.15649414,216.670898438,1055.52416992,,-0.00594906508923,0.816162407398,0.0216514840722,-0.577386081219
1510962730530201730,,253,,1510962730,529545068,0,,,1525.04455566,217.119140625,1052.74072266,,-0.00620745122433,0.814841091633,0.0210088528693,-0.579270243645
1510962730550336157,,254,,1510962730,549834012,0,,,1515.79052734,217.25,1050.4395752,,-0.00690951943398,0.813556432724,0.0210265032947,-0.581064641476
1510962730569928761,,255,,1510962730,569423913,0,,,1506.63195801,216.967285156,1048.18078613,,-0.00776335597038,0.812940597534,0.0212659239769,-0.581906497478
1510962730590155532,,256,,1510962730,589376926,0,,,1497.74230957,216.623046875,1045.81970215,,-0.00860153138638,0.812051057816,0.0228112973273,-0.583076834679
1510962730610739334,,257,,1510962730,610089063,0,,,1489.40637207,216.779541016,1043.66674805,,-0.00894610583782,0.811073362827,0.0227581635118,-0.584433197975
1510962730640035428,,258,,1510962730,638770103,0,,,1481.15930176,217.106445312,1041.38061523,,-0.00860273838043,0.81034630537,0.0224931538105,-0.585456252098
1510962730650465949,,259,,1510962730,649739980,0,,,1473.22717285,217.462890625,1039.34240723,,-0.00753951072693,0.80900478363,0.0215138681233,-0.587359786034
1510962730670062928,,260,,1510962730,668515920,0,,,1465.38171387,217.515869141,1037.38354492,,-0.0071124881506,0.807082474232,0.0204523131251,-0.590041458607
1510962730688646261,,261,,1510962730,687978029,0,,,1458.00769043,217.734375,1035.8293457,,-0.00630497932434,0.804693639278,0.0193135924637,-0.593342542648
1510962730709483605,,262,,1510962730,708700895,0,,,1450.83068848,217.765380859,1034.51513672,,-0.00531603395939,0.801631331444,0.0181368589401,-0.597519934177
1510962730728968449,,263,,1510962730,727814912,0,,,1443.76171875,217.577880859,1033.89440918,,-0.0053037405014,0.79870647192,0.0178419239819,-0.601432681084
1510962730750664126,,264,,1510962730,747629880,0,,,1437.01672363,217.595947266,1033.46472168,,-0.00613462924957,0.794668495655,0.018454760313,-0.606732010841
1510962730767701522,,265,,1510962730,767195940,0,,,1430.66174316,218.041015625,1033.87036133,,-0.00709584355354,0.791420519352,0.0190678089857,-0.610933363438
1510962730786967772,,266,,1510962730,786621093,0,,,1424.74523926,218.34375,1034.1652832,,-0.00683458149433,0.788326144218,0.0198381021619,-0.61489957571
1510962730807131366,,267,,1510962730,806651115,0,,,1418.83398438,218.117675781,1034.36254883,,-0.00703993439674,0.786354005337,0.0197981037199,-0.617418646812
1510962730828730011,,268,,1510962730,826484918,0,,,1412.95068359,217.746826172,1034.10375977,,-0.00763349235058,0.783552110195,0.020360391587,-0.620945453644
1510962730850567199,,269,,1510962730,850109100,0,,,1407.57775879,217.692382812,1033.96826172,,-0.00852744281292,0.781266212463,0.0209388881922,-0.623788297176
1510962730867529230,,270,,1510962730,866578102,0,,,1402.5670166,217.852539062,1033.41027832,,-0.00805073976517,0.778979718685,0.0212781764567,-0.626636266708
1510962730886282563,,271,,1510962730,885831117,0,,,1397.6270752,217.927246094,1033.2479248,,-0.00771698355675,0.777179062366,0.0205991752446,-0.628894984722
1510962730906056782,,272,,1510962730,905704975,0,,,1392.7623291,218.097412109,1032.76379395,,-0.00813011825085,0.773898005486,0.0197975747287,-0.632948577404
1510962730929380272,,273,,1510962730,928633928,0,,,1388.12939453,218.214355469,1032.61975098,,-0.00789205729961,0.772590339184,0.0188384279609,-0.634576201439
1510962730945790115,,274,,1510962730,945126056,0,,,1384.0045166,218.071533203,1032.26367188,,-0.00766594707966,0.770799100399,0.0190160945058,-0.636748194695
1510962730967631522,,275,,1510962730,967036962,0,,,1380.07617188,217.906738281,1032.06787109,,-0.00694026052952,0.769195020199,0.0186698324978,-0.638703584671
1510962730985456053,,276,,1510962730,984946012,0,,,1376.24951172,217.974365234,1032.12365723,,-0.00751253962517,0.766563117504,0.0184893980622,-0.641858756542
1510962731005410740,,277,,1510962731,4647970,0,,,1372.51916504,218.299316406,1032.60717773,,-0.00789867341518,0.765291810036,0.0195107981563,-0.643339216709
1510962731028181418,,278,,1510962731,24687051,0,,,1369.02075195,218.166259766,1032.68347168,,-0.0085623562336,0.764053285122,0.0199158713222,-0.644788861275
1510962731046928865,,279,,1510962731,45135021,0,,,1365.85046387,218.106201172,1032.82885742,,-0.00795018672943,0.762495815754,0.0186090357602,-0.64667648077
1510962731066270376,,280,,1510962731,63899040,0,,,1362.53674316,218.018554688,1032.92932129,,-0.00815643370152,0.761147975922,0.0186871141195,-0.648257672787
1510962731086671470,,281,,1510962731,84228992,0,,,1359.79211426,217.787353516,1032.68664551,,-0.00910139083862,0.760495662689,0.0202784873545,-0.648962438107
1510962731104257615,,282,,1510962731,103450059,0,,,1357.05529785,217.670654297,1032.48046875,,-0.00917215645313,0.759476304054,0.0198641046882,-0.650166869164
1510962731124120480,,283,,1510962731,123485088,0,,,1354.47729492,217.413574219,1032.54638672,,-0.00950147211552,0.758501946926,0.019793190062,-0.651300668716
1510962731148258553,,284,,1510962731,145037889,0,,,1351.8894043,217.451660156,1032.4309082,,-0.00914092361927,0.757832765579,0.0199999958277,-0.652078151703
1510962731171504386,,285,,1510962731,165446996,0,,,1349.06738281,217.647949219,1031.9251709,,-0.0090497136116,0.75800049305,0.0216653458774,-0.65183120966
1510962731183284438,,286,,1510962731,182678937,0,,,1345.88977051,217.438964844,1031.15649414,,-0.00856260955334,0.758337795734,0.0217914134264,-0.651441276073
1510962731203422042,,287,,1510962731,202518939,0,,,1342.35595703,217.035400391,1030.67614746,,-0.0100426226854,0.75935280323,0.021298725158,-0.650252878666
1510962731223034959,,288,,1510962731,222330093,0,,,1338.57373047,216.880859375,1030.01586914,,-0.0111122131348,0.759899675846,0.0207061059773,-0.64961540699
1510962731243075949,,289,,1510962731,242228031,0,,,1334.99182129,217.129150391,1029.20544434,,-0.0104101151228,0.760330319405,0.0210967548192,-0.64911043644
1510962731262567094,,290,,1510962731,261908054,0,,,1330.60900879,217.562988281,1028.31091309,,-0.00944939255714,0.7600248456,0.0212367326021,-0.649478197098
1510962731282352615,,291,,1510962731,281661033,0,,,1325.99060059,217.524414062,1028.06713867,,-0.00960202515125,0.759162187576,0.0213708244264,-0.650479674339
1510962731302033397,,292,,1510962731,301400899,0,,,1320.80847168,217.401611328,1027.67895508,,-0.01051838696,0.758737206459,0.0207670293748,-0.650980889797
1510962731322062980,,293,,1510962731,321238040,0,,,1315.19787598,217.236328125,1026.83398438,,-0.0112158060074,0.757863163948,0.0209691412747,-0.651979982853
1510962731342871678,,294,,1510962731,341691970,0,,,1309.51635742,217.175537109,1026.22094727,,-0.0109032541513,0.757145643234,0.0216832235456,-0.652795016766
1510962731362368188,,295,,1510962731,361097097,0,,,1303.52770996,217.217285156,1025.92456055,,-0.0105586349964,0.756847918034,0.0220243260264,-0.653134465218
1510962731381450428,,296,,1510962731,380774974,0,,,1296.8782959,217.360839844,1025.25646973,,-0.0114731490612,0.756195545197,0.0221510529518,-0.653869926929
1510962731401504230,,297,,1510962731,400648117,0,,,1290.05847168,217.430419922,1024.82861328,,-0.0117461979389,0.75549697876,0.0220288150012,-0.654676198959
1510962731421371313,,298,,1510962731,420694112,0,,,1282.80725098,217.301757812,1024.13635254,,-0.011471927166,0.754896879196,0.022316288203,-0.655363321304
1510962731441512511,,299,,1510962731,440728902,0,,,1275.28747559,217.173828125,1023.32470703,,-0.0106135457754,0.754621565342,0.022377230227,-0.655692636967
1510962731460998292,,300,,1510962731,460011959,0,,,1267.28918457,217.157714844,1022.24859619,,-0.010167196393,0.753350436687,0.0225325636566,-0.65715444088
1510962731482953240,,301,,1510962731,481198072,0,,,1259.25561523,217.109130859,1021.46435547,,-0.0110360383987,0.752206921577,0.0225991718471,-0.658446907997
1510962731501074230,,302,,1510962731,499919891,0,,,1250.68115234,217.271972656,1020.43170166,,-0.00991177558899,0.751472175121,0.0221870280802,-0.659317135811
1510962731521965271,,303,,1510962731,520905971,0,,,1241.9206543,217.311523438,1019.46929932,,-0.00960725545883,0.751295268536,0.0216992646456,-0.659539401531
1510962731542319021,,304,,1510962731,539722919,0,,,1232.68566895,217.592285156,1018.37115479,,-0.0090918391943,0.750083565712,0.0211254246533,-0.660942971706
1510962731561378188,,305,,1510962731,560225963,0,,,1223.61999512,217.655029297,1017.47357178,,-0.0100308507681,0.74871301651,0.021534267813,-0.662468552589
1510962731581429230,,306,,1510962731,580873012,0,,,1213.84008789,217.975341797,1016.07415771,,-0.00947922468185,0.748346984386,0.0200019553304,-0.662937998772
1510962731599805949,,307,,1510962731,598939895,0,,,1204.10583496,217.867675781,1015.35388184,,-0.0100315064192,0.747669577599,0.0209024511278,-0.663666129112
1510962731619209386,,308,,1510962731,618468046,0,,,1193.9029541,217.772216797,1014.71539307,,-0.0108872056007,0.746396660805,0.0213315971196,-0.665070235729
1510962731638982563,,309,,1510962731,638189077,0,,,1184.03613281,218.008789062,1014.699646,,-0.0109060555696,0.745410680771,0.0211285576224,-0.666181325912
1510962731659546678,,310,,1510962731,658380985,0,,,1172.81188965,218.276123047,1013.6595459,,-0.0106758624315,0.744527220726,0.0214769951999,-0.667161226273
1510962731678535532,,311,,1510962731,677839994,0,,,1161.17565918,218.298339844,1013.19256592,,-0.0103911608458,0.744128227234,0.0209747515619,-0.667626440525
1510962731698353917,,312,,1510962731,697654008,0,,,1149.52416992,217.927001953,1012.56976318,,-0.0124002844095,0.742456257343,0.0214177034795,-0.669437170029
1510962731718507667,,313,,1510962731,717659950,0,,,1137.5838623,218.023193359,1012.11553955,,-0.0123856961727,0.74187874794,0.0215125009418,-0.670074462891
1510962731739050480,,314,,1510962731,737862110,0,,,1125.5291748,218.280029297,1010.98510742,,-0.0116822421551,0.740919113159,0.0219394341111,-0.671134114265
1510962731757933396,,315,,1510962731,757024049,0,,,1113.23901367,218.383789062,1010.73339844,,-0.0106679648161,0.74090307951,0.0229936689138,-0.671133458614
1510962731779746834,,316,,1510962731,778269052,0,,,1100.79345703,218.309814453,1010.54278564,,-0.0102170407772,0.738974332809,0.0251444615424,-0.673186779022
1510962731797274021,,317,,1510962731,796569108,0,,,1088.03356934,218.501953125,1010.11694336,,-0.0101743936539,0.737421035767,0.0252853631973,-0.674883246422
1510962731817771678,,318,,1510962731,816800117,0,,,1074.27954102,218.529541016,1008.67791748,,-0.00998929142952,0.736552417278,0.0243764966726,-0.675867259502
1510962731837014334,,319,,1510962731,836205959,0,,,1060.5880127,218.163574219,1007.99090576,,-0.0102406591177,0.735553622246,0.0242518931627,-0.676954865456
1510962731857985532,,320,,1510962731,856036901,0,,,1046.54187012,218.064453125,1007.29095459,,-0.00931532680988,0.734191179276,0.0236985385418,-0.67846506834
1510962731876170688,,321,,1510962731,875540018,0,,,1032.04748535,218.018310547,1006.30108643,,-0.00949740409851,0.732848167419,0.0248299092054,-0.679872632027
1510962731897353084,,322,,1510962731,895853042,0,,,1017.04272461,218.172363281,1005.1987915,,-0.00833611190319,0.732291340828,0.023616258055,-0.68053072691
1510962731915886053,,323,,1510962731,915116071,0,,,1002.21655273,217.899902344,1004.82092285,,-0.00836108624935,0.731404483318,0.0244898125529,-0.681452691555
1510962731936069021,,324,,1510962731,935333013,0,,,986.780395508,218.03125,1003.96826172,,-0.00787153840065,0.729438126087,0.0243876054883,-0.683566510677
1510962731955455323,,325,,1510962731,954746961,0,,,970.953857422,218.00390625,1003.13336182,,-0.00917820632458,0.727839529514,0.0256331786513,-0.685206651688
1510962731974750219,,326,,1510962731,974267959,0,,,954.701904297,218.098876953,1002.65563965,,-0.00808277726173,0.726810872555,0.0253963246942,-0.686320304871
1510962731994439438,,327,,1510962731,993913888,0,,,938.376464844,218.058349609,1002.74542236,,-0.00568810105324,0.726813137531,0.0251354575157,-0.686351656914
1510962732014718657,,328,,1510962732,14221906,0,,,921.803466797,218.147216797,1002.40917969,,-0.00613179802895,0.724004566669,0.0268992558122,-0.689243197441
1510962732034103917,,329,,1510962732,33571004,0,,,904.137512207,218.812255859,1001.64239502,,-0.00504016876221,0.722846448421,0.0261418521404,-0.690495669842
1510962732053804073,,330,,1510962732,53308010,0,,,886.561157227,218.882080078,1001.28149414,,-0.00672429800034,0.720564246178,0.0262863636017,-0.692857027054
1510962732073441469,,331,,1510962732,73036909,0,,,868.377685547,218.814941406,1001.38848877,,-0.00658942759037,0.720035612583,0.0248360931873,-0.693461239338
1510962732093410011,,332,,1510962732,92926025,0,,,849.714111328,218.568115234,1000.83544922,,-0.0081584751606,0.717787861824,0.0252670422196,-0.695755302906
1510962732113069542,,333,,1510962732,112585067,0,,,830.934570312,218.66796875,1000.97723389,,-0.00910145044327,0.716282725334,0.0261074006557,-0.697262167931
1510962732133388084,,334,,1510962732,132715940,0,,,812.415771484,218.700195312,1001.80187988,,-0.0079914778471,0.715038776398,0.0257399752736,-0.698565006256
1510962732154140271,,335,,1510962732,152888059,0,,,793.313415527,218.596191406,1002.58935547,,-0.00783936679363,0.713884234428,0.0272365957499,-0.699689865112
1510962732172963761,,336,,1510962732,172219038,0,,,773.827636719,218.775146484,1003.00701904,,-0.00857193768024,0.710905909538,0.0287874341011,-0.702645301819
1510962732197878605,,337,,1510962732,196891069,0,,,753.762634277,219.164550781,1003.32159424,,-0.00950899720192,0.709493339062,0.0304642543197,-0.703989088535
1510962732212605271,,338,,1510962732,211903095,0,,,733.578491211,219.558105469,1003.82525635,,-0.00822922587395,0.706943571568,0.0281255766749,-0.706662595272
1510962732232756105,,339,,1510962732,231842041,0,,,712.754516602,219.284667969,1004.43170166,,-0.00911450386047,0.704744100571,0.0269602909684,-0.70889043808
1510962732252201417,,340,,1510962732,251471996,0,,,691.490844727,218.931396484,1005.23712158,,-0.00818546116352,0.70274913311,0.023111552,-0.711014986038
1510962732272161000,,341,,1510962732,271327018,0,,,670.272094727,218.861328125,1005.61486816,,-0.00820769369602,0.700762450695,0.0219457000494,-0.71300971508
1510962732291603344,,342,,1510962732,290999889,0,,,649.589416504,219.476074219,1006.05487061,,-0.004942715168,0.700277090073,0.0200708732009,-0.71357178688
1510962732311373396,,343,,1510962732,310728073,0,,,628.172607422,220.154296875,1006.21875,,-0.00345554947853,0.697909116745,0.0186017453671,-0.715936303139
1510962732332409386,,344,,1510962732,331161022,0,,,606.639282227,220.033203125,1007.3739624,,-0.00490671396255,0.694833040237,0.0219698101282,-0.718818664551
1510962732354469854,,345,,1510962732,353009939,0,,,584.42175293,220.162353516,1009.11779785,,-0.00588242709637,0.692977786064,0.0217945426702,-0.720605552197
1510962732371428604,,346,,1510962732,370553970,0,,,562.015991211,220.187011719,1010.63397217,,-0.00900824368,0.689446270466,0.0219480544329,-0.723948180676
1510962732390874021,,347,,1510962732,390053033,0,,,539.154174805,220.609619141,1012.9274292,,-0.00865477323532,0.688694596291,0.017149373889,-0.724797010422
1510962732411001886,,348,,1510962732,410262107,0,,,516.374755859,220.375732422,1015.20379639,,-0.0128266513348,0.686675310135,0.0216059237719,-0.726529896259
1510962732431567302,,349,,1510962732,430439949,0,,,493.675262451,220.517578125,1017.35418701,,-0.0146042555571,0.68558037281,0.0215826481581,-0.727530360222
1510962732451070219,,350,,1510962732,450112104,0,,,471.941253662,220.069580078,1018.79516602,,-0.0159867852926,0.684320569038,0.0226272121072,-0.728654742241
1510962732470729698,,351,,1510962732,469943046,0,,,450.418731689,219.426269531,1020.784729,,-0.0150809288025,0.684802830219,0.0238819718361,-0.728180885315
1510962732489928292,,352,,1510962732,489165067,0,,,429.360076904,219.658447266,1022.00378418,,-0.0129573196173,0.6847397089,0.0243413820863,-0.728265762329
1510962732509894594,,353,,1510962732,509130954,0,,,408.885375977,219.887695312,1023.37811279,,-0.0131025761366,0.683366000652,0.0252146497369,-0.729522705078
1510962732536344177,,354,,1510962732,535619974,0,,,388.479675293,219.943847656,1023.63989258,,-0.0123759061098,0.682584345341,0.0232969224453,-0.730330407619
1510962732549584594,,355,,1510962732,548742055,0,,,367.305419922,219.586669922,1024.95715332,,-0.0141469836235,0.682786405087,0.0230362415314,-0.730117797852
1510962732569110115,,356,,1510962732,568422079,0,,,346.392578125,219.692138672,1026.10986328,,-0.0150825977325,0.683130145073,0.0228110253811,-0.729784429073
1510962732589665167,,357,,1510962732,588536024,0,,,326.038238525,219.812255859,1027.1307373,,-0.0172857195139,0.684540629387,0.0254477411509,-0.728325366974
1510962732609169021,,358,,1510962732,608220100,0,,,306.810699463,220.356933594,1027.27246094,,-0.0167170017958,0.686394155025,0.0266041308641,-0.726550579071
1510962732630062875,,359,,1510962732,628540039,0,,,287.178955078,220.390380859,1027.47546387,,-0.0163917988539,0.690306544304,0.0287530273199,-0.722759604454
1510962732659882667,,360,,1510962732,657728910,0,,,269.307983398,219.590576172,1027.32434082,,-0.0199016183615,0.694311916828,0.031786032021,-0.718696296215
1510962732671141781,,361,,1510962732,670463085,0,,,250.411895752,219.469482422,1025.67102051,,-0.0213935226202,0.700608432293,0.0316274687648,-0.712523460388
1510962732687803136,,362,,1510962732,686966896,0,,,232.094573975,219.855224609,1022.98309326,,-0.0215447247028,0.70757329464,0.030594818294,-0.705648481846
1510962732712380688,,363,,1510962732,708575963,0,,,214.08215332,220.327392578,1020.26281738,,-0.0220914185047,0.716098129749,0.0298254489899,-0.697012007236
1510962732727697875,,364,,1510962732,726644039,0,,,196.96081543,220.399902344,1017.16986084,,-0.0230933427811,0.723766088486,0.0309608504176,-0.688963592052
1510962732751039177,,365,,1510962732,747411012,0,,,179.355895996,220.266845703,1013.2310791,,-0.0214846134186,0.732768297195,0.0280354432762,-0.679560899734
1510962732771363917,,366,,1510962732,770598888,0,,,163.415283203,220.230712891,1008.37341309,,-0.02116933465,0.741035223007,0.0294416323304,-0.670486211777
1510962732787759854,,367,,1510962732,786611080,0,,,147.257415771,220.031982422,1003.35430908,,-0.0203270465136,0.749199092388,0.0282863341272,-0.661428332329
1510962732806798813,,368,,1510962732,806133985,0,,,131.815795898,219.943847656,997.885559082,,-0.0208728015423,0.755986094475,0.0274254642427,-0.653679847717
1510962732827782927,,369,,1510962732,826945066,0,,,116.963249207,220.445556641,992.478881836,,-0.02019739151,0.762935161591,0.0272137075663,-0.645586073399
1510962732850000948,,370,,1510962732,849097967,0,,,102.693107605,221.361083984,986.477539062,,-0.0183553397655,0.770190954208,0.0281440243125,-0.63692766428
1510962732866424490,,371,,1510962732,865302085,0,,,88.5169906616,221.260742188,980.82635498,,-0.0191897153854,0.777181625366,0.0296532958746,-0.628284275532
1510962732891926990,,372,,1510962732,891264915,0,,,74.3547592163,220.59765625,974.812683105,,-0.0210296064615,0.783564805984,0.0303970649838,-0.620209753513
1510962732905466000,,373,,1510962732,904768943,0,,,60.4388656616,220.424316406,968.959411621,,-0.0235534608364,0.790203809738,0.0314017944038,-0.611585795879
1510962732925640636,,374,,1510962732,924631118,0,,,47.5261154175,221.019775391,962.046569824,,-0.0224817842245,0.796693086624,0.0304771028459,-0.603196382523
1510962732946672042,,375,,1510962732,944813013,0,,,34.6165084839,221.363769531,955.4765625,,-0.0228379070759,0.802704393864,0.0288225188851,-0.595242202282
1510962732966881781,,376,,1510962732,964339971,0,,,22.0652999878,221.186035156,948.885070801,,-0.0243286788464,0.808317303658,0.0283162780106,-0.587562322617
1510962732986991573,,377,,1510962732,985070943,0,,,9.766746521,221.479736328,942.21307373,,-0.0248417705297,0.814520657063,0.029857236892,-0.578832924366
1510962733005340948,,378,,1510962733,4385948,0,,,-1.61768341064,221.582519531,935.231811523,,-0.0247890874743,0.819983541965,0.0307554230094,-0.571022331715
1510962733023616365,,379,,1510962733,23121118,0,,,-12.6888198853,221.772216797,928.420227051,,-0.023666203022,0.825436472893,0.0302616730332,-0.563186228275
