rosbagTimestamp,header,seq,stamp,secs,nsecs,frame_id,point,x,y,z
1511972182880727919,,590,,1511972182,879939079,96,,-105.331260681,229.323730469,108.585220337
1511972182881385956,,591,,1511972182,880148887,97,,108.599891663,224.003417969,111.949981689
1511972182881430612,,592,,1511972182,880292892,98,,-57.33984375,227.436767578,260.622924805
1511972182881448123,,593,,1511972182,880543947,99,,48.0846824646,227.377441406,259.721801758
1511972182881463160,,594,,1511972182,880686998,100,,-79.5068511963,227.106933594,-235.614868164
1511972182881606853,,595,,1511972182,880806922,101,,106.629867554,233.012939453,-223.050811768
1511972182881644036,,596,,1511972182,880923986,102,,-103.936073303,226.702636719,-71.2496032715
1511972182881889771,,597,,1511972182,881047010,103,,110.028411865,225.285400391,-66.3596801758
1511972182900341728,,598,,1511972182,899624109,96,,-105.441642761,229.283691406,108.522026062
1511972182900416494,,599,,1511972182,899815082,97,,108.456008911,223.943847656,111.85760498
1511972182901162843,,600,,1511972182,900021076,98,,-57.546333313,227.39453125,260.540557861
1511972182901427359,,601,,1511972182,900429964,99,,47.9057235718,227.350341797,259.653930664
1511972182901475789,,602,,1511972182,900626897,100,,-79.657409668,227.15625,-235.720550537
1511972182901503672,,603,,1511972182,900773048,101,,106.233978271,232.719726562,-222.940582275
1511972182901653370,,604,,1511972182,900906085,102,,-104.134857178,226.66796875,-71.3678436279
1511972182902232338,,605,,1511972182,901112079,103,,109.781661987,225.135498047,-66.3251342773
1511972182920271041,,606,,1511972182,919539928,96,,-105.568595886,229.275146484,108.532470703
1511972182920301087,,607,,1511972182,919725894,97,,108.387512207,223.946533203,111.87588501
1511972182920836806,,608,,1511972182,919869899,98,,-57.6647338867,227.403564453,260.576293945
1511972182920860365,,609,,1511972182,919997930,99,,47.8341522217,227.4140625,259.660400391
1511972182921209990,,610,,1511972182,920304059,100,,-79.8153381348,227.116699219,-235.719512939
1511972182921351245,,611,,1511972182,920516014,101,,105.913551331,232.541748047,-222.951507568
1511972182921383705,,612,,1511972182,920809030,102,,-104.236000061,226.677490234,-71.3292236328
1511972182921473413,,613,,1511972182,921006917,103,,109.723419189,225.1328125,-66.3993530273
1511972182940133434,,614,,1511972182,939277887,96,,-105.37802124,229.418212891,108.647521973
1511972182940420342,,615,,1511972182,939460992,97,,108.537025452,224.065185547,111.9168396
1511972182940443963,,616,,1511972182,939610958,98,,-57.4822387695,227.506835938,260.652618408
1511972182940787835,,617,,1511972182,939807891,99,,47.917766571,227.482177734,259.712127686
1511972182940822202,,618,,1511972182,940015077,100,,-79.603187561,227.206054688,-235.610015869
1511972182940837129,,619,,1511972182,940145015,101,,106.005020142,232.595214844,-223.03326416
1511972182940851716,,620,,1511972182,940453052,102,,-104.0730896,226.766357422,-71.2514801025
1511972182941293233,,621,,1511972182,940898895,103,,109.849342346,225.331054688,-66.418182373
1511972182962728740,,622,,1511972182,961297988,96,,-105.293235779,229.407958984,108.667419434
1511972182962758562,,623,,1511972182,961513996,97,,108.620071411,224.091308594,111.964584351
1511972182962830075,,624,,1511972182,961661100,98,,-57.2723999023,227.528076172,260.652496338
1511972182962948392,,625,,1511972182,961788892,99,,48.1079101562,227.5,259.700164795
1511972182962974392,,626,,1511972182,961905956,100,,-79.4443588257,227.231689453,-235.537078857
1511972182962995328,,627,,1511972182,962027072,101,,106.41771698,232.887939453,-223.204162598
1511972182963007608,,628,,1511972182,962150096,102,,-103.885902405,226.834472656,-71.2060089111
1511972182963034362,,629,,1511972182,962342977,103,,110.109939575,225.597900391,-66.5557098389
1511972182986067716,,630,,1511972182,985315084,96,,-105.209594727,229.350830078,108.661819458
1511972182986095304,,631,,1511972182,985536098,97,,108.656410217,223.990966797,111.93927002
1511972182986147887,,632,,1511972182,985681056,98,,-57.3270950317,227.481445312,260.637542725
1511972182986250172,,633,,1511972182,985888957,99,,48.2006645203,227.470458984,259.733917236
1511972182986812991,,634,,1511972182,986248016,100,,-79.3606491089,227.188720703,-235.524749756
1511972182987114814,,635,,1511972182,986454010,101,,106.84803772,233.176513672,-223.239685059
1511972182987145677,,636,,1511972182,986629009,102,,-103.924209595,226.736816406,-71.2098693848
1511972182987170349,,637,,1511972182,986799955,103,,110.09853363,225.305908203,-66.4621887207
1511972182999290246,,638,,1511972182,998703956,96,,-105.275024414,229.354736328,108.48639679
1511972182999333038,,639,,1511972182,998943090,97,,108.63671875,224.041503906,111.827453613
1511972182999937044,,640,,1511972182,999409914,98,,-57.2943267822,227.479248047,260.508361816
1511972183000240063,,641,,1511972182,999604940,99,,48.0401229858,227.382568359,259.580291748
1511972183000269919,,642,,1511972182,999830961,100,,-79.4188919067,227.124511719,-235.649658203
1511972183000605011,,643,,1511972182,999982118,101,,106.868804932,233.226806641,-223.183349609
1511972183000634477,,644,,1511972183,196933,102,,-103.894706726,226.785400391,-71.3382873535
1511972183000807044,,645,,1511972183,365972,103,,109.864013672,225.123535156,-66.4708251953
1511972183019767110,,646,,1511972183,18644094,96,,-105.389778137,229.321777344,108.422111511
1511972183019801625,,647,,1511972183,18868923,97,,108.632881165,224.103515625,111.777938843
1511972183019818531,,648,,1511972183,19040107,98,,-57.4081954956,227.447998047,260.528625488
1511972183019951370,,649,,1511972183,19155025,99,,48.0143356323,227.502197266,259.566711426
1511972183020325576,,650,,1511972183,19268989,100,,-79.5968856812,227.125,-235.766662598
1511972183021133016,,651,,1511972183,19390106,101,,106.522140503,233.048095703,-223.074615479
1511972183021168534,,652,,1511972183,19714117,102,,-104.023513794,226.733398438,-71.3340454102
1511972183021188115,,653,,1511972183,19972085,103,,109.819862366,225.073242188,-66.3017578125
1511972183039320251,,654,,1511972183,38606882,96,,-105.406135559,229.448974609,108.536941528
1511972183039614212,,655,,1511972183,38804054,97,,108.507881165,224.140625,111.849388123
1511972183040022244,,656,,1511972183,39016008,98,,-57.5293273926,227.572265625,260.564300537
1511972183040047163,,657,,1511972183,39221048,99,,47.9529914856,227.487548828,259.677703857
1511972183040825199,,658,,1511972183,39345026,100,,-79.6386413574,227.25,-235.659118652
1511972183040958952,,659,,1511972183,39509057,101,,106.151062012,232.770263672,-222.944854736
1511972183040981359,,660,,1511972183,39674043,102,,-104.136108398,226.885986328,-71.3740844727
1511972183040998366,,661,,1511972183,39807081,103,,109.84992981,225.316894531,-66.2563171387
1511972183059452918,,662,,1511972183,58746099,96,,-105.45740509,229.486816406,108.637321472
1511972183059905109,,663,,1511972183,58983087,97,,108.213012695,224.145996094,111.873123169
1511972183060098109,,664,,1511972183,59135913,98,,-57.5001754761,227.581542969,260.691162109
1511972183060129176,,665,,1511972183,59384107,99,,47.768913269,227.648193359,259.689147949
1511972183060142900,,666,,1511972183,59516906,100,,-79.6916732788,227.253173828,-235.562744141
1511972183060174677,,667,,1511972183,59638023,101,,105.703842163,232.260742188,-222.540039062
1511972183060263341,,668,,1511972183,59809923,102,,-104.112831116,226.740234375,-71.1236724854
1511972183060421962,,669,,1511972183,60033082,103,,109.650543213,225.172363281,-66.1216888428
1511972183078686487,,670,,1511972183,77897071,96,,-105.431838989,229.460693359,108.661422729
1511972183078924144,,671,,1511972183,78080892,97,,108.576293945,224.123535156,111.992462158
1511972183079069695,,672,,1511972183,78233003,98,,-57.4148864746,227.529052734,260.678070068
1511972183079162591,,673,,1511972183,78393936,99,,48.0016059875,227.507324219,259.763031006
1511972183079301743,,674,,1511972183,78572034,100,,-79.5938796997,227.209716797,-235.494293213
1511972183079364124,,675,,1511972183,78696012,101,,105.995384216,232.466552734,-222.847137451
1511972183079396006,,676,,1511972183,78851938,102,,-104.029708862,226.773925781,-71.1701202393
1511972183079418984,,677,,1511972183,78994989,103,,109.873443604,225.225585938,-66.3035736084
1511972183098651734,,678,,1511972183,97594022,96,,-105.304367065,229.325195312,108.658950806
1511972183098761766,,679,,1511972183,97785949,97,,108.572685242,224.079345703,111.984558105
1511972183098825693,,680,,1511972183,97928047,98,,-57.3011550903,227.445556641,260.622924805
1511972183099613139,,681,,1511972183,98043918,99,,48.130645752,227.406982422,259.735473633
1511972183099652717,,682,,1511972183,98164081,100,,-79.4062194824,227.141113281,-235.536804199
1511972183099682709,,683,,1511972183,98351955,101,,106.126960754,232.540771484,-222.785369873
1511972183099700013,,684,,1511972183,98534107,102,,-103.917434692,226.695068359,-71.2214050293
1511972183099741903,,685,,1511972183,98687887,103,,110.010650635,225.124023438,-66.3586730957
1511972183117953231,,686,,1511972183,117439031,96,,-105.287536621,229.269775391,108.564453125
1511972183118344239,,687,,1511972183,117626905,97,,108.626579285,223.964355469,111.912773132
1511972183118449510,,688,,1511972183,117868900,98,,-57.4833221436,227.484130859,260.648681641
1511972183118778831,,689,,1511972183,118005037,99,,48.1498985291,227.301025391,259.635009766
1511972183118817618,,690,,1511972183,118127107,100,,-79.3965148926,227.0390625,-235.646270752
1511972183118836120,,691,,1511972183,118499040,101,,106.443946838,232.427978516,-222.687164307
1511972183119210229,,692,,1511972183,118761062,102,,-104.076644897,226.711181641,-71.1974487305
1511972183119237711,,693,,1511972183,118947029,103,,109.991409302,225.043212891,-66.3811950684
1511972183137543354,,694,,1511972183,137172937,96,,-105.305519104,229.326416016,108.518310547
1511972183137881193,,695,,1511972183,137434959,97,,108.590507507,223.985595703,111.874420166
1511972183138134183,,696,,1511972183,137595891,98,,-57.3505935669,227.394042969,260.570922852
1511972183138535535,,697,,1511972183,137770891,99,,48.048828125,227.392089844,259.634002686
1511972183138913537,,698,,1511972183,137907028,100,,-79.4724884033,227.107666016,-235.706573486
1511972183138938106,,699,,1511972183,138067960,101,,106.320098877,232.556152344,-222.840393066
1511972183139654511,,700,,1511972183,138252019,102,,-103.978988647,226.658447266,-71.3142547607
1511972183139794055,,701,,1511972183,138560056,103,,109.947433472,225.173583984,-66.4169616699
1511972183158272113,,702,,1511972183,157943010,96,,-105.355766296,229.45703125,108.518669128
1511972183158738034,,703,,1511972183,158181905,97,,108.526107788,224.050292969,111.831695557
1511972183158943415,,704,,1511972183,158385992,98,,-57.3882980347,227.529541016,260.635284424
1511972183159132721,,705,,1511972183,158617973,99,,48.026725769,227.467285156,259.664489746
1511972183159734182,,706,,1511972183,158830881,100,,-79.5992355347,227.203613281,-235.627471924
1511972183159768474,,707,,1511972183,159043073,101,,106.033676147,232.422119141,-222.747955322
1511972183159790825,,708,,1511972183,159207105,102,,-103.987419128,226.791015625,-71.2101898193
1511972183159899185,,709,,1511972183,159363031,103,,109.85118866,225.112792969,-66.3514404297
1511972183177106821,,710,,1511972183,176772117,96,,-105.436897278,229.473876953,108.572998047
1511972183177631308,,711,,1511972183,177054882,97,,108.552886963,224.178222656,111.99533844
1511972183178066289,,712,,1511972183,177212953,98,,-57.4569015503,227.571533203,260.638946533
1511972183178090863,,713,,1511972183,177328109,99,,47.9693832397,227.561279297,259.710266113
1511972183178285648,,714,,1511972183,177598953,100,,-79.6580657959,227.304443359,-235.599761963
1511972183178419588,,715,,1511972183,177795886,101,,105.811233521,232.421386719,-222.836364746
1511972183178541223,,716,,1511972183,178050041,102,,-104.070243835,226.813232422,-71.2259216309
1511972183178568978,,717,,1511972183,178229093,103,,109.740226746,225.231933594,-66.311050415
1511972183196841941,,718,,1511972183,196561098,96,,-105.415344238,229.539306641,108.600967407
1511972183197375095,,719,,1511972183,196778059,97,,108.31690979,224.012695312,111.995056152
1511972183197411489,,720,,1511972183,196923971,98,,-57.3628158569,227.718261719,260.704742432
1511972183197430301,,721,,1511972183,197045087,99,,47.9641990662,227.607910156,259.718078613
1511972183197725438,,722,,1511972183,197182893,100,,-79.6064682007,227.371826172,-235.604217529
1511972183197980206,,723,,1511972183,197407960,101,,105.81489563,232.314941406,-222.626800537
1511972183198015612,,724,,1511972183,197531938,102,,-103.977584839,226.974365234,-71.1058502197
1511972183198030605,,725,,1511972183,197695970,103,,109.872657776,225.420654297,-66.3186340332
1511972183216777358,,726,,1511972183,216342926,96,,-105.377494812,229.427246094,108.600448608
1511972183217021581,,727,,1511972183,216687917,97,,108.585159302,224.177001953,111.86164856
1511972183217378953,,728,,1511972183,216934919,98,,-57.3948440552,227.554443359,260.609527588
1511972183217404801,,729,,1511972183,217056035,99,,48.0371055603,227.496582031,259.696960449
1511972183218260290,,730,,1511972183,217380046,100,,-79.6037063599,227.17578125,-235.553588867
1511972183218323295,,731,,1511972183,217572927,101,,106.234237671,232.768798828,-222.927368164
1511972183218342026,,732,,1511972183,217731952,102,,-104.021820068,226.792724609,-71.2311401367
1511972183218383761,,733,,1511972183,217921972,103,,109.851905823,225.249267578,-66.3635406494
1511972183237515508,,734,,1511972183,236438035,96,,-105.352142334,229.245361328,108.523002625
1511972183237821726,,735,,1511972183,236677885,97,,108.54927063,223.973388672,111.862594604
1511972183237853912,,736,,1511972183,236840963,98,,-57.3966217041,227.468994141,260.561645508
1511972183237877873,,737,,1511972183,236963987,99,,48.0518569946,227.357910156,259.653686523
1511972183237941348,,738,,1511972183,237163066,100,,-79.5254821777,227.070800781,-235.631988525
1511972183238088257,,739,,1511972183,237365007,101,,106.488235474,232.869384766,-222.926391602
1511972183238744125,,740,,1511972183,237510919,102,,-104.029335022,226.695068359,-71.3117828369
1511972183238769573,,741,,1511972183,237744092,103,,109.918708801,225.114990234,-66.415435791
1511972183257801834,,742,,1511972183,257009983,96,,-105.249526978,229.373046875,108.505241394
1511972183257835646,,743,,1511972183,257200956,97,,108.651985168,224.044189453,111.816696167
1511972183257882190,,744,,1511972183,257349014,98,,-57.3945007324,227.562011719,260.551513672
1511972183258513380,,745,,1511972183,257550001,99,,48.106716156,227.387695312,259.607299805
1511972183258791883,,746,,1511972183,257949113,100,,-79.4278030396,227.139160156,-235.71005249
1511972183258823566,,747,,1511972183,258117914,101,,106.463851929,232.748046875,-222.817077637
1511972183258855732,,748,,1511972183,258276939,102,,-104.04032135,226.802978516,-71.2897644043
1511972183258887405,,749,,1511972183,258466958,103,,109.962860107,225.143310547,-66.4063415527
1511972183276050463,,750,,1511972183,275722026,96,,-105.220329285,229.468994141,108.473808289
1511972183276598589,,751,,1511972183,275985002,97,,108.67035675,224.158691406,111.865829468
1511972183276914275,,752,,1511972183,276168107,98,,-57.2620239258,227.659179688,260.522186279
1511972183277139957,,753,,1511972183,276338100,99,,48.113910675,227.584716797,259.627624512
1511972183277177705,,754,,1511972183,276539087,100,,-79.3989028931,227.283203125,-235.73840332
1511972183277205281,,755,,1511972183,276667118,101,,106.266075134,232.69921875,-222.883453369
1511972183277318824,,756,,1511972183,276818037,102,,-103.910217285,226.906982422,-71.3346557617
1511972183277340561,,757,,1511972183,276942014,103,,109.97580719,225.339599609,-66.331161499
1511972183295941198,,758,,1511972183,295576095,96,,-105.411392212,229.531494141,108.532653809
1511972183296259215,,759,,1511972183,295830965,97,,108.581604004,224.162597656,111.891525269
1511972183296632369,,760,,1511972183,295994043,98,,-57.3814697266,227.617431641,260.597381592
1511972183297177920,,761,,1511972183,296195983,99,,48.0433883667,227.58984375,259.646453857
1511972183297220983,,762,,1511972183,296363115,100,,-79.6328582764,227.294921875,-235.667694092
1511972183297241969,,763,,1511972183,296566009,101,,105.944671631,232.546630859,-222.895355225
1511972183297257212,,764,,1511972183,296696901,102,,-104.010955811,226.855224609,-71.2454681396
1511972183297336798,,765,,1511972183,296813011,103,,109.908081055,225.328613281,-66.3173980713
1511972183316022048,,766,,1511972183,315380096,96,,-105.447494507,229.500732422,108.63205719
1511972183316425621,,767,,1511972183,315572977,97,,108.50553894,224.111328125,111.983779907
1511972183316793675,,768,,1511972183,315747976,98,,-57.4690856934,227.588867188,260.636474609
1511972183317454236,,769,,1511972183,315923929,99,,47.9897842407,227.518798828,259.730773926
1511972183317474897,,770,,1511972183,316054105,100,,-79.7105026245,227.342773438,-235.602111816
1511972183317509813,,771,,1511972183,316173076,101,,105.904129028,232.536376953,-222.94543457
1511972183317525467,,772,,1511972183,316314935,102,,-104.099464417,226.833496094,-71.2184143066
1511972183317627537,,773,,1511972183,316500902,103,,109.723258972,225.166748047,-66.3654785156
1511972183335776415,,774,,1511972183,335416078,96,,-105.40978241,229.399169922,108.65007019
1511972183336503907,,775,,1511972183,335645914,97,,108.425071716,223.964111328,111.937858582
1511972183336872717,,776,,1511972183,335787057,98,,-57.4917984009,227.467529297,260.663085938
1511972183337441839,,777,,1511972183,335911035,99,,48.0312004089,227.453125,259.751220703
1511972183337471470,,778,,1511972183,336031913,100,,-79.6176300049,227.142333984,-235.54397583
1511972183337497722,,779,,1511972183,336194038,101,,105.919616699,232.379150391,-222.832244873
1511972183337547763,,780,,1511972183,336358070,102,,-104.11504364,226.729492188,-71.1966552734
1511972183337560335,,781,,1511972183,336507081,103,,109.721969604,225.015625,-66.3480224609
1511972183355236812,,782,,1511972183,354851007,96,,-105.395889282,229.318115234,108.577697754
1511972183355684533,,783,,1511972183,355120897,97,,108.511062622,223.9453125,111.901924133
1511972183356109467,,784,,1511972183,355292081,98,,-57.4607696533,227.385742188,260.541687012
1511972183356141750,,785,,1511972183,355624914,99,,48.0174865723,227.286865234,259.635314941
1511972183356153771,,786,,1511972183,355817079,100,,-79.5745315552,227.054443359,-235.653106689
1511972183356887972,,787,,1511972183,356167078,101,,106.238014221,232.575439453,-222.812713623
1511972183356906888,,788,,1511972183,356370925,102,,-104.070030212,226.641357422,-71.2749328613
1511972183356939987,,789,,1511972183,356553077,103,,109.830329895,224.974853516,-66.5148925781
1511972183375486460,,790,,1511972183,374892950,96,,-105.22833252,229.354003906,108.525497437
1511972183375606932,,791,,1511972183,375108957,97,,108.716331482,224.088867188,111.846115112
1511972183375683189,,792,,1511972183,375361919,98,,-57.2754364014,227.521240234,260.590209961
1511972183376085872,,793,,1511972183,375700950,99,,48.1938819885,227.398193359,259.624267578
1511972183376478295,,794,,1511972183,375948905,100,,-79.3593444824,227.16015625,-235.697509766
1511972183376792051,,795,,1511972183,376101016,101,,106.421073914,232.633056641,-222.828125
1511972183376819710,,796,,1511972183,376265048,102,,-103.879142761,226.734619141,-71.2484436035
1511972183376836835,,797,,1511972183,376470088,103,,110.044067383,225.187255859,-66.4037780762
1511972183395180485,,798,,1511972183,394545078,96,,-105.146621704,229.587158203,108.533920288
1511972183395402836,,799,,1511972183,394737005,97,,108.767677307,224.181640625,111.870559692
1511972183395438964,,800,,1511972183,394879102,98,,-57.1396484375,227.6953125,260.56060791
1511972183395679542,,801,,1511972183,395100116,99,,48.3038101196,227.484130859,259.720703125
1511972183396702805,,802,,1511972183,395431995,100,,-79.1690597534,227.428466797,-235.712615967
1511972183396739692,,803,,1511972183,395924091,101,,106.336410522,232.546875,-222.852325439
1511972183396760030,,804,,1511972183,396115064,102,,-103.758766174,226.959716797,-71.2855224609
1511972183396782134,,805,,1511972183,396260976,103,,110.204406738,225.28125,-66.2612762451
1511972183414632923,,806,,1511972183,414252042,96,,-105.293266296,229.53515625,108.611198425
1511972183414807436,,807,,1511972183,414515972,97,,108.607711792,224.206298828,111.910461426
1511972183415175221,,808,,1511972183,414779901,98,,-57.3635864258,227.664794922,260.593566895
1511972183415597983,,809,,1511972183,414951086,99,,48.126701355,227.579345703,259.702575684
1511972183416435581,,810,,1511972183,415112972,100,,-79.4368362427,227.327636719,-235.527374268
1511972183416545718,,811,,1511972183,415231943,101,,106.145309448,232.612304688,-222.868255615
1511972183416564935,,812,,1511972183,415359020,102,,-103.976669312,226.907470703,-71.2548522949
1511972183416586001,,813,,1511972183,415513992,103,,110.040924072,225.353271484,-66.3448181152
1511972183434502654,,814,,1511972183,434178113,96,,-105.510612488,229.354980469,108.567359924
1511972183435059005,,815,,1511972183,434461116,97,,108.380096436,223.991699219,111.908447266
1511972183435321204,,816,,1511972183,434658050,98,,-57.6100311279,227.455078125,260.629577637
1511972183435673181,,817,,1511972183,435004949,99,,47.8331871033,227.420898438,259.71206665
1511972183435696933,,818,,1511972183,435281991,100,,-79.7383956909,227.09375,-235.568969727
1511972183436161053,,819,,1511972183,435482978,101,,105.953094482,232.626708984,-222.878417969
1511972183436240665,,820,,1511972183,435724973,102,,-104.242858887,226.699951172,-71.2288513184
1511972183436926753,,821,,1511972183,435910940,103,,109.658370972,225.177978516,-66.3616333008
1511972183454438138,,822,,1511972183,453890085,96,,-105.577270508,229.331298828,108.571289062
1511972183454740104,,823,,1511972183,454092979,97,,108.336509705,223.897460938,111.854995728
1511972183455187125,,824,,1511972183,454304933,98,,-57.6826858521,227.360107422,260.558166504
1511972183455469687,,825,,1511972183,454493045,99,,47.8032150269,227.286132812,259.648895264
1511972183456110764,,826,,1511972183,454679965,100,,-79.8908004761,226.990478516,-235.559234619
1511972183456282298,,827,,1511972183,454823970,101,,105.994895935,232.670410156,-222.934082031
1511972183456301090,,828,,1511972183,454943895,102,,-104.295150757,226.583251953,-71.298034668
1511972183456324042,,829,,1511972183,455125093,103,,109.637893677,225.037109375,-66.4133758545
1511972183474011870,,830,,1511972183,473653078,96,,-105.385284424,229.365722656,108.534286499
1511972183474405187,,831,,1511972183,473926067,97,,108.523162842,224.010253906,111.8306427
1511972183474561390,,832,,1511972183,474098920,98,,-57.4089050293,227.486816406,260.530761719
1511972183474667897,,833,,1511972183,474304914,99,,48.1224899292,227.415527344,259.644073486
1511972183475056112,,834,,1511972183,474515914,100,,-79.5887680054,227.054931641,-235.691772461
1511972183475077917,,835,,1511972183,474716901,101,,106.190284729,232.594482422,-222.83380127
1511972183475372228,,836,,1511972183,474879980,102,,-104.063873291,226.724365234,-71.3224639893
1511972183476136569,,837,,1511972183,475169897,103,,109.953636169,225.227050781,-66.424407959
1511972183493643170,,838,,1511972183,493385076,96,,-105.134490967,229.416015625,108.504348755
1511972183494011326,,839,,1511972183,493623018,97,,108.618598938,223.979736328,111.833175659
1511972183494651512,,840,,1511972183,493813037,98,,-57.16431427,227.563720703,260.541809082
1511972183494742334,,841,,1511972183,493988037,99,,48.2624931335,227.413574219,259.659759521
1511972183494974859,,842,,1511972183,494123935,100,,-79.2511825562,227.230712891,-235.707763672
1511972183495538875,,843,,1511972183,494231939,101,,106.475669861,232.748779297,-222.910888672
1511972183495793937,,844,,1511972183,494399070,102,,-103.806686401,226.835205078,-71.3006896973
1511972183495813487,,845,,1511972183,494570970,103,,110.289550781,225.469482422,-66.4497375488
1511972183513618251,,846,,1511972183,513201951,96,,-105.168922424,229.366455078,108.475402832
1511972183513918642,,847,,1511972183,513369083,97,,108.767562866,224.096679688,111.821655273
1511972183514096523,,848,,1511972183,513865947,98,,-57.2286376953,227.479980469,260.492431641
1511972183514744431,,849,,1511972183,514100074,99,,48.2905273438,227.399902344,259.592590332
1511972183515225996,,850,,1511972183,514245033,100,,-79.2619857788,227.204101562,-235.746276855
1511972183515942787,,851,,1511972183,514391899,101,,106.498916626,232.738769531,-222.914611816
1511972183516143939,,852,,1511972183,514751911,102,,-103.831130981,226.740478516,-71.3377075195
1511972183516175942,,853,,1511972183,514942884,103,,110.264732361,225.304443359,-66.4203948975
1511972183533655267,,854,,1511972183,533056974,96,,-105.370269775,229.315673828,108.545417786
1511972183533974151,,855,,1511972183,533220052,97,,108.531478882,223.950927734,111.859313965
1511972183534154397,,856,,1511972183,533377885,98,,-57.399887085,227.291503906,260.695617676
1511972183534332431,,857,,1511972183,533627986,99,,48.0777511597,227.365722656,259.635192871
1511972183534515385,,858,,1511972183,533751964,100,,-79.5464935303,227.101074219,-235.644470215
1511972183534617360,,859,,1511972183,533930063,101,,106.294273376,232.692382812,-223.022094727
1511972183534718378,,860,,1511972183,534158945,102,,-103.995742798,226.55078125,-71.1885681152
1511972183534741564,,861,,1511972183,534339904,103,,109.931465149,225.133056641,-66.4542999268
1511972183553769815,,862,,1511972183,553127050,96,,-105.577812195,229.352539062,108.566589355
1511972183554072390,,863,,1511972183,553370952,97,,108.298744202,223.923583984,111.869651794
1511972183554641998,,864,,1511972183,553602933,98,,-57.7002487183,227.390136719,260.578308105
1511972183555414556,,865,,1511972183,553788900,99,,47.7603302002,227.358886719,259.634094238
1511972183555565787,,866,,1511972183,553985118,100,,-79.8140182495,227.089599609,-235.613800049
1511972183555599191,,867,,1511972183,554132938,101,,105.857620239,232.500244141,-222.894744873
1511972183555627316,,868,,1511972183,554246902,102,,-104.327537537,226.571777344,-71.3001251221
1511972183555669539,,869,,1511972183,554398059,103,,109.611129761,225.067871094,-66.4762573242
1511972183573615917,,870,,1511972183,572732925,96,,-105.713577271,229.391357422,108.557052612
1511972183574114107,,871,,1511972183,572966098,97,,108.307312012,224.009277344,111.900772095
1511972183574140142,,872,,1511972183,573131084,98,,-57.6870193481,227.441650391,260.61050415
1511972183574284813,,873,,1511972183,573262929,99,,47.6755332947,227.608398438,259.70892334
1511972183575008070,,874,,1511972183,573455095,100,,-79.8976287842,227.081298828,-235.554931641
1511972183575140320,,875,,1511972183,573626041,101,,105.749610901,232.447021484,-222.827850342
1511972183575166451,,876,,1511972183,573746919,102,,-104.305458069,226.670410156,-71.2379455566
1511972183575183496,,877,,1511972183,573868036,103,,109.370063782,224.280273438,-65.655090332
1511972183593680862,,878,,1511972183,593384027,96,,-105.403282166,229.540527344,108.585571289
1511972183594075408,,879,,1511972183,593648910,97,,108.553268433,224.089355469,111.901229858
1511972183594216158,,880,,1511972183,593867063,98,,-57.3824691772,227.586181641,260.668365479
1511972183594549899,,881,,1511972183,594069004,99,,48.0655174255,227.505126953,259.70211792
1511972183594711632,,882,,1511972183,594280958,100,,-79.6356430054,227.380615234,-235.612335205
1511972183594910547,,883,,1511972183,594472885,101,,106.002815247,232.567871094,-222.799682617
1511972183595096173,,884,,1511972183,594676017,102,,-103.989387512,226.80859375,-71.1580657959
1511972183595119027,,885,,1511972183,594852924,103,,109.988975525,225.386474609,-66.4054260254
1511972183612560374,,886,,1511972183,612210035,96,,-105.18421936,229.640625,108.623962402
1511972183613128298,,887,,1511972183,612500905,97,,108.730613708,224.229003906,111.897293091
1511972183613530600,,888,,1511972183,612690925,98,,-57.1681213379,227.75390625,260.583831787
1511972183613823227,,889,,1511972183,612884998,99,,48.3168296814,227.523193359,259.660644531
1511972183613939862,,890,,1511972183,613090038,100,,-79.2755966187,227.438720703,-235.482513428
1511972183614142023,,891,,1511972183,613231897,101,,106.475288391,232.724853516,-222.777618408
1511972183614773205,,892,,1511972183,613354921,102,,-103.784843445,227.023193359,-71.2207794189
1511972183614786053,,893,,1511972183,613554000,103,,110.296905518,225.52734375,-66.3670806885
1511972183632615834,,894,,1511972183,632026910,96,,-105.152168274,229.479248047,108.492889404
1511972183632645735,,895,,1511972183,632211923,97,,108.738525391,224.15625,111.934249878
1511972183632843223,,896,,1511972183,632364988,98,,-57.2120437622,227.627441406,260.578125
1511972183633596882,,897,,1511972183,632827043,99,,48.2436904907,227.484619141,259.693115234
1511972183633707989,,898,,1511972183,633001089,100,,-79.2353897095,227.234863281,-235.657531738
1511972183633723418,,899,,1511972183,633138895,101,,106.651863098,232.937011719,-222.869293213
1511972183633744695,,900,,1511972183,633270978,102,,-103.820198059,226.886474609,-71.2533874512
1511972183633768296,,901,,1511972183,633410930,103,,110.233634949,225.428955078,-66.4363555908
1511972183652410433,,902,,1511972183,651774883,96,,-105.425361633,229.339599609,108.606872559
1511972183652586388,,903,,1511972183,651957035,97,,108.682273865,224.083251953,111.848327637
1511972183653041467,,904,,1511972183,652107000,98,,-57.2548828125,227.597412109,260.610229492
1511972183653258040,,905,,1511972183,652363061,99,,48.1124420166,227.389648438,259.639129639
1511972183653414541,,906,,1511972183,652627944,100,,-79.6162872314,227.090576172,-235.601623535
1511972183653514769,,907,,1511972183,652803897,101,,106.457046509,232.822998047,-222.904876709
1511972183653587860,,908,,1511972183,653023004,102,,-103.862213135,226.842529297,-71.1878051758
1511972183654245661,,909,,1511972183,653219938,103,,109.931282043,225.032226562,-66.4162597656
1511972183673620105,,910,,1511972183,672738075,96,,-105.531646729,229.328613281,108.474731445
1511972183673668820,,911,,1511972183,672959089,97,,108.453125,223.997558594,111.867637634
1511972183674107514,,912,,1511972183,673100948,98,,-57.6455078125,227.320556641,260.52230835
1511972183674315460,,913,,1511972183,673285961,99,,48.0943412781,227.444580078,259.699371338
1511972183674336170,,914,,1511972183,673659086,100,,-79.747718811,227.062744141,-235.642150879
1511972183674360191,,915,,1511972183,673856019,101,,106.10610199,232.630371094,-222.880401611
1511972183674453364,,916,,1511972183,674076080,102,,-104.280914307,226.552001953,-71.346572876
1511972183674749899,,917,,1511972183,674329042,103,,109.901870728,225.178710938,-66.426574707
1511972183692134279,,918,,1511972183,691488981,96,,-105.490531921,229.441894531,108.548995972
1511972183692619612,,919,,1511972183,691677093,97,,108.430900574,224.002929688,111.855079651
1511972183692650443,,920,,1511972183,691812038,98,,-57.393447876,227.595458984,260.624420166
1511972183692815805,,921,,1511972183,692065000,99,,47.9834747314,227.414794922,259.668487549
1511972183693114197,,922,,1511972183,692225933,100,,-79.6682128906,227.202392578,-235.646759033
1511972183693149158,,923,,1511972183,692353010,101,,105.71710968,232.289550781,-223.010070801
1511972183693161682,,924,,1511972183,692603111,102,,-104.027023315,226.830810547,-71.1986541748
1511972183693173901,,925,,1511972183,692836999,103,,109.833976746,225.194824219,-66.4537200928
1511972183711918955,,926,,1511972183,711072921,96,,-105.324691772,229.523681641,108.536933899
1511972183712421916,,927,,1511972183,711240053,97,,108.565582275,224.115234375,111.859054565
1511972183712452505,,928,,1511972183,711407899,98,,-57.3367996216,227.613037109,260.548980713
1511972183712469458,,929,,1511972183,711524009,99,,48.1016159058,227.440673828,259.66027832
1511972183712482955,,930,,1511972183,711637973,100,,-79.4951858521,227.265869141,-235.630615234
1511972183712665569,,931,,1511972183,711859941,101,,105.93536377,232.529296875,-222.931213379
1511972183713300050,,932,,1511972183,712023973,102,,-103.970855713,226.836425781,-71.2820129395
1511972183713416011,,933,,1511972183,712153911,103,,110.031059265,225.377685547,-66.4138946533
1511972183732553425,,934,,1511972183,731880903,96,,-105.213890076,229.385742188,108.494476318
1511972183732988580,,935,,1511972183,732095956,97,,108.708152771,224.083496094,111.852127075
1511972183733538903,,936,,1511972183,732356071,98,,-57.2750473022,227.544433594,260.550292969
1511972183733565185,,937,,1511972183,732611894,99,,48.2324714661,227.386474609,259.596191406
1511972183733597796,,938,,1511972183,732750892,100,,-79.3987731934,227.192382812,-235.675872803
1511972183733614677,,939,,1511972183,732973098,101,,106.281044006,232.649658203,-222.910430908
1511972183733680288,,940,,1511972183,733108997,102,,-103.90133667,226.777832031,-71.2935180664
1511972183733695886,,941,,1511972183,733304023,103,,110.164642334,225.352294922,-66.4639587402
1511972183751548404,,942,,1511972183,750830888,96,,-105.326820374,229.286621094,108.487983704
1511972183751583089,,943,,1511972183,751027107,97,,108.583465576,223.904785156,111.836959839
1511972183751624184,,944,,1511972183,751219034,98,,-57.3692474365,227.4296875,260.528381348
1511972183751991324,,945,,1511972183,751579046,99,,48.1795387268,227.301269531,259.624298096
1511972183752018834,,946,,1511972183,751718997,100,,-79.4701080322,227.05859375,-235.711883545
1511972183752250251,,947,,1511972183,752002954,101,,106.505882263,232.700683594,-222.829101562
1511972183752567293,,948,,1511972183,752197980,102,,-103.988220215,226.647216797,-71.3206481934
1511972183753267187,,949,,1511972183,752337932,103,,110.018943787,225.091796875,-66.4387512207
1511972183771175055,,950,,1511972183,770677089,96,,-105.394966125,229.265380859,108.51309967
1511972183771266854,,951,,1511972183,770886898,97,,108.45464325,223.87109375,111.865142822
1511972183771927415,,952,,1511972183,771119117,98,,-57.4726791382,227.346679688,260.56427002
1511972183772088979,,953,,1511972183,771342992,99,,47.9594802856,227.278808594,259.672607422
1511972183772347509,,954,,1511972183,771476030,100,,-79.5530090332,227.038330078,-235.701782227
1511972183772408868,,955,,1511972183,771665096,101,,106.411552429,232.784179688,-222.833984375
1511972183773145359,,956,,1511972183,771879911,102,,-104.116607666,226.563232422,-71.3002319336
1511972183773164180,,957,,1511972183,772109031,103,,109.796783447,225.054931641,-66.3620147705
1511972183791979386,,958,,1511972183,791357040,96,,-105.451446533,229.394042969,108.589935303
1511972183792286716,,959,,1511972183,791541099,97,,108.458190918,223.975097656,111.855895996
1511972183792733364,,960,,1511972183,791734933,98,,-57.502532959,227.501464844,260.582092285
1511972183793072277,,961,,1511972183,792010068,99,,48.0107574463,227.409179688,259.689819336
1511972183793095511,,962,,1511972183,792268037,100,,-79.7283554077,227.172851562,-235.57144165
1511972183793815688,,963,,1511972183,792490959,101,,106.146209717,232.688476562,-222.762298584
1511972183793975281,,964,,1511972183,792702913,102,,-104.122665405,226.736083984,-71.2693481445
1511972183794028273,,965,,1511972183,792844057,103,,109.886947632,225.164306641,-66.3912658691
1511972183811273380,,966,,1511972183,810462951,96,,-105.423622131,229.61328125,108.600654602
1511972183811355100,,967,,1511972183,810697078,97,,108.519767761,224.153564453,111.986289978
1511972183811381804,,968,,1511972183,810853004,98,,-57.4259796143,227.692138672,260.608276367
1511972183811704161,,969,,1511972183,811187982,99,,48.0030784607,227.635742188,259.715179443
1511972183812372065,,970,,1511972183,811688899,100,,-79.6656112671,227.344482422,-235.526977539
1511972183813144290,,971,,1511972183,811836004,101,,105.996147156,232.721435547,-222.847015381
1511972183813287378,,972,,1511972183,811950922,102,,-104.029663086,226.939208984,-71.2200927734
1511972183813297570,,973,,1511972183,812060117,103,,109.958381653,225.584716797,-66.4080352783
1511972183830939638,,974,,1511972183,830147981,96,,-105.529716492,229.515136719,108.609817505
1511972183831124968,,975,,1511972183,830372095,97,,108.516983032,224.189697266,111.977523804
1511972183831142513,,976,,1511972183,830530881,98,,-57.4192199707,227.68359375,260.687774658
1511972183831177934,,977,,1511972183,830818891,99,,47.8837738037,227.526123047,259.688720703
1511972183831850594,,978,,1511972183,831109046,100,,-79.8193817139,227.234375,-235.531646729
1511972183831896805,,979,,1511972183,831346035,101,,105.994132996,232.733642578,-222.917053223
1511972183831934367,,980,,1511972183,831476926,102,,-104.05645752,226.947021484,-71.1502227783
1511972183831952858,,981,,1511972183,831617116,103,,110.09463501,225.715332031,-66.4472808838
1511972183850140769,,982,,1511972183,849795103,96,,-105.439147949,229.423828125,108.538864136
1511972183850670533,,983,,1511972183,850085020,97,,108.419540405,224.026855469,111.813026428
1511972183850809919,,984,,1511972183,850245952,98,,-57.4864425659,227.522460938,260.518371582
1511972183851004787,,985,,1511972183,850364923,99,,48.0374908447,227.441162109,259.657226562
1511972183851115363,,986,,1511972183,850557088,100,,-79.6772994995,227.198486328,-235.625701904
1511972183851243057,,987,,1511972183,850771903,101,,106.166290283,232.793212891,-222.949462891
1511972183851494033,,988,,1511972183,850958108,102,,-104.11756134,226.787597656,-71.3219604492
1511972183852158610,,989,,1511972183,851196050,103,,109.95451355,225.316894531,-66.4861907959
1511972183872780856,,990,,1511972183,872029066,96,,-105.476112366,229.139892578,108.436309814
1511972183873094672,,991,,1511972183,872261047,97,,108.480278015,223.846923828,111.847938538
1511972183873556662,,992,,1511972183,872451066,98,,-57.4844207764,227.317382812,260.559753418
1511972183873667824,,993,,1511972183,872663974,99,,48.0821266174,227.166015625,259.575561523
1511972183874364412,,994,,1511972183,872843980,100,,-79.7113800049,226.968505859,-235.761627197
1511972183874392552,,995,,1511972183,873037099,101,,106.422111511,232.750244141,-222.893218994
1511972183874538750,,996,,1511972183,873186111,102,,-104.138916016,226.514160156,-71.3074798584
1511972183874577775,,997,,1511972183,873332023,103,,109.917572021,224.934326172,-66.5326690674
1511972183890299909,,998,,1511972183,889410018,96,,-105.308166504,229.249267578,108.484375
1511972183890477779,,999,,1511972183,889601945,97,,108.586128235,223.928710938,111.828742981
1511972183890822339,,1000,,1511972183,889739990,98,,-57.4094390869,227.403564453,260.538848877
1511972183891528777,,1001,,1511972183,889868974,99,,48.1788825989,227.232666016,259.706359863
1511972183891832166,,1002,,1511972183,889982938,100,,-79.4576263428,226.984619141,-235.721343994
1511972183891869956,,1003,,1511972183,890202045,101,,106.504699707,232.745605469,-222.887481689
1511972183891884071,,1004,,1511972183,890435934,102,,-104.033958435,226.609619141,-71.326385498
1511972183891966338,,1005,,1511972183,890578985,103,,110.052612305,225.052001953,-66.4317474365
1511972183909648225,,1006,,1511972183,909132957,96,,-105.231918335,229.438720703,108.545669556
1511972183909975716,,1007,,1511972183,909327983,97,,108.661941528,224.056640625,111.842826843
1511972183910298999,,1008,,1511972183,909547090,98,,-57.2345657349,227.572509766,260.514190674
1511972183910446583,,1009,,1511972183,909730911,99,,48.2170372009,227.456298828,259.629333496
1511972183910633760,,1010,,1511972183,909904003,100,,-79.3786315918,227.176757812,-235.629119873
1511972183911421715,,1011,,1511972183,910078048,101,,106.307510376,232.703125,-222.940490723
1511972183911488745,,1012,,1511972183,910265922,102,,-103.825401306,226.837890625,-71.3342437744
1511972183911588726,,1013,,1511972183,910458087,103,,110.216743469,225.343017578,-66.4743499756
1511972183930236406,,1014,,1511972183,929367065,96,,-105.354804993,229.586914062,108.570671082
1511972183930497845,,1015,,1511972183,929543972,97,,108.640419006,224.15234375,111.945472717
1511972183930641836,,1016,,1511972183,929667949,98,,-57.2988967896,227.692382812,260.565246582
1511972183930677814,,1017,,1511972183,929780006,99,,48.1562042236,227.529785156,259.65826416
1511972183930699878,,1018,,1511972183,929892063,100,,-79.4147186279,227.261474609,-235.622558594
1511972183930751022,,1019,,1511972183,930001974,101,,106.021003723,232.633789062,-223.014953613
1511972183930824238,,1020,,1511972183,930188894,102,,-103.922348022,226.981201172,-71.2682800293
1511972183930845809,,1021,,1511972183,930314064,103,,110.111564636,225.486572266,-66.4790649414
1511972183949126473,,1022,,1511972183,948658943,96,,-105.537597656,229.555664062,108.558387756
1511972183949255986,,1023,,1511972183,948806047,97,,108.526725769,224.098388672,111.882225037
1511972183949574348,,1024,,1511972183,948995113,98,,-57.4529266357,227.615234375,260.580413818
1511972183949602375,,1025,,1511972183,949172973,99,,47.9805221558,227.441894531,259.633850098
1511972183949616985,,1026,,1511972183,949285984,100,,-79.7392654419,227.270996094,-235.651062012
1511972183949808619,,1027,,1511972183,949543952,101,,105.896194458,232.626220703,-222.954284668
1511972183950204119,,1028,,1511972183,949698925,102,,-104.091941833,226.876708984,-71.2533416748
1511972183950782094,,1029,,1511972183,949832916,103,,109.891052246,225.349365234,-66.4553070068
1511972183969682354,,1030,,1511972183,968713998,96,,-105.579521179,229.284179688,108.498985291
1511972183969721963,,1031,,1511972183,968940973,97,,108.347839355,223.871582031,111.887290955
1511972183969744765,,1032,,1511972183,969088077,98,,-57.5537719727,227.408935547,260.570556641
1511972183969813091,,1033,,1511972183,969216108,99,,47.9283218384,227.255615234,259.650695801
1511972183969866960,,1034,,1511972183,969345092,100,,-79.7844009399,227.003417969,-235.707336426
1511972183970227414,,1035,,1511972183,969664096,101,,105.984603882,232.484619141,-222.74697876
1511972183970259853,,1036,,1511972183,969800949,102,,-104.232948303,226.643554688,-71.3122558594
1511972183970307702,,1037,,1511972183,969974994,103,,109.687210083,224.993896484,-66.4332580566
1511972183989350578,,1038,,1511972183,988527059,96,,-105.364654541,229.304199219,108.550987244
1511972183989614681,,1039,,1511972183,988754034,97,,108.62538147,224.010009766,111.93901062
1511972183989659727,,1040,,1511972183,988970041,98,,-57.4540176392,227.380615234,260.592498779
1511972183989684569,,1041,,1511972183,989182949,99,,48.0711860657,227.29296875,259.649902344
1511972183989705054,,1042,,1511972183,989326953,100,,-79.6292648315,227.080810547,-235.628723145
1511972183990268614,,1043,,1511972183,989576101,101,,106.307174683,232.677001953,-222.774841309
1511972183990981324,,1044,,1511972183,989829063,102,,-104.060668945,226.624267578,-71.2705230713
1511972183991004226,,1045,,1511972183,989958047,103,,109.889053345,225.031494141,-66.451171875
1511972184009752758,,1046,,1511972184,8950948,96,,-105.248428345,229.438476562,108.504699707
1511972184009784014,,1047,,1511972184,9170055,97,,108.792602539,224.139892578,111.817199707
1511972184010042352,,1048,,1511972184,9362936,98,,-57.0436553955,227.661376953,260.598205566
1511972184010577617,,1049,,1511972184,9730100,99,,48.2964706421,227.459228516,259.659759521
1511972184010770697,,1050,,1511972184,9984970,100,,-79.3810577393,227.194335938,-235.669586182
1511972184010798913,,1051,,1511972184,10138034,101,,106.531036377,232.768798828,-222.797241211
1511972184010814511,,1052,,1511972184,10334968,102,,-103.579864502,226.939453125,-71.2190856934
1511972184010841675,,1053,,1511972184,10504961,103,,110.204452515,225.309814453,-66.4319610596
1511972184028968795,,1054,,1511972184,28511047,96,,-105.184631348,229.638916016,108.586303711
1511972184029287903,,1055,,1511972184,28703927,97,,108.717384338,224.197998047,111.901573181
1511972184029417319,,1056,,1511972184,28928995,98,,-57.1360702515,227.768066406,260.568267822
1511972184029811888,,1057,,1511972184,29169082,99,,48.2813644409,227.587646484,259.678405762
1511972184029839008,,1058,,1511972184,29366970,100,,-79.279006958,227.400390625,-235.580535889
1511972184030146224,,1059,,1511972184,29501914,101,,106.392181396,232.892822266,-223.033996582
1511972184030161328,,1060,,1511972184,29680013,102,,-103.788421631,227.046142578,-71.2604522705
1511972184030168034,,1061,,1511972184,29850006,103,,110.276351929,225.568847656,-66.440322876
1511972184048233062,,1062,,1511972184,47736883,96,,-105.332130432,229.623046875,108.533332825
1511972184049078349,,1063,,1511972184,48234939,97,,108.581977844,224.199462891,111.902084351
1511972184049094774,,1064,,1511972184,48578977,98,,-57.3322296143,227.708496094,260.57421875
1511972184049122906,,1065,,1511972184,48749923,99,,48.1455078125,227.623291016,259.655151367
1511972184049443332,,1066,,1511972184,49129009,100,,-79.480682373,227.401367188,-235.672210693
1511972184049697803,,1067,,1511972184,49374103,101,,106.180274963,232.826904297,-222.980987549
1511972184049998631,,1068,,1511972184,49612045,102,,-103.952644348,226.966064453,-71.2810058594
1511972184050230164,,1069,,1511972184,49804925,103,,110.145568848,225.564697266,-66.5132751465
1511972184067762226,,1070,,1511972184,67404031,96,,-105.632301331,229.397705078,108.524475098
1511972184068142820,,1071,,1511972184,67648887,97,,108.347488403,223.977783203,111.874465942
1511972184068475377,,1072,,1511972184,67851066,98,,-57.6653823853,227.425292969,260.536132812
1511972184068508393,,1073,,1511972184,68032979,99,,47.8894424438,227.347412109,259.661376953
1511972184068544377,,1074,,1511972184,68207025,100,,-79.8417129517,227.146972656,-235.627166748
1511972184069003158,,1075,,1511972184,68372964,101,,105.917663574,232.655273438,-222.976867676
1511972184069019320,,1076,,1511972184,68594932,102,,-104.270271301,226.716308594,-71.3348236084
1511972184069238072,,1077,,1511972184,68712949,103,,109.733566284,225.16015625,-66.5205993652
1511972184087694410,,1078,,1511972184,87188959,96,,-105.582046509,229.291748047,108.502578735
1511972184087711548,,1079,,1511972184,87383985,97,,108.245101929,223.871582031,111.803016663
1511972184088313194,,1080,,1511972184,87697029,98,,-57.6932220459,227.328125,260.541931152
1511972184088762682,,1081,,1511972184,87826013,99,,47.8581733704,227.302978516,259.611755371
1511972184088786508,,1082,,1511972184,87938070,100,,-79.9352722168,227.114257812,-235.710906982
1511972184088815075,,1083,,1511972184,88049888,101,,105.903648376,232.512207031,-222.922790527
1511972184088890243,,1084,,1511972184,88279962,102,,-104.342140198,226.568115234,-71.3712615967
1511972184088959548,,1085,,1511972184,88432073,103,,109.664901733,224.653076172,-66.2709655762
1511972184108096212,,1086,,1511972184,107254028,96,,-105.379074097,229.335205078,108.485427856
1511972184108616455,,1087,,1511972184,107496023,97,,108.505393982,223.951416016,111.815673828
1511972184108640371,,1088,,1511972184,107705116,98,,-57.5171890259,227.44921875,260.49597168
1511972184108660713,,1089,,1511972184,107933998,99,,48.1141586304,227.271972656,259.555664062
1511972184108683189,,1090,,1511972184,108089923,100,,-79.6195220947,227.123046875,-235.742340088
1511972184108696850,,1091,,1511972184,108203887,101,,106.206115723,232.626953125,-222.943817139
1511972184108789917,,1092,,1511972184,108323097,102,,-104.136764526,226.7109375,-71.3776397705
1511972184109054868,,1093,,1511972184,108805894,103,,109.959823608,225.155273438,-66.5207824707
1511972184127565120,,1094,,1511972184,126821994,96,,-105.148590088,229.443359375,108.442520142
1511972184127600391,,1095,,1511972184,127022981,97,,108.759399414,224.140869141,111.853530884
1511972184127613057,,1096,,1511972184,127245903,98,,-57.1800308228,227.568359375,260.503540039
1511972184127794373,,1097,,1511972184,127564907,99,,48.2024269104,227.497314453,259.62310791
1511972184128079683,,1098,,1511972184,127789020,100,,-79.2333755493,227.284912109,-235.718261719
1511972184128575479,,1099,,1511972184,127999067,101,,106.484199524,232.847167969,-222.959716797
1511972184128601369,,1100,,1511972184,128165960,102,,-103.835639954,226.864013672,-71.337677002
1511972184128635364,,1101,,1511972184,128355979,103,,110.198951721,225.502685547,-66.4731445312
1511972184147202304,,1102,,1511972184,146583080,96,,-105.218605042,229.500488281,108.577758789
1511972184147347669,,1103,,1511972184,146763086,97,,108.628303528,224.033203125,111.821289062
1511972184147359071,,1104,,1511972184,146918058,98,,-57.1438598633,227.688476562,260.586181641
1511972184147401098,,1105,,1511972184,147093057,99,,48.2807846069,227.441650391,259.657836914
1511972184147857112,,1106,,1511972184,147289037,100,,-79.34034729,227.243164062,-235.585632324
1511972184147874535,,1107,,1511972184,147442102,101,,106.461380005,232.890625,-222.928070068
1511972184148059660,,1108,,1511972184,147607088,102,,-103.771339417,226.916015625,-71.2237854004
1511972184148779519,,1109,,1511972184,147789955,103,,110.290504456,225.485351562,-66.442565918
1511972184167634988,,1110,,1511972184,166466951,96,,-105.448959351,229.347900391,108.576438904
1511972184167830401,,1111,,1511972184,166646957,97,,108.430015564,223.928466797,111.972320557
1511972184167854456,,1112,,1511972184,166810989,98,,-57.5235519409,227.426757812,260.60736084
1511972184167875188,,1113,,1511972184,166930913,99,,48.0920333862,227.365722656,259.746154785
1511972184167886555,,1114,,1511972184,167054891,100,,-79.6161346436,227.065429688,-235.56161499
1511972184167912414,,1115,,1511972184,167181015,101,,106.359176636,232.98046875,-222.959472656
1511972184167937996,,1116,,1511972184,167345046,102,,-104.171684265,226.695068359,-71.2284088135
1511972184167952844,,1117,,1511972184,167527914,103,,110.063316345,225.347900391,-66.4132385254
1511972184186819828,,1118,,1511972184,186095952,96,,-105.457504272,229.379882812,108.654632568
1511972184187268207,,1119,,1511972184,186264038,97,,108.326545715,223.862548828,111.894729614
1511972184187279497,,1120,,1511972184,186389923,98,,-57.6630783081,227.322998047,260.572937012
1511972184187348457,,1121,,1511972184,186558008,99,,47.8931427002,227.202880859,259.711914062
1511972184187431554,,1122,,1511972184,186737060,100,,-79.6790618896,227.090087891,-235.509246826
1511972184188004394,,1123,,1511972184,186882972,101,,106.051826477,232.609130859,-222.75088501
1511972184188036151,,1124,,1511972184,186996936,102,,-104.313568115,226.559326172,-71.316192627
1511972184188049986,,1125,,1511972184,187107086,103,,109.752044678,225.084472656,-66.4297180176
1511972184206453947,,1126,,1511972184,205847978,96,,-105.557937622,229.350830078,108.580856323
1511972184206740434,,1127,,1511972184,206018924,97,,108.385154724,223.953613281,111.893035889
1511972184207296411,,1128,,1511972184,206157922,98,,-57.5658416748,227.453613281,260.547546387
1511972184207343301,,1129,,1511972184,206404924,99,,47.9253959656,227.291015625,259.674865723
1511972184207358292,,1130,,1511972184,206656932,100,,-79.7939987183,227.072753906,-235.628540039
1511972184207371806,,1131,,1511972184,206793069,101,,105.975448608,232.578613281,-222.838897705
1511972184207428289,,1132,,1511972184,206912040,102,,-104.173278809,226.686035156,-71.3173828125
1511972184207453779,,1133,,1511972184,207025051,103,,109.766830444,225.129882812,-66.4276733398
1511972184226624985,,1134,,1511972184,225807905,96,,-105.337188721,229.572265625,108.52684021
1511972184226894943,,1135,,1511972184,225996971,97,,108.571670532,224.097412109,111.838699341
1511972184226923269,,1136,,1511972184,226142883,98,,-57.3105545044,227.662109375,260.503387451
1511972184226956380,,1137,,1511972184,226332902,99,,48.1635665894,227.495605469,259.617340088
1511972184227552519,,1138,,1511972184,226636886,100,,-79.4604721069,227.349609375,-235.643280029
1511972184227577507,,1139,,1511972184,227022886,101,,106.13004303,232.675292969,-222.954650879
1511972184227587916,,1140,,1511972184,227196931,102,,-103.962249756,226.884765625,-71.3468170166
1511972184227881352,,1141,,1511972184,227371931,103,,110.054336548,225.44140625,-66.4339904785
1511972184245952656,,1142,,1511972184,245637893,96,,-105.234397888,229.529541016,108.481880188
1511972184246373065,,1143,,1511972184,245858907,97,,108.685401917,224.135742188,111.830444336
1511972184246404973,,1144,,1511972184,246001005,98,,-57.245765686,227.643798828,260.475952148
1511972184246416857,,1145,,1511972184,246157884,99,,48.2607421875,227.401611328,259.667877197
1511972184246749826,,1146,,1511972184,246493101,100,,-79.3645629883,227.308837891,-235.686065674
1511972184247251099,,1147,,1511972184,246701002,101,,106.391975403,232.76953125,-223.031982422
1511972184247280530,,1148,,1511972184,246825933,102,,-103.901245117,226.874755859,-71.3669433594
1511972184247302351,,1149,,1511972184,246970891,103,,110.201347351,225.144775391,-66.3917541504
1511972184266000580,,1150,,1511972184,265419006,96,,-105.289665222,229.406494141,108.498672485
1511972184266034792,,1151,,1511972184,265592098,97,,108.600746155,223.987792969,111.82283783
1511972184266049680,,1152,,1511972184,265748023,98,,-57.3164291382,227.489746094,260.508056641
1511972184266330251,,1153,,1511972184,265938997,99,,48.0703086853,227.405761719,259.66519165
1511972184266581951,,1154,,1511972184,266112089,100,,-79.4342727661,227.097900391,-235.633483887
1511972184266615042,,1155,,1511972184,266308069,101,,106.482131958,232.849609375,-223.027801514
1511972184266758737,,1156,,1511972184,266518115,102,,-103.942024231,226.753662109,-71.3488311768
1511972184267021326,,1157,,1511972184,266694068,103,,109.953361511,225.205566406,-66.502822876
1511972184287287017,,1158,,1511972184,286781072,96,,-105.497657776,229.418945312,108.62676239
1511972184287318870,,1159,,1511972184,286957025,97,,108.541152954,223.918701172,111.851348877
1511972184287333277,,1160,,1511972184,287091016,98,,-57.447555542,227.389892578,260.511749268
1511972184288104258,,1161,,1511972184,287292957,99,,48.1380271912,227.299560547,259.674835205
1511972184288148889,,1162,,1511972184,287580013,100,,-79.7261734009,227.139648438,-235.508911133
1511972184288161425,,1163,,1511972184,287739992,101,,106.338745117,232.700195312,-222.914031982
1511972184288327816,,1164,,1511972184,287868022,102,,-104.088752747,226.608154297,-71.365020752
1511972184289253245,,1165,,1511972184,288275957,103,,109.991851807,225.053955078,-66.5414733887
1511972184305886179,,1166,,1511972184,305406093,96,,-105.381385803,229.397460938,108.585716248
1511972184305903841,,1167,,1511972184,305572032,97,,108.496482849,223.966552734,111.90272522
1511972184306390170,,1168,,1511972184,305700063,98,,-57.4411849976,227.430175781,260.535858154
1511972184306420880,,1169,,1511972184,305959939,99,,48.0624847412,227.306396484,259.67010498
1511972184306660950,,1170,,1511972184,306134939,100,,-79.6112060547,227.150878906,-235.611541748
1511972184306919187,,1171,,1511972184,306282997,101,,106.214385986,232.704589844,-222.95916748
1511972184306947330,,1172,,1511972184,306472063,102,,-104.03792572,226.733154297,-71.318939209
1511972184306966383,,1173,,1511972184,306612014,103,,109.98210907,225.201904297,-66.4452972412
1511972184325269751,,1174,,1511972184,324784994,96,,-105.413513184,229.459472656,108.516433716
1511972184325453209,,1175,,1511972184,324974060,97,,108.561645508,224.118164062,111.862442017
1511972184326049678,,1176,,1511972184,325180053,98,,-57.3260192871,227.656005859,260.530944824
1511972184326174223,,1177,,1511972184,325556993,99,,48.1020507812,227.467529297,259.605255127
1511972184326697163,,1178,,1511972184,325767993,100,,-79.6170959473,227.245605469,-235.666931152
1511972184326725735,,1179,,1511972184,325968027,101,,106.013221741,232.446533203,-222.820495605
1511972184326739870,,1180,,1511972184,326224088,102,,-103.951049805,226.920654297,-71.3338928223
1511972184327406766,,1181,,1511972184,326420068,103,,110.073616028,225.420898438,-66.4711456299
1511972184344846964,,1182,,1511972184,344495058,96,,-105.365463257,229.538574219,108.475852966
1511972184345719455,,1183,,1511972184,344732999,97,,108.442489624,224.043457031,111.789199829
1511972184346074646,,1184,,1511972184,344877004,98,,-57.3994598389,227.604003906,260.47769165
1511972184346110818,,1185,,1511972184,344988107,99,,48.1006736755,227.508544922,259.636962891
1511972184346127298,,1186,,1511972184,345094919,100,,-79.564956665,227.299072266,-235.70980835
1511972184346785144,,1187,,1511972184,345187902,101,,105.990768433,232.635742188,-222.921112061
1511972184346806781,,1188,,1511972184,345293045,102,,-104.029434204,226.880126953,-71.3763885498
1511972184346862949,,1189,,1511972184,345632076,103,,109.983177185,225.404052734,-66.4240112305
1511972184364692052,,1190,,1511972184,364167928,96,,-105.303581238,229.482666016,108.541366577
1511972184365376719,,1191,,1511972184,364630937,97,,108.661026001,224.173339844,111.817367554
1511972184365418653,,1192,,1511972184,364840984,98,,-57.4211654663,227.503173828,260.564697266
1511972184365787918,,1193,,1511972184,364979028,99,,48.1753005981,227.375976562,259.63470459
1511972184365823097,,1194,,1511972184,365092992,100,,-79.495803833,227.258544922,-235.676940918
1511972184365838286,,1195,,1511972184,365449905,101,,106.191734314,232.684326172,-222.848937988
1511972184366542654,,1196,,1511972184,365819931,102,,-104.031570435,226.771240234,-71.2993774414
1511972184366567546,,1197,,1511972184,366112947,103,,109.985733032,225.291259766,-66.5505218506
1511972184385837750,,1198,,1511972184,384838104,96,,-105.367370605,229.349853516,108.572860718
1511972184385879109,,1199,,1511972184,385056972,97,,108.536521912,223.978515625,111.889686584
1511972184385908912,,1200,,1511972184,385204076,98,,-57.4140396118,227.463623047,260.568847656
1511972184385967825,,1201,,1511972184,385334968,99,,48.18201828,227.318603516,259.707550049
1511972184385984215,,1202,,1511972184,385457038,100,,-79.539276123,227.122802734,-235.616241455
1511972184386326417,,1203,,1511972184,385668039,101,,106.345855713,232.771240234,-222.878601074
1511972184386610321,,1204,,1511972184,386027097,102,,-104.047080994,226.737304688,-71.2668762207
1511972184386638776,,1205,,1511972184,386271953,103,,110.036651611,225.169433594,-66.4698181152
1511972184405034124,,1206,,1511972184,404208898,96,,-105.353561401,229.329101562,108.618103027
1511972184405081430,,1207,,1511972184,404478073,97,,108.529823303,223.917236328,111.896759033
1511972184405112710,,1208,,1511972184,404633998,98,,-57.4199829102,227.443603516,260.57824707
1511972184405702569,,1209,,1511972184,405030012,99,,48.1655502319,227.263916016,259.717529297
1511972184405734276,,1210,,1511972184,405292034,100,,-79.5288848877,227.079589844,-235.547637939
1511972184405778770,,1211,,1511972184,405473947,101,,106.396179199,232.817138672,-222.871063232
1511972184406316089,,1212,,1511972184,405795097,102,,-104.054962158,226.704589844,-71.2819061279
1511972184406346239,,1213,,1511972184,405982017,103,,110.074272156,225.15625,-66.4621276855
1511972184426488457,,1214,,1511972184,425661087,96,,-105.346870422,229.409179688,108.557891846
1511972184426532241,,1215,,1511972184,425909996,97,,108.547424316,224.036132812,111.903182983
1511972184426582161,,1216,,1511972184,426069021,98,,-57.3341674805,227.577880859,260.554016113
1511972184426985028,,1217,,1511972184,426517009,99,,48.1494674683,227.357910156,259.6690979
