rosbagTimestamp,header,seq,stamp,secs,nsecs,frame_id,pose,position,x,y,z,orientation,x,y,z,w
1510963419464674176,,1,,1510963419,463244915,0,,,1794.36022949,215.045898438,-14.6349868774,,-0.00673991441727,0.813391208649,0.0132172033191,-0.58152782917
1510963419490022144,,2,,1510963419,485426902,0,,,1794.34790039,215.024658203,-14.5798110962,,-0.00691917538643,0.813362002373,0.0133713148534,-0.581563055515
1510963419503337717,,3,,1510963419,502477884,0,,,1794.27319336,214.869140625,-14.5208511353,,-0.00682206451893,0.813247740269,0.0133447162807,-0.581724524498
1510963419523095738,,4,,1510963419,522329092,0,,,1794.17614746,214.619140625,-14.4165725708,,-0.00646106898785,0.813167214394,0.013128772378,-0.581846177578
1510963419542482926,,5,,1510963419,541752099,0,,,1794.13391113,214.499511719,-14.4424514771,,-0.00658948719501,0.813171088696,0.0130669362843,-0.581840753555
1510963419565760269,,6,,1510963419,562648057,0,,,1794.24829102,214.603027344,-14.5479812622,,-0.00650243461132,0.81324750185,0.0130763314664,-0.581734716892
1510963419585061051,,7,,1510963419,583148002,0,,,1794.33666992,214.774414062,-14.5976028442,,-0.00691413879395,0.813362360001,0.0134153403342,-0.581561565399
1510963419603586103,,8,,1510963419,602066993,0,,,1794.43603516,214.881835938,-14.5860977173,,-0.00701510906219,0.813368201256,0.013451166451,-0.58155143261
1510963419622852978,,9,,1510963419,621490001,0,,,1794.35705566,214.83984375,-14.5625991821,,-0.00682380795479,0.81323492527,0.0131191536784,-0.581747531891
1510963419642145061,,10,,1510963419,641273021,0,,,1794.21984863,214.687744141,-14.4817581177,,-0.00654503703117,0.813168883324,0.0129825882614,-0.581846177578
1510963419664264905,,11,,1510963419,662647008,0,,,1794.12683105,214.592773438,-14.4614334106,,-0.00640591979027,0.813159108162,0.0129975117743,-0.58186095953
1510963419686082821,,12,,1510963419,683518886,0,,,1794.21496582,214.6640625,-14.5253372192,,-0.0065570473671,0.81326508522,0.0130751654506,-0.581709504128
1510963419704971624,,13,,1510963419,701564073,0,,,1794.33374023,214.721679688,-14.6011734009,,-0.00675190985203,0.813276350498,0.0133390277624,-0.58168554306
1510963419722234384,,14,,1510963419,721148014,0,,,1794.38220215,214.7265625,-14.5870742798,,-0.00692345201969,0.813388168812,0.013263836503,-0.581528782845
1510963419741790894,,15,,1510963419,740415096,0,,,1794.35180664,214.697265625,-14.5602798462,,-0.00696934759617,0.813359260559,0.0133065730333,-0.581567883492
1510963419760854488,,16,,1510963419,759846925,0,,,1794.26745605,214.655517578,-14.4953994751,,-0.00679311156273,0.813276708126,0.0132211111486,-0.58168721199
1510963419782570426,,17,,1510963419,780183076,0,,,1794.15124512,214.627929688,-14.4589920044,,-0.00651809573174,0.813182353973,0.0131435096264,-0.581823945045
1510963419807893082,,18,,1510963419,805768966,0,,,1794.11584473,214.659179688,-14.4767227173,,-0.00640632212162,0.81323415041,0.0131709426641,-0.581752240658
1510963419822027353,,19,,1510963419,819627046,0,,,1794.23278809,214.854248047,-14.5261917114,,-0.00669078528881,0.813306093216,0.0131947174668,-0.581647872925
1510963419842207405,,20,,1510963419,840426921,0,,,1794.39550781,215.017578125,-14.5268630981,,-0.00698056817055,0.813317775726,0.013324778527,-0.58162522316
1510963419864793759,,21,,1510963419,860635042,0,,,1794.45019531,214.983154297,-14.5411758423,,-0.00671797990799,0.813339352608,0.0132955312729,-0.581598818302
1510963419880412561,,22,,1510963419,878729104,0,,,1794.31982422,214.801025391,-14.5570449829,,-0.00659736990929,0.813236117363,0.0132579095662,-0.581745505333
1510963419905365321,,23,,1510963419,903712987,0,,,1794.19177246,214.674560547,-14.582649231,,-0.00655861198902,0.813262104988,0.0132307521999,-0.581710100174
1510963419920373863,,24,,1510963419,918694019,0,,,1794.13867188,214.586181641,-14.6391372681,,-0.00650145113468,0.81323415041,0.0132375881076,-0.581749737263
1510963419939073967,,25,,1510963419,937880039,0,,,1794.26269531,214.591064453,-14.6200637817,,-0.00669938325882,0.813229799271,0.013430532068,-0.581749081612
1510963419961328186,,26,,1510963419,958946943,0,,,1794.36499023,214.746826172,-14.4800186157,,-0.00658588111401,0.813338339329,0.0132330097258,-0.581603169441
1510963419991520946,,27,,1510963419,978311061,0,,,1794.40124512,214.902832031,-14.3962478638,,-0.00685077905655,0.813299715519,0.0132016129792,-0.581654787064
1510963420000104905,,28,,1510963419,997931003,0,,,1794.30761719,214.810791016,-14.38306427,,-0.0068171620369,0.813291311264,0.0133731625974,-0.581663012505
1510963420018422717,,29,,1510963420,17374038,0,,,1794.17834473,214.678466797,-14.4493484497,,-0.00677105784416,0.813261985779,0.013368435204,-0.581704676151
1510963420038192717,,30,,1510963420,37107944,0,,,1794.11730957,214.628662109,-14.5330581665,,-0.00664755702019,0.813236236572,0.0132170133293,-0.581745564938
1510963420058000946,,31,,1510963420,56760072,0,,,1794.15686035,214.593505859,-14.5362319946,,-0.00651805102825,0.813236415386,0.0131344199181,-0.581748723984
1510963420085441832,,32,,1510963420,82973003,0,,,1794.27111816,214.669433594,-14.5534133911,,-0.00660018622875,0.813298225403,0.0131422169507,-0.581661224365
1510963420105737040,,33,,1510963420,103317022,0,,,1794.33642578,214.813964844,-14.5742874146,,-0.00668023526669,0.813325822353,0.0131506286561,-0.581621348858
1510963420118253863,,34,,1510963420,116554975,0,,,1794.29040527,214.863525391,-14.6402664185,,-0.00673431158066,0.81328868866,0.0131444260478,-0.581673026085
1510963420136628238,,35,,1510963420,135827064,0,,,1794.21606445,214.729248047,-14.5814590454,,-0.00663791596889,0.81331372261,0.0132643245161,-0.581636250019
1510963420155941988,,36,,1510963420,155154943,0,,,1794.12731934,214.654052734,-14.5276870728,,-0.00643049180508,0.813260197639,0.0131507478654,-0.581716001034
1510963420177698030,,37,,1510963420,176009893,0,,,1794.19030762,214.778564453,-14.4747390747,,-0.00638699531555,0.813240468502,0.0128927640617,-0.581750035286
1510963420204106259,,38,,1510963420,201972961,0,,,1794.23962402,214.811035156,-14.4307937622,,-0.00665850937366,0.813212156296,0.0133796818554,-0.581775486469
1510963420217883967,,39,,1510963420,215590953,0,,,1794.31726074,214.870605469,-14.3558731079,,-0.00671291351318,0.813288331032,0.0134646482766,-0.581666350365
1510963420236896467,,40,,1510963420,235109090,0,,,1794.29174805,214.845214844,-14.4718704224,,-0.00681254267693,0.813326776028,0.0134553052485,-0.581611633301
1510963420256328030,,41,,1510963420,254733085,0,,,1794.24645996,214.708984375,-14.5925369263,,-0.00657266378403,0.813328266144,0.0132771618664,-0.581616342068
1510963420284237040,,42,,1510963420,281796932,0,,,1794.23046875,214.608642578,-14.6797866821,,-0.0062752366066,0.813279867172,0.0129443965852,-0.581694960594
1510963420305620790,,43,,1510963420,303092002,0,,,1794.20349121,214.602294922,-14.6613235474,,-0.00627268850803,0.813269078732,0.013152141124,-0.581705272198
1510963420317973759,,44,,1510963420,315952062,0,,,1794.31616211,214.805664062,-14.5830764771,,-0.00620239973068,0.813269615173,0.0128494463861,-0.581712067127
1510963420341228655,,45,,1510963420,337218046,0,,,1794.34155273,214.897949219,-14.4403457642,,-0.00679638981819,0.813287913799,0.0133210793138,-0.581669092178
1510963420355283655,,46,,1510963420,353858947,0,,,1794.24633789,214.894042969,-14.460609436,,-0.00657805800438,0.813282191753,0.0133055783808,-0.581680059433
1510963420375691988,,47,,1510963420,374085903,0,,,1794.14978027,214.786132812,-14.5690078735,,-0.0065380781889,0.813267230988,0.0133216828108,-0.581701159477
1510963420409889175,,48,,1510963420,395576000,0,,,1794.13708496,214.645507812,-14.550819397,,-0.00655202567577,0.813260555267,0.0132103525102,-0.581712841988
1510963420419804540,,49,,1510963420,415400981,0,,,1794.21203613,214.579589844,-14.5398635864,,-0.0065221786499,0.813193440437,0.013178229332,-0.581807613373
1510963420434462040,,50,,1510963420,433144092,0,,,1794.30603027,214.629150391,-14.5080337524,,-0.00656162202358,0.813258528709,0.01324730739,-0.581714749336
1510963420453862196,,51,,1510963420,452879905,0,,,1794.28271484,214.643066406,-14.4955825806,,-0.00655843317509,0.81333398819,0.013249322772,-0.58160918951
1510963420475278498,,52,,1510963420,473469018,0,,,1794.21557617,214.697021484,-14.5865859985,,-0.00677195191383,0.813282251358,0.0132609903812,-0.581678748131
1510963420503266884,,53,,1510963420,499099969,0,,,1794.1628418,214.739257812,-14.6769790649,,-0.00652036070824,0.813326716423,0.0133039020002,-0.581618487835
1510963420514882977,,54,,1510963420,512705087,0,,,1794.12976074,214.752441406,-14.6512527466,,-0.00628554821014,0.813196480274,0.0131637230515,-0.581806361675
1510963420533119957,,55,,1510963420,531775951,0,,,1794.24255371,214.751464844,-14.5476760864,,-0.00642767548561,0.813245177269,0.0131697803736,-0.581736564636
1510963420552986102,,56,,1510963420,551729917,0,,,1794.34606934,214.783691406,-14.4873123169,,-0.00652959942818,0.813201844692,0.0133116208017,-0.58179295063
1510963420572560477,,57,,1510963420,571329116,0,,,1794.36181641,214.871582031,-14.411567688,,-0.00666606426239,0.813254117966,0.0134387984872,-0.581715404987
1510963420593100946,,58,,1510963420,591476917,0,,,1794.25720215,214.908691406,-14.481880188,,-0.00675868988037,0.813315570354,0.0136102512479,-0.58162432909
1510963420611568082,,59,,1510963420,610667943,0,,,1794.12609863,214.791503906,-14.5959854126,,-0.00677299499512,0.813238084316,0.0134484991431,-0.581736147404
1510963420631347404,,60,,1510963420,630465984,0,,,1794.08959961,214.575683594,-14.5836257935,,-0.00648295879364,0.813266813755,0.0132696703076,-0.581703424454
1510963420651454436,,61,,1510963420,650228023,0,,,1794.13098145,214.469482422,-14.5468215942,,-0.00641272962093,0.813264667988,0.0132318660617,-0.581708073616
1510963420672151832,,62,,1510963420,670707941,0,,,1794.32678223,214.608398438,-14.5449905396,,-0.00659929215908,0.813300609589,0.0131661444902,-0.581657171249
1510963420692697456,,63,,1510963420,690689086,0,,,1794.36364746,214.742431641,-14.5453567505,,-0.00670808553696,0.813364446163,0.0136316642165,-0.581556200981
1510963420712711259,,64,,1510963420,711395978,0,,,1794.35778809,214.947753906,-14.5499649048,,-0.00630252063274,0.813206970692,0.0126520805061,-0.581802845001
1510963420731045842,,65,,1510963420,729970932,0,,,1794.08703613,214.781738281,-14.5195999146,,-0.00650654733181,0.813346982002,0.013044424355,-0.581596255302
1510963420750342248,,66,,1510963420,749370098,0,,,1794.00634766,214.686767578,-14.5372390747,,-0.00643607974052,0.813259124756,0.0130325630307,-0.581720232964
1510963420770658550,,67,,1510963420,769498109,0,,,1794.08959961,214.640380859,-14.513710022,,-0.0062565356493,0.813196480274,0.0129370726645,-0.581811845303
1510963420790311988,,68,,1510963420,789094924,0,,,1794.2454834,214.652832031,-14.5100784302,,-0.00647920370102,0.813251197338,0.0132142566144,-0.581726610661
1510963420811701050,,69,,1510963420,810244083,0,,,1794.37597656,214.801269531,-14.5592727661,,-0.00639648735523,0.813314497471,0.0131591893733,-0.581640422344
1510963420833133759,,70,,1510963420,829550027,0,,,1794.29321289,214.848144531,-14.5914993286,,-0.00669853389263,0.813362598419,0.0132914148271,-0.581566572189
1510963420849777040,,71,,1510963420,848248958,0,,,1794.16906738,214.796630859,-14.5479812622,,-0.00650857388973,0.813342571259,0.0132822841406,-0.581596970558
1510963420869505061,,72,,1510963420,867933988,0,,,1794.05554199,214.745605469,-14.534614563,,-0.00650210678577,0.813294529915,0.0133691467345,-0.58166217804
1510963420893004696,,73,,1510963420,888619899,0,,,1794.08105469,214.772216797,-14.5133132935,,-0.00638143718243,0.813227117062,0.0132715404034,-0.581759989262
1510963420910432456,,74,,1510963420,908797979,0,,,1794.24621582,214.8359375,-14.5177993774,,-0.0063241571188,0.813175976276,0.0133050195873,-0.581831455231
1510963420928120217,,75,,1510963420,927326917,0,,,1794.41809082,214.951904297,-14.5009231567,,-0.00649127364159,0.813229858875,0.0132773034275,-0.581754863262
1510963420950197508,,76,,1510963420,949428081,0,,,1794.37609863,214.998535156,-14.523475647,,-0.00664690136909,0.81330370903,0.0134632401168,-0.581645727158
1510963420970161883,,77,,1510963420,967972993,0,,,1794.22961426,214.930175781,-14.5480728149,,-0.00661289691925,0.813303291798,0.013450153172,-0.58164691925
1510963420989505998,,78,,1510963420,987377882,0,,,1794.09399414,214.716552734,-14.5389785767,,-0.00646255910397,0.81330037117,0.0132735781372,-0.581656813622
1510963421012258758,,79,,1510963421,7734060,0,,,1794.08447266,214.587158203,-14.5785293579,,-0.00605064630508,0.813229858875,0.012971971184,-0.581766545773
1510963421026489383,,80,,1510963421,26058912,0,,,1794.22912598,214.542480469,-14.6637039185,,-0.00627028942108,0.813188195229,0.0127739571035,-0.581826806068
1510963421046192769,,81,,1510963421,45700073,0,,,1794.31213379,214.608886719,-14.6189346313,,-0.00625552237034,0.813185811043,0.0127201713622,-0.581831455231
1510963421068284488,,82,,1510963421,67224025,0,,,1794.3079834,214.704101562,-14.5351638794,,-0.0066639482975,0.81331807375,0.0134561248124,-0.581625461578
1510963421087677977,,83,,1510963421,86585998,0,,,1794.22851562,214.780029297,-14.4807510376,,-0.00673796236515,0.813363850117,0.013450615108,-0.581560730934
1510963421108618498,,84,,1510963421,107219934,0,,,1794.13598633,214.757080078,-14.5018997192,,-0.00652559101582,0.813306808472,0.0132199041545,-0.581648230553
1510963421127739592,,85,,1510963421,126879930,0,,,1794.0637207,214.658447266,-14.5361404419,,-0.00627586245537,0.813249707222,0.0129266344011,-0.581737399101
1510963421146778758,,86,,1510963421,145849943,0,,,1794.04626465,214.565673828,-14.5295791626,,-0.00611162185669,0.813191533089,0.0129598043859,-0.58181977272
1510963421166640685,,87,,1510963421,165540933,0,,,1794.18408203,214.680908203,-14.5134963989,,-0.0064299851656,0.81328368187,0.0131977126002,-0.5816822052
1510963421186047196,,88,,1510963421,185199022,0,,,1794.32800293,214.779296875,-14.5547866821,,-0.00657737255096,0.813290655613,0.0134278312325,-0.58166539669
1510963421211413342,,89,,1510963421,205475091,0,,,1794.38928223,214.873779297,-14.605506897,,-0.00649479031563,0.813387155533,0.0134557448328,-0.581530749798
1510963421226309279,,90,,1510963421,225100040,0,,,1794.26818848,214.846679688,-14.6263504028,,-0.0066325366497,0.813371539116,0.0134998708963,-0.581550002098
1510963421245477665,,91,,1510963421,243951082,0,,,1794.1126709,214.802490234,-14.5718154907,,-0.00623695552349,0.813268601894,0.01301888749,-0.581709265709
1510963421264801779,,92,,1510963421,263746023,0,,,1794.02172852,214.687988281,-14.5173416138,,-0.00618349015713,0.813192248344,0.0132928788662,-0.581810534
1510963421285112508,,93,,1510963421,283556938,0,,,1794.125,214.638427734,-14.4970779419,,-0.00633253157139,0.81317460537,0.0134990625083,-0.581828773022
1510963421307371310,,94,,1510963421,305155992,0,,,1794.28015137,214.783691406,-14.4810562134,,-0.00605639815331,0.813270568848,0.013038277626,-0.581708133221
1510963421327926779,,95,,1510963421,324736118,0,,,1794.3659668,214.807617188,-14.5276870728,,-0.00664907693863,0.81336992979,0.0132952444255,-0.581556737423
1510963421343932665,,96,,1510963421,342885017,0,,,1794.44018555,214.894042969,-14.6307144165,,-0.00630055367947,0.813295602798,0.0128443986177,-0.581674933434
1510963421363952560,,97,,1510963421,362922906,0,,,1794.16955566,214.695068359,-14.6240921021,,-0.0063208937645,0.813342988491,0.013071089983,-0.581603288651
1510963421383314279,,98,,1510963421,382369041,0,,,1793.95385742,214.522216797,-14.6203689575,,-0.00624753534794,0.813276827335,0.0130139030516,-0.581697940826
1510963421404621102,,99,,1510963421,403434038,0,,,1793.94104004,214.429443359,-14.5844192505,,-0.00600354373455,0.813201665878,0.0129094868898,-0.581807911396
1510963421429886310,,100,,1510963421,423713922,0,,,1794.14587402,214.485595703,-14.540687561,,-0.00615212321281,0.813247203827,0.0129764080048,-0.581741213799
1510963421450242144,,101,,1510963421,444380998,0,,,1794.36804199,214.692382812,-14.5269241333,,-0.00644654035568,0.813297986984,0.0130949653685,-0.581664264202
1510963421463482769,,102,,1510963421,462160110,0,,,1794.3873291,214.936523438,-14.4637527466,,-0.00669656693935,0.813542962074,0.0132027342916,-0.581316351891
1510963421483257821,,103,,1510963421,481952905,0,,,1794.14880371,214.820556641,-14.5346450806,,-0.00643920898438,0.813328325748,0.0135519057512,-0.581611514091
1510963421516316310,,104,,1510963421,514890909,0,,,1793.9753418,214.639648438,-14.5351028442,,-0.00616353750229,0.813243806362,0.0133890919387,-0.581736326218
1510963421530630894,,105,,1510963421,528393983,0,,,1793.9888916,214.544189453,-14.5116958618,,-0.0061722099781,0.813203752041,0.0132766216993,-0.581794917583
1510963421542357977,,106,,1510963421,541273117,0,,,1794.15270996,214.604248047,-14.5401687622,,-0.00596049427986,0.813136458397,0.0131564363837,-0.581893920898
1510963421562225477,,107,,1510963421,561033010,0,,,1794.38122559,214.784667969,-14.6093826294,,-0.00620657205582,0.813254594803,0.0132737644017,-0.581723511219
1510963421582175946,,108,,1510963421,580523014,0,,,1794.46533203,214.939208984,-14.6530532837,,-0.00663644075394,0.813336074352,0.0135674625635,-0.581598103046
1510963421604428550,,109,,1510963421,601412057,0,,,1794.31091309,214.929443359,-14.674659729,,-0.00643037259579,0.81338506937,0.0135962292552,-0.581531047821
1510963421623411362,,110,,1510963421,621340990,0,,,1794.06750488,214.738525391,-14.6434402466,,-0.00614987313747,0.813286781311,0.0132263489068,-0.581680059433
1510963421641413394,,111,,1510963421,639861106,0,,,1793.9786377,214.521240234,-14.5235366821,,-0.00580900907516,0.81317281723,0.0129731930792,-0.581848621368
1510963421660206883,,112,,1510963421,659445047,0,,,1794.10046387,214.505371094,-14.4616165161,,-0.0057288557291,0.813133776188,0.0128436982632,-0.581906795502
1510963421692418289,,113,,1510963421,686063051,0,,,1794.25915527,214.684082031,-14.492805481,,-0.00644432008266,0.813228785992,0.013297829777,-0.581756353378
1510963421716251519,,114,,1510963421,711788892,0,,,1794.3338623,214.840087891,-14.5341567993,,-0.00649531185627,0.813363492489,0.0135480985045,-0.581561744213
1510963421727297248,,115,,1510963421,726366043,0,,,1794.25256348,214.758300781,-14.5467910767,,-0.00659963488579,0.813422322273,0.0134797692299,-0.581479907036
1510963421739963862,,116,,1510963421,738831996,0,,,1794.10778809,214.628173828,-14.6315078735,,-0.00618393719196,0.813305974007,0.0128962807357,-0.581660449505
1510963421759982456,,117,,1510963421,758712053,0,,,1793.94189453,214.427734375,-14.6392288208,,-0.00585612654686,0.8132391572,0.0127766430378,-0.581759750843
1510963421781337612,,118,,1510963421,779603004,0,,,1794.00964355,214.470214844,-14.6328811646,,-0.00591340661049,0.813186585903,0.0128276459873,-0.581831634045
1510963421801748602,,119,,1510963421,799396038,0,,,1794.19689941,214.662353516,-14.5562515259,,-0.0061033219099,0.813276827335,0.0132134370506,-0.581694841385
1510963421826757821,,120,,1510963421,825222015,0,,,1794.32922363,214.865722656,-14.5511550903,,-0.00657951831818,0.813291251659,0.013416800648,-0.581664919853
1510963421840364019,,121,,1510963421,838304996,0,,,1794.31921387,214.931152344,-14.5300979614,,-0.00634570419788,0.81336826086,0.0135239809752,-0.581557154655
1510963421858884071,,122,,1510963421,857855081,0,,,1794.15563965,214.866943359,-14.5187759399,,-0.00636130571365,0.813340127468,0.0133408792317,-0.581600785255
1510963421882137508,,123,,1510963421,878124952,0,,,1794.02612305,214.758300781,-14.4749221802,,-0.00603348016739,0.813251078129,0.0131929852068,-0.581732213497
1510963421898084331,,124,,1510963421,897121906,0,,,1793.99084473,214.608886719,-14.5052261353,,-0.00600503385067,0.81315612793,0.0132232159376,-0.581864535809
1510963421919772821,,125,,1510963421,917658090,0,,,1794.21362305,214.582519531,-14.5030899048,,-0.00605231523514,0.813134253025,0.013189278543,-0.581895291805
1510963421937519748,,126,,1510963421,936686038,0,,,1794.2623291,214.712646484,-14.6208267212,,-0.00634764134884,0.813333570957,0.0135078318417,-0.581606209278
1510963421957200216,,127,,1510963421,956480979,0,,,1794.3416748,214.905517578,-14.672706604,,-0.00638261437416,0.813366889954,0.0133107230067,-0.581563591957
1510963421978979123,,128,,1510963421,977250099,0,,,1794.29223633,214.962646484,-14.6456985474,,-0.00615267455578,0.813382029533,0.0132525041699,-0.581546425819
1510963422000643498,,129,,1510963421,998943090,0,,,1794.09558105,214.732177734,-14.5634841919,,-0.00602455437183,0.813251316547,0.0131353698671,-0.581733226776
1510963422031115789,,130,,1510963422,29192924,0,,,1793.9720459,214.549072266,-14.4835281372,,-0.00611861050129,0.813258707523,0.0130807720125,-0.581723213196
1510963422038333498,,131,,1510963422,37216901,0,,,1794.00219727,214.483642578,-14.4941482544,,-0.00620350241661,0.813194036484,0.0132192857563,-0.581809401512
1510963422057777143,,132,,1510963422,56037902,0,,,1794.17431641,214.624267578,-14.5268630981,,-0.006313174963,0.81328868866,0.0133075639606,-0.58167386055
1510963422077307873,,133,,1510963422,76173067,0,,,1794.27404785,214.817138672,-14.5878982544,,-0.00644317269325,0.813388943672,0.0133788585663,-0.581530630589
1510963422097074227,,134,,1510963422,95674991,0,,,1794.24450684,214.826904297,-14.5867385864,,-0.00634980201721,0.813397943974,0.0132984705269,-0.581520915031
1510963422120707873,,135,,1510963422,119292020,0,,,1794.14660645,214.7265625,-14.5514297485,,-0.00597785413265,0.81326597929,0.0128278359771,-0.58172005415
1510963422137477664,,136,,1510963422,135708093,0,,,1793.98083496,214.476074219,-14.5447769165,,-0.0058768838644,0.813276529312,0.012965939939,-0.581703126431
1510963422155811414,,137,,1510963422,154663085,0,,,1793.97961426,214.41015625,-14.5503005981,,-0.00587250292301,0.813244879246,0.0131197981536,-0.581744134426
1510963422175888654,,138,,1510963422,174602985,0,,,1794.14038086,214.674316406,-14.563911438,,-0.0062939375639,0.813218176365,0.013290591538,-0.581773102283
1510963422195083029,,139,,1510963422,194055080,0,,,1794.24853516,214.852050781,-14.6326065063,,-0.0062031596899,0.813364088535,0.0133461020887,-0.581568717957
1510963422220323862,,140,,1510963422,218851089,0,,,1794.28479004,214.944580078,-14.5557022095,,-0.00655628740788,0.813385784626,0.0135630816221,-0.5815294981
1510963422235777248,,141,,1510963422,234512090,0,,,1794.25341797,214.967285156,-14.565284729,,-0.00606706738472,0.813287734985,0.0130117461085,-0.581684529781
1510963422254534018,,142,,1510963422,253586053,0,,,1794.06958008,214.737792969,-14.4851760864,,-0.00609892606735,0.81326186657,0.0134776420891,-0.581709802151
1510963422274645893,,143,,1510963422,273346900,0,,,1794.00695801,214.603759766,-14.5060501099,,-0.00594294071198,0.813202798367,0.0132293626666,-0.58179974556
1510963422301202039,,144,,1510963422,294068098,0,,,1794.02990723,214.604248047,-14.552986145,,-0.00599472224712,0.813241899014,0.0132290758193,-0.581744551659
1510963422322350737,,145,,1510963422,314315080,0,,,1794.18701172,214.721679688,-14.6299514771,,-0.00627486407757,0.813335180283,0.0132762342691,-0.58161008358
1510963422334435893,,146,,1510963422,332948923,0,,,1794.27404785,214.790771484,-14.6437454224,,-0.00642684102058,0.813451588154,0.0135753378272,-0.581438720226
1510963422353626623,,147,,1510963422,352621078,0,,,1794.21313477,214.785644531,-14.6395339966,,-0.00633685290813,0.81344550848,0.0133727788925,-0.581452906132
1510963422373071623,,148,,1510963422,372096061,0,,,1794.11010742,214.704345703,-14.6032180786,,-0.00614930689335,0.813376307487,0.0131241977215,-0.581557273865
1510963422393696102,,149,,1510963422,392561912,0,,,1793.9864502,214.540527344,-14.4934158325,,-0.00583280622959,0.813205659389,0.0128404684365,-0.58180552721
1510963422422393706,,150,,1510963422,419919967,0,,,1793.96594238,214.497558594,-14.497718811,,-0.00595717132092,0.813212454319,0.0129135511816,-0.581793189049
1510963422433713341,,151,,1510963422,432349920,0,,,1794.03381348,214.618896484,-14.5392837524,,-0.00613537430763,0.813304901123,0.0131299607456,-0.581657111645
1510963422452927300,,152,,1510963422,452354907,0,,,1794.14099121,214.731689453,-14.5547561646,,-0.00632001459599,0.81338852644,0.0133125782013,-0.581534087658
1510963422471813081,,153,,1510963422,471205949,0,,,1794.22143555,214.784667969,-14.6468582153,,-0.00634190440178,0.813456356525,0.0133565738797,-0.581438004971
1510963422497025216,,154,,1510963422,491677045,0,,,1794.19091797,214.728515625,-14.6506118774,,-0.00607973337173,0.813376665115,0.0131999030709,-0.581555724144
1510963422515763914,,155,,1510963422,513282060,0,,,1794.09313965,214.640136719,-14.5481338501,,-0.0059473067522,0.813338041306,0.0130009613931,-0.581615567207
1510963422532825320,,156,,1510963422,531156063,0,,,1794.10876465,214.693115234,-14.4575576782,,-0.00672733783722,0.813393175602,0.0128448568285,-0.581533610821
1510963422555087247,,157,,1510963422,550860881,0,,,1794.01049805,214.603759766,-14.5406265259,,-0.00594528019428,0.813267946243,0.0132890380919,-0.581707179546
1510963422571163810,,158,,1510963422,570221900,0,,,1794.10473633,214.812011719,-14.5680923462,,-0.00623370707035,0.813362002373,0.0135615877807,-0.581566214561
1510963422591526466,,159,,1510963422,590262889,0,,,1794.25061035,214.989990234,-14.6100234985,,-0.00625836849213,0.813417315483,0.0135368481278,-0.58148932457
1510963422611712247,,160,,1510963422,610136985,0,,,1794.24609375,214.988525391,-14.6339797974,,-0.00620523095131,0.813364803791,0.0134161263704,-0.581566214561
1510963422630864643,,161,,1510963422,629651069,0,,,1794.14440918,214.80078125,-14.5460281372,,-0.00595939159393,0.813299775124,0.0132323801517,-0.58166384697
1510963422650425008,,162,,1510963422,649296045,0,,,1793.99865723,214.642089844,-14.4510574341,,-0.00592140853405,0.813276767731,0.0132248364389,-0.58169656992
1510963422670266935,,163,,1510963422,669280052,0,,,1793.98498535,214.605957031,-14.5439834595,,-0.00607757270336,0.813277125359,0.013239543885,-0.581694126129
1510963422691503914,,164,,1510963422,690509080,0,,,1794.07983398,214.637451172,-14.6090164185,,-0.00611314177513,0.813363015652,0.0132877491415,-0.581572532654
1510963422710060893,,165,,1510963422,708955049,0,,,1794.12695312,214.668212891,-14.6430130005,,-0.0062161386013,0.813411295414,0.0132228247821,-0.581505537033
1510963422728922768,,166,,1510963422,728192090,0,,,1794.14318848,214.659667969,-14.6666946411,,-0.00624270737171,0.813387274742,0.0131309963763,-0.581540822983
1510963422748709591,,167,,1510963422,748009920,0,,,1794.08374023,214.571777344,-14.6001052856,,-0.00618161261082,0.813350439072,0.0131176374853,-0.58159327507
1510963422770306831,,168,,1510963422,768560886,0,,,1794.015625,214.499755859,-14.509223938,,-0.00608882308006,0.813319683075,0.0131788104773,-0.5816360116
1510963422796913185,,169,,1510963422,795696020,0,,,1793.96264648,214.505126953,-14.5135574341,,-0.00597585737705,0.813279032707,0.0130838006735,-0.581696033478
1510963422816227872,,170,,1510963422,813538074,0,,,1793.96643066,214.546386719,-14.546546936,,-0.00580722093582,0.813351154327,0.0129318162799,-0.581600308418
1510963422838668549,,171,,1510963422,836703062,0,,,1794.04772949,214.714599609,-14.6489028931,,-0.0060707628727,0.813357651234,0.0130348317325,-0.581586360931
1510963422847193029,,172,,1510963422,846792936,0,,,1794.14282227,214.772705078,-14.6472854614,,-0.00611387193203,0.813410520554,0.013191498816,-0.581508278847
1510963422866884435,,173,,1510963422,866441011,0,,,1794.19787598,214.731201172,-14.567817688,,-0.00616025924683,0.813382208347,0.0133202634752,-0.581544458866
1510963422889221726,,174,,1510963422,887521982,0,,,1794.13806152,214.666015625,-14.5462112427,,-0.00610961019993,0.813308894634,0.0134692415595,-0.581644117832
1510963422909135685,,175,,1510963422,907111883,0,,,1794.03808594,214.65234375,-14.5603408813,,-0.00606846809387,0.813286781311,0.0134214386344,-0.581676721573
1510963422930533081,,176,,1510963422,928695917,0,,,1793.96813965,214.663330078,-14.6171646118,,-0.00605764985085,0.81327021122,0.0133517123759,-0.581701517105
1510963422948195372,,177,,1510963422,946896076,0,,,1794.03051758,214.762207031,-14.6045608521,,-0.00608918070793,0.81332474947,0.0134550072253,-0.581622302532
1510963422970349799,,178,,1510963422,966588973,0,,,1794.15393066,214.858398438,-14.5472183228,,-0.00608548521996,0.813379108906,0.0135318636894,-0.581544697285
1510963422990444956,,179,,1510963422,989342927,0,,,1794.20166016,214.782714844,-14.4765090942,,-0.00609327852726,0.813378870487,0.0134090520442,-0.581547856331
1510963423010951154,,180,,1510963423,6309986,0,,,1794.16589355,214.66015625,-14.5192337036,,-0.00617031753063,0.813357174397,0.0133401602507,-0.581578969955
1510963423027747820,,181,,1510963423,26427984,0,,,1794.07458496,214.629394531,-14.6136550903,,-0.0060069411993,0.813310742378,0.0130450800061,-0.581652343273
1510963423046636674,,182,,1510963423,45389890,0,,,1793.96472168,214.578125,-14.6285476685,,-0.00596724450588,0.81334233284,0.013039637357,-0.581608533859
1510963423065764070,,183,,1510963423,64852952,0,,,1793.94116211,214.549560547,-14.6386184692,,-0.00597122311592,0.813353955746,0.013107996434,-0.581590890884
1510963423085999435,,184,,1510963423,85151910,0,,,1794.11950684,214.574707031,-14.5771560669,,-0.00582726299763,0.81327021122,0.0126267783344,-0.581719994545
1510963423106557768,,185,,1510963423,104809045,0,,,1794.15686035,214.572265625,-14.5182266235,,-0.00584942102432,0.813344419003,0.0127110220492,-0.581614196301
1510963423126070945,,186,,1510963423,124772071,0,,,1794.1463623,214.587158203,-14.5499343872,,-0.0061509013176,0.813376545906,0.0131857097149,-0.581555485725
1510963423144713601,,187,,1510963423,143806934,0,,,1794.07556152,214.587402344,-14.5690078735,,-0.00607196986675,0.81338840723,0.0132433474064,-0.581538438797
1510963423164206778,,188,,1510963423,163429021,0,,,1793.97900391,214.59375,-14.5760879517,,-0.00614529848099,0.813309192657,0.0132621750236,-0.581647932529
1510963423191774643,,189,,1510963423,185254096,0,,,1793.93005371,214.599121094,-14.5068740845,,-0.00605271756649,0.813349068165,0.0133630409837,-0.581591010094
1510963423214579122,,190,,1510963423,207499980,0,,,1794.00671387,214.653076172,-14.5039138794,,-0.00593894720078,0.813341677189,0.0131853893399,-0.581606626511
1510963423226956518,,191,,1510963423,225351095,0,,,1794.1229248,214.775634766,-14.5415115356,,-0.00601668655872,0.813373565674,0.0132238641381,-0.581560134888
1510963423245456935,,192,,1510963423,243438959,0,,,1794.20898438,214.909912109,-14.5742263794,,-0.00601491332054,0.813357174397,0.0132671110332,-0.581582188606
1510963423264565737,,193,,1510963423,263008117,0,,,1794.16040039,214.885498047,-14.5907669067,,-0.00619207322598,0.813350439072,0.0136636309326,-0.581580638885
1510963423283766466,,194,,1510963423,282659053,0,,,1794.05627441,214.776367188,-14.603187561,,-0.0060615837574,0.813324093819,0.0135049447417,-0.581622481346
1510963423307664851,,195,,1510963423,306129932,0,,,1793.99328613,214.691650391,-14.5946426392,,-0.00598037242889,0.813292324543,0.0132113471627,-0.581674516201
1510963423330632143,,196,,1510963423,328989028,0,,,1793.99963379,214.650878906,-14.5583572388,,-0.00577631592751,0.813306570053,0.0131230801344,-0.58165872097
1510963423344584070,,197,,1510963423,342464923,0,,,1794.06872559,214.696044922,-14.5172805786,,-0.00586539506912,0.81332308054,0.013100553304,-0.581635177135
1510963423363594695,,198,,1510963423,362278938,0,,,1794.11730957,214.633544922,-14.5367507935,,-0.00606364011765,0.8134085536,0.0134391710162,-0.58150601387
1510963423382888549,,199,,1510963423,381804943,0,,,1794.13903809,214.541015625,-14.5894851685,,-0.00620950758457,0.813403904438,0.0133173204958,-0.581513762474
1510963423403113497,,200,,1510963423,401773929,0,,,1794.09765625,214.465332031,-14.6790542603,,-0.0062081515789,0.813260912895,0.0136017240584,-0.581707000732
1510963423423536310,,201,,1510963423,421740055,0,,,1793.95361328,214.475097656,-14.5771865845,,-0.00581401586533,0.813343822956,0.0128853060305,-0.581611454487
1510963423443610633,,202,,1510963423,441538095,0,,,1793.95251465,214.526123047,-14.5380325317,,-0.00577476620674,0.813288986683,0.0128584504128,-0.581689178944
1510963423464859122,,203,,1510963423,460783004,0,,,1793.98815918,214.579589844,-14.5800552368,,-0.00584042072296,0.813310682774,0.0130585692823,-0.58165371418
1510963423481652403,,204,,1510963423,480618000,0,,,1794.0357666,214.584960938,-14.6301345825,,-0.00607699155807,0.813357651234,0.0132338739932,-0.581581652164
1510963423502916518,,205,,1510963423,500776052,0,,,1794.07385254,214.570556641,-14.6602859497,,-0.0061025172472,0.813434958458,0.0133611932397,-0.581470370293
1510963423530454018,,206,,1510963423,523391008,0,,,1794.10852051,214.634521484,-14.5134353638,,-0.00632201135159,0.813561141491,0.0139701850712,-0.58127707243
1510963423542441674,,207,,1510963423,540324926,0,,,1794.1126709,214.80859375,-14.5116958618,,-0.00590609014034,0.813300848007,0.0133307240903,-0.581660747528
1510963423561623185,,208,,1510963423,559962987,0,,,1794.01916504,214.797363281,-14.4623794556,,-0.00586560368538,0.813268065453,0.0133086554706,-0.58170735836
1510963423580310164,,209,,1510963423,579432964,0,,,1793.99597168,214.724365234,-14.5081253052,,-0.00568003952503,0.813218951225,0.0129298530519,-0.581786513329
1510963423600642299,,210,,1510963423,599205017,0,,,1793.98352051,214.630615234,-14.5891494751,,-0.00593753159046,0.813328206539,0.0135214924812,-0.581617712975
1510963423620100424,,211,,1510963423,619057893,0,,,1794.09118652,214.669921875,-14.6749954224,,-0.00624604523182,0.813351750374,0.0136960782111,-0.581577539444
1510963423640614070,,212,,1510963423,639002084,0,,,1794.21154785,214.772949219,-14.64478302,,-0.00642701983452,0.813362598419,0.0136663243175,-0.581561088562
1510963423659198497,,213,,1510963423,658368110,0,,,1794.1817627,214.796875,-14.5908889771,,-0.00612699985504,0.813327908516,0.0134231448174,-0.581618309021
1510963423678923653,,214,,1510963423,678159952,0,,,1793.99243164,214.704833984,-14.5024185181,,-0.00567698478699,0.813279688358,0.0129426084459,-0.581701278687
1510963423700807768,,215,,1510963423,699093103,0,,,1793.87927246,214.564697266,-14.4712905884,,-0.00562810897827,0.813253164291,0.0128681212664,-0.581740498543
1510963423721597612,,216,,1510963423,719732046,0,,,1793.89953613,214.491943359,-14.5534133911,,-0.00593766570091,0.813320219517,0.0130349174142,-0.581640005112
1510963423740331310,,217,,1510963423,738831043,0,,,1794.00097656,214.509765625,-14.6648025513,,-0.00619195401669,0.813344359398,0.0132870338857,-0.581597864628
1510963423758254591,,218,,1510963423,757499933,0,,,1794.11425781,214.543212891,-14.6537857056,,-0.00631387531757,0.813387036324,0.0134053826332,-0.581534206867
1510963423777695112,,219,,1510963423,776933908,0,,,1794.08825684,214.596679688,-14.5924758911,,-0.00615659356117,0.813371658325,0.0131551921368,-0.58156311512
1510963423802430268,,220,,1510963423,800751924,0,,,1794.07897949,214.738037109,-14.4181594849,,-0.00534035265446,0.813256978989,0.011986605823,-0.581756591797
1510963423819880372,,221,,1510963423,818001031,0,,,1793.85241699,214.653808594,-14.4482192993,,-0.00564569234848,0.813279569149,0.0128315165639,-0.581704378128
1510963423840742039,,222,,1510963423,838350057,0,,,1793.8548584,214.604736328,-14.5130081177,,-0.0057820379734,0.813280403614,0.0131224915385,-0.581695139408
1510963423856677195,,223,,1510963423,856110095,0,,,1793.96826172,214.633544922,-14.5967178345,,-0.00620874762535,0.813361167908,0.0133356638253,-0.581573009491
1510963423876255841,,224,,1510963423,875739097,0,,,1794.09436035,214.771728516,-14.692237854,,-0.00628840923309,0.813333272934,0.013447728008,-0.581608533859
1510963423898644070,,225,,1510963423,896919012,0,,,1794.2557373,215.000244141,-14.6784439087,,-0.00582113862038,0.813315331936,0.0131159760058,-0.581646203995
1510963423921241518,,226,,1510963423,919349908,0,,,1794.19189453,215.033691406,-14.5054702759,,-0.00565558671951,0.813310205936,0.0129918605089,-0.581657648087
1510963423938416309,,227,,1510963423,936846971,0,,,1793.98352051,214.864013672,-14.4509658813,,-0.00568377971649,0.813293933868,0.013217240572,-0.581675231457
1510963423957319747,,228,,1510963423,955775976,0,,,1793.9029541,214.629882812,-14.4657974243,,-0.00582480430603,0.813262820244,0.0132436417043,-0.58171671629
1510963423976266570,,229,,1510963423,975243091,0,,,1793.97741699,214.509033203,-14.5780715942,,-0.00607119500637,0.81329023838,0.0133637599647,-0.58167296648
1510963423996319695,,230,,1510963423,995107889,0,,,1794.06481934,214.527099609,-14.6480789185,,-0.00607880949974,0.813373684883,0.0134186968207,-0.581555068493
1510963424016312455,,231,,1510963424,15158891,0,,,1794.13256836,214.642578125,-14.6312637329,,-0.00612525641918,0.813374459743,0.0133515633643,-0.581554949284
1510963424037105164,,232,,1510963424,35231113,0,,,1794.22241211,214.767822266,-14.4995803833,,-0.00540919601917,0.813252925873,0.0125048831105,-0.581750690937
1510963424056146830,,233,,1510963424,54555892,0,,,1793.95959473,214.544433594,-14.4776992798,,-0.00555218756199,0.813355982304,0.0128134600818,-0.581598758698
1510963424075707247,,234,,1510963424,74378967,0,,,1793.84313965,214.422363281,-14.5818557739,,-0.00590156018734,0.813302397728,0.0128393433988,-0.581669569016
1510963424094890476,,235,,1510963424,93992948,0,,,1793.86877441,214.428466797,-14.6834487915,,-0.00593489408493,0.81333065033,0.0129959657788,-0.581626355648
1510963424116844695,,236,,1510963424,114123106,0,,,1793.98864746,214.509765625,-14.7302627563,,-0.00605633854866,0.813327491283,0.0131412819028,-0.581626176834
1510963424134415632,,237,,1510963424,133538961,0,,,1794.02758789,214.640136719,-14.5877761841,,-0.00605122745037,0.813349485397,0.0132024362683,-0.581593990326
1510963424154383132,,238,,1510963424,153372049,0,,,1794.0189209,214.710205078,-14.4426345825,,-0.00596430897713,0.81330370903,0.0131079293787,-0.581661164761
1510963424175869695,,239,,1510963424,173866987,0,,,1793.95227051,214.717773438,-14.42212677,,-0.0057762414217,0.813324511051,0.0130466967821,-0.581635296345
1510963424195141413,,240,,1510963424,193656921,0,,,1793.92028809,214.632080078,-14.5531692505,,-0.00582410395145,0.813311815262,0.0132077075541,-0.581648945808
1510963424215308861,,241,,1510963424,213335990,0,,,1793.96472168,214.62109375,-14.6955337524,,-0.00588847696781,0.81337505579,0.0132170952857,-0.581559658051
1510963424241668861,,242,,1510963424,239769935,0,,,1794.03466797,214.628173828,-14.7060317993,,-0.00584565103054,0.813326656818,0.013412091881,-0.581623256207
1510963424252395372,,243,,1510963424,251863002,0,,,1794.09753418,214.671386719,-14.5981216431,,-0.00596508383751,0.813324511051,0.0134309977293,-0.581624627113
1510963424272055841,,244,,1510963424,271627902,0,,,1794.13562012,214.790771484,-14.4081497192,,-0.00589570403099,0.81332051754,0.0133344978094,-0.581633150578
1510963424293096413,,245,,1510963424,291929960,0,,,1794.10229492,214.845703125,-14.4223709106,,-0.00576230883598,0.81331038475,0.0132772736251,-0.581650018692
1510963424312896153,,246,,1510963424,311791896,0,,,1793.98583984,214.748291016,-14.5495986938,,-0.00584797561169,0.813311934471,0.0133317038417,-0.581645667553
1510963424341009174,,247,,1510963424,338572025,0,,,1793.93505859,214.533935547,-14.6546401978,,-0.00584258139133,0.813333213329,0.0133611187339,-0.581615328789
1510963424352314174,,248,,1510963424,351365089,0,,,1793.95715332,214.344970703,-14.7068862915,,-0.00599133968353,0.813372135162,0.0133158378303,-0.581560373306
1510963424372025059,,249,,1510963424,371043920,0,,,1794.08459473,214.430664062,-14.5910415649,,-0.00577522814274,0.813342094421,0.0127987526357,-0.581616282463
1510963424393402924,,250,,1510963424,391870021,0,,,1794.07885742,214.592773438,-14.5314102173,,-0.00600597262383,0.813352048397,0.0131931118667,-0.581591129303
1510963424412675684,,251,,1510963424,411281108,0,,,1794.02258301,214.643310547,-14.4435501099,,-0.00577737390995,0.813359618187,0.0130007490516,-0.581587195396
1510963424434168861,,252,,1510963424,432354927,0,,,1793.91394043,214.557128906,-14.5043411255,,-0.00577065348625,0.813352823257,0.0129965059459,-0.581596910954
1510963424450814903,,253,,1510963424,450067996,0,,,1793.8236084,214.413574219,-14.6449661255,,-0.00576914846897,0.813306689262,0.012883875519,-0.581663966179
1510963424471146934,,254,,1510963424,469926118,0,,,1793.84338379,214.379394531,-14.7316055298,,-0.00591725111008,0.813320875168,0.0129975266755,-0.581640183926
1510963424495070215,,255,,1510963424,490921020,0,,,1793.94592285,214.495849609,-14.6608352661,,-0.0059380531311,0.813326954842,0.0132546685636,-0.581625461578
1510963424517020840,,256,,1510963424,510305881,0,,,1794.08081055,214.725097656,-14.4835891724,,-0.00608511269093,0.813316464424,0.0133588314056,-0.581636369228
1510963424539260528,,257,,1510963424,537864923,0,,,1794.13806152,214.914306641,-14.3982009888,,-0.00562876462936,0.813349843025,0.0131819024682,-0.58159828186
1510963424551573601,,258,,1510963424,549732923,0,,,1794.01623535,214.848632812,-14.4454116821,,-0.00575672090054,0.813341736794,0.0131691507995,-0.581608712673
1510963424569662090,,259,,1510963424,568912029,0,,,1793.90893555,214.702880859,-14.6113967896,,-0.0056421905756,0.81332719326,0.013162907213,-0.581630468369
1510963424589299747,,260,,1510963424,588601112,0,,,1793.86083984,214.571533203,-14.7327651978,,-0.00588124990463,0.81323570013,0.0134452395141,-0.58174943924
1510963424610032872,,261,,1510963424,608910083,0,,,1793.97888184,214.558837891,-14.7033157349,,-0.00605301558971,0.813293814659,0.0136433877051,-0.581661701202
1510963424632252820,,262,,1510963424,630729913,0,,,1794.13464355,214.675048828,-14.5961990356,,-0.00619445741177,0.813338935375,0.0137212984264,-0.581595361233
1510963424650438861,,263,,1510963424,648745059,0,,,1794.21166992,214.807128906,-14.4903640747,,-0.00596483051777,0.813379824162,0.0133977010846,-0.581548035145
1510963424669493288,,264,,1510963424,668312072,0,,,1794.08056641,214.863037109,-14.4336624146,,-0.00566527247429,0.813430666924,0.0130584053695,-0.581487596035
1510963424688656778,,265,,1510963424,687748908,0,,,1793.84289551,214.662597656,-14.4856948853,,-0.00545220077038,0.813299298286,0.0128129348159,-0.58167886734
1510963424711278497,,266,,1510963424,708234071,0,,,1793.74743652,214.408691406,-14.5423660278,,-0.00586107373238,0.813345611095,0.0129988975823,-0.581606030464
1510963424730526986,,267,,1510963424,728605031,0,,,1793.87023926,214.28125,-14.6358413696,,-0.00576324760914,0.813264667988,0.0128135345876,-0.58172416687
1510963424749466882,,268,,1510963424,747559070,0,,,1794.08349609,214.362792969,-14.671546936,,-0.00597153604031,0.813271164894,0.0128879360855,-0.581711411476
1510963424771442559,,269,,1510963424,767668008,0,,,1794.09118652,214.543701172,-14.6210403442,,-0.00593638420105,0.813460588455,0.012985046953,-0.581444740295
1510963424787848653,,270,,1510963424,786756992,0,,,1794.02478027,214.762695312,-14.5599746704,,-0.00568217039108,0.813424408436,0.0128057934344,-0.581501841545
1510963424808618080,,271,,1510963424,807384967,0,,,1793.84436035,214.69140625,-14.4601516724,,-0.00539612770081,0.813344836235,0.0128115266562,-0.581615686417
1510963424828201934,,272,,1510963424,827085018,0,,,1793.71325684,214.471923828,-14.4999465942,,-0.00556901097298,0.813296675682,0.0129076726735,-0.581679463387
1510963424848139590,,273,,1510963424,847162961,0,,,1793.79907227,214.463134766,-14.6309280396,,-0.00581556558609,0.813293039799,0.0132579244673,-0.581674039364
1510963424867362142,,274,,1510963424,866132974,0,,,1794.05822754,214.676269531,-14.686958313,,-0.00606733560562,0.813294827938,0.0135876312852,-0.581661462784
1510963424887827611,,275,,1510963424,886190891,0,,,1794.21057129,214.939941406,-14.6075820923,,-0.0059120208025,0.813328325748,0.0135649032891,-0.581616818905
1510963424907904434,,276,,1510963424,906347990,0,,,1794.16162109,215.061523438,-14.4856033325,,-0.0060056746006,0.813360333443,0.01347566396,-0.58157324791
1510963424936682507,,277,,1510963424,934817075,0,,,1794.01281738,214.931152344,-14.4275283813,,-0.00569660961628,0.813356339931,0.0134062096477,-0.581583499908
1510963424947981569,,278,,1510963424,946841955,0,,,1793.87976074,214.604003906,-14.5448379517,,-0.00569014251232,0.813317894936,0.013357039541,-0.581638455391
1510963424967172455,,279,,1510963424,966218948,0,,,1793.86633301,214.356689453,-14.6649856567,,-0.00580374896526,0.813304543495,0.0134064257145,-0.581654787064
1510963424986650736,,280,,1510963424,985764026,0,,,1793.98510742,214.386474609,-14.7144546509,,-0.00591030716896,0.813315153122,0.0133273862302,-0.581640720367
1510963425006715163,,281,,1510963425,4636049,0,,,1794.1151123,214.561523438,-14.6465835571,,-0.00600293278694,0.813354790211,0.0132280886173,-0.58158659935
1510963425026523653,,282,,1510963425,25249958,0,,,1794.1159668,214.728271484,-14.5550918579,,-0.00591044127941,0.813390731812,0.0131962113082,-0.58153796196
1510963425047655580,,283,,1510963425,46416044,0,,,1793.95654297,214.662597656,-14.4678421021,,-0.00564706325531,0.813377141953,0.0128222703934,-0.581568002701
1510963425066255788,,284,,1510963425,64383029,0,,,1793.78479004,214.444580078,-14.5382461548,,-0.00555093586445,0.813360214233,0.0127948671579,-0.581593036652
1510963425084610424,,285,,1510963425,83477973,0,,,1793.76379395,214.226318359,-14.5763626099,,-0.00540275871754,0.813200056553,0.0122746564448,-0.581829667091
1510963425104231205,,286,,1510963425,103275060,0,,,1793.85656738,214.204345703,-14.638923645,,-0.00593400001526,0.813330113888,0.0130193792284,-0.581626534462
1510963425130035007,,287,,1510963425,124082088,0,,,1794.00048828,214.4140625,-14.592048645,,-0.00599253177643,0.813359797001,0.0132313966751,-0.581579566002
1510963425149434330,,288,,1510963425,145309925,0,,,1794.0423584,214.622802734,-14.5036087036,,-0.00595384836197,0.813399195671,0.0132544972003,-0.581524431705
1510963425163980996,,289,,1510963425,162811040,0,,,1793.96740723,214.703125,-14.5010452271,,-0.00570906698704,0.813420593739,0.0132419504225,-0.581497192383
1510963425183495944,,290,,1510963425,182439088,0,,,1793.86010742,214.668457031,-14.5824966431,,-0.00564952194691,0.813386321068,0.0132627412677,-0.581545352936
1510963425203569017,,291,,1510963425,202222108,0,,,1793.8762207,214.592041016,-14.651222229,,-0.00581881403923,0.813367128372,0.0134343542159,-0.58156645298
1510963425224659226,,292,,1510963425,221996068,0,,,1793.97290039,214.678955078,-14.64087677,,-0.00621554255486,0.813307285309,0.013496927917,-0.581644713879
1510963425245882976,,293,,1510963425,242286920,0,,,1794.08093262,214.74609375,-14.5836257935,,-0.00593301653862,0.813273370266,0.0136764124036,-0.581690847874
1510963425262339799,,294,,1510963425,261535882,0,,,1794.09106445,214.888916016,-14.442817688,,-0.00597578287125,0.813347160816,0.0136675685644,-0.58158737421
1510963425282025319,,295,,1510963425,281270027,0,,,1794.04052734,214.935058594,-14.4184951782,,-0.00560314953327,0.813371419907,0.0132645331323,-0.581566572189
1510963425312929173,,296,,1510963425,310389041,0,,,1793.94274902,214.770019531,-14.5333023071,,-0.00566627085209,0.813376426697,0.0132381767035,-0.581559479237
1510963425331133184,,297,,1510963425,324156045,0,,,1793.87512207,214.481689453,-14.7007217407,,-0.00567373633385,0.813355028629,0.0131408274174,-0.581591725349
1510963425343651205,,298,,1510963425,342220067,0,,,1793.83996582,214.182373047,-14.714302063,,-0.00589044392109,0.81339019537,0.0132632628083,-0.581537485123
1510963425362606205,,299,,1510963425,361072063,0,,,1793.89916992,214.19140625,-14.6275100708,,-0.00605224072933,0.813372612,0.0132919028401,-0.58155977726
1510963425382305788,,300,,1510963425,381099939,0,,,1793.9453125,214.390380859,-14.4757766724,,-0.00579757988453,0.813403725624,0.0131039060652,-0.581523001194
1510963425401135944,,301,,1510963425,400186061,0,,,1793.921875,214.601806641,-14.4088516235,,-0.0055595934391,0.813458621502,0.0127060040832,-0.58145737648
1510963425421763340,,302,,1510963425,420335054,0,,,1793.83532715,214.633544922,-14.4467849731,,-0.00545065104961,0.813375890255,0.0126565657556,-0.581575214863
1510963425444042090,,303,,1510963425,441018104,0,,,1793.76904297,214.510498047,-14.581703186,,-0.00568489730358,0.813353836536,0.0129015631974,-0.581598520279
1510963425461424642,,304,,1510963425,459924936,0,,,1793.87304688,214.414550781,-14.6945877075,,-0.00569169223309,0.813242435455,0.0127945281565,-0.581756353378
1510963425488945996,,305,,1510963425,487740993,0,,,1793.88085938,214.40234375,-14.6839065552,,-0.00602336227894,0.813358664513,0.0133895874023,-0.581577122211
1510963425500175996,,306,,1510963425,499150037,0,,,1793.98754883,214.588867188,-14.4450149536,,-0.00602307915688,0.813699245453,0.014362309128,-0.58107739687
1510963425520078548,,307,,1510963425,519162893,0,,,1794.09228516,214.990966797,-14.4247817993,,-0.00558386743069,0.813372612,0.0132750011981,-0.58156478405
1510963425542567403,,308,,1510963425,539897918,0,,,1793.99816895,214.997070312,-14.4130935669,,-0.00560250878334,0.813377737999,0.0132280476391,-0.581558406353
1510963425559530840,,309,,1510963425,558515071,0,,,1793.86315918,214.751220703,-14.5336380005,,-0.00558961927891,0.81337916851,0.0133801624179,-0.58155310154
1510963425578887975,,310,,1510963425,578037977,0,,,1793.74536133,214.533935547,-14.7301712036,,-0.00566823780537,0.81337505579,0.0133582167327,-0.581558585167
1510963425606414590,,311,,1510963425,604373931,0,,,1793.95947266,214.449707031,-14.7567825317,,-0.00613556802273,0.813346147537,0.0138701722026,-0.581582307816
1510963425621730475,,312,,1510963425,618599891,0,,,1794.10583496,214.678222656,-14.6422805786,,-0.00598706305027,0.813381671906,0.0136109925807,-0.581540226936
1510963425647485528,,313,,1510963425,639877080,0,,,1794.13684082,214.851318359,-14.4442520142,,-0.00571310520172,0.813426434994,0.0132723152637,-0.581488370895
1510963425662326413,,314,,1510963425,660854101,0,,,1793.95739746,214.824462891,-14.3310623169,,-0.00562806427479,0.813392460346,0.0130845680833,-0.581540822983
1510963425678444173,,315,,1510963425,677398920,0,,,1793.81420898,214.576904297,-14.3329849243,,-0.00541089475155,0.813321709633,0.0127701610327,-0.581648945808
1510963425698478184,,316,,1510963425,697149038,0,,,1793.74487305,214.269287109,-14.591835022,,-0.00551398098469,0.813295304775,0.0125584937632,-0.581689476967
1510963425717585944,,317,,1510963425,716746091,0,,,1793.82470703,214.08984375,-14.7631912231,,-0.00580464303493,0.813335776329,0.0131037756801,-0.581617951393
1510963425743071152,,318,,1510963425,736958026,0,,,1793.95837402,214.188720703,-14.7799453735,,-0.00612260401249,0.813427507877,0.0133687220514,-0.581480503082
1510963425758700996,,319,,1510963425,756931066,0,,,1794.01293945,214.464111328,-14.5866165161,,-0.00581434369087,0.81347244978,0.0130896754563,-0.581426978111
1510963425777810632,,320,,1510963425,776267051,0,,,1793.94543457,214.654296875,-14.3975601196,,-0.0055516064167,0.813444077969,0.0129385143518,-0.581472635269
1510963425796831152,,321,,1510963425,795802116,0,,,1793.80334473,214.691650391,-14.368019104,,-0.00551463663578,0.813404023647,0.0129559151828,-0.581528663635
1510963425817293600,,322,,1510963425,815710067,0,,,1793.76257324,214.576171875,-14.5065078735,,-0.00553081929684,0.81333976984,0.0131075382233,-0.581614971161
1510963425837731569,,323,,1510963425,835890054,0,,,1793.7923584,214.523193359,-14.6264419556,,-0.00572481751442,0.813339293003,0.0134203694761,-0.581606686115
1510963425858318496,,324,,1510963425,856957912,0,,,1793.9564209,214.696777344,-14.686958313,,-0.00601245462894,0.813312590122,0.0136320888996,-0.581636190414
1510963425876308652,,325,,1510963425,875149965,0,,,1794.28552246,215.098144531,-14.6678543091,,-0.00508324801922,0.813277304173,0.0129200480878,-0.581710577011
1510963425896560527,,326,,1510963425,895440101,0,,,1794.13537598,215.024902344,-14.4941177368,,-0.00582402944565,0.813469827175,0.013701915741,-0.581416547298
1510963425915614590,,327,,1510963425,914702892,0,,,1794.00598145,214.907714844,-14.4693984985,,-0.00536072254181,0.813427329063,0.0132861472666,-0.58149009943
1510963425936163288,,328,,1510963425,934819936,0,,,1793.83117676,214.585693359,-14.6117935181,,-0.00545825064182,0.813379824162,0.013204805553,-0.581557393074
1510963425955087975,,329,,1510963425,954123020,0,,,1793.81787109,214.340087891,-14.7044448853,,-0.00564350187778,0.813368916512,0.0133353509009,-0.581568062305
1510963425974636621,,330,,1510963425,973946094,0,,,1793.88793945,214.357177734,-14.6720657349,,-0.00583593547344,0.813367307186,0.0134764276445,-0.581565022469
1510963425995077142,,331,,1510963425,994066953,0,,,1793.99902344,214.538085938,-14.5571670532,,-0.0058376789093,0.813409686089,0.0133309438825,-0.581509232521
1510963426014793548,,332,,1510963426,13756990,0,,,1794.03173828,214.766113281,-14.3914871216,,-0.00578917562962,0.813467144966,0.0132862329483,-0.581430315971
1510963426035794486,,333,,1510963426,33824920,0,,,1793.90454102,214.696777344,-14.3513870239,,-0.00555369257927,0.813423156738,0.0128475874662,-0.581503868103
1510963426057888809,,334,,1510963426,56720018,0,,,1793.78344727,214.495605469,-14.4849319458,,-0.00556381046772,0.813406288624,0.0127176530659,-0.581530272961
1510963426074524069,,335,,1510963426,73266983,0,,,1793.72509766,214.239257812,-14.5930557251,,-0.00558842718601,0.813355743885,0.0128495544195,-0.581597924232
1510963426094180111,,336,,1510963426,92832088,0,,,1793.75073242,214.152587891,-14.718421936,,-0.00578725337982,0.813401699066,0.0131196863949,-0.581525564194
1510963426114657246,,337,,1510963426,113173007,0,,,1793.82080078,214.361572266,-14.6856155396,,-0.00567696988583,0.81343972683,0.0130966417491,-0.581474065781
1510963426134935632,,338,,1510963426,133210897,0,,,1793.96887207,214.621582031,-14.5185623169,,-0.00548657774925,0.81361168623,0.0131260491908,-0.581234514713
1510963426161897038,,339,,1510963426,160377025,0,,,1794.00415039,214.848388672,-14.509223938,,-0.00561924278736,0.813443422318,0.0132105648518,-0.581466913223
1510963426172905371,,340,,1510963426,172278881,0,,,1793.95861816,214.850830078,-14.4976882935,,-0.00569769740105,0.813410937786,0.0133407302201,-0.581508636475
1510963426191758444,,341,,1510963426,191274881,0,,,1793.85217285,214.692626953,-14.5701370239,,-0.00573623180389,0.813374519348,0.0136334300041,-0.581552267075
1510963426215762454,,342,,1510963426,212549924,0,,,1793.78271484,214.583984375,-14.6177749634,,-0.005734577775,0.813305497169,0.0136956088245,-0.581647396088
1510963426233833652,,343,,1510963426,232085943,0,,,1793.85888672,214.670166016,-14.5174026489,,-0.00574050843716,0.813354611397,0.0136959217489,-0.581578612328
1510963426253965006,,344,,1510963426,252043008,0,,,1794.03601074,214.918212891,-14.4127578735,,-0.00589500367641,0.813393712044,0.0136934034526,-0.581522583961
1510963426272951517,,345,,1510963426,271341085,0,,,1794.14648438,214.979003906,-14.4484939575,,-0.00549657642841,0.813454806805,0.0133724883199,-0.581448376179
1510963426292672454,,346,,1510963426,291209936,0,,,1794.06140137,214.798095703,-14.6350479126,,-0.00561554729939,0.813472688198,0.0132652334869,-0.581424593925
1510963426311779746,,347,,1510963426,310759067,0,,,1793.90454102,214.5234375,-14.7453079224,,-0.00523693859577,0.813336372375,0.0126902647316,-0.581631779671
1510963426331295423,,348,,1510963426,330291986,0,,,1793.71643066,214.190917969,-14.7782974243,,-0.00565047562122,0.813383638859,0.0132376626134,-0.58154964447
1510963426351435527,,349,,1510963426,350507974,0,,,1793.80151367,214.25390625,-14.5430984497,,-0.00538942217827,0.813255250454,0.0124498829246,-0.581748962402
1510963426370593288,,350,,1510963426,369775056,0,,,1793.86279297,214.395507812,-14.4281692505,,-0.00567169487476,0.813425123692,0.0129749774933,-0.581497192383
1510963426392163288,,351,,1510963426,390239000,0,,,1793.93383789,214.588134766,-14.3490066528,,-0.00580479204655,0.813504934311,0.0129203461111,-0.581385552883
1510963426412156152,,352,,1510963426,410653114,0,,,1793.88024902,214.638427734,-14.4281387329,,-0.00558751821518,0.813434541225,0.0129242651165,-0.581486046314
1510963426431921673,,353,,1510963426,430026054,0,,,1793.78686523,214.479248047,-14.5089187622,,-0.0054978877306,0.813403844833,0.0127489678562,-0.581533610821
1510963426456118913,,354,,1510963426,451113939,0,,,1793.66442871,214.197265625,-14.6619644165,,-0.00575344264507,0.813400566578,0.0132200047374,-0.581525206566
1510963426470469850,,355,,1510963426,469129085,0,,,1793.69641113,214.176025391,-14.6821670532,,-0.00570949912071,0.813380897045,0.0134106315672,-0.581548810005
1510963426489976986,,356,,1510963426,488751888,0,,,1793.88024902,214.423828125,-14.5823135376,,-0.005699172616,0.813430905342,0.0133541114628,-0.581480383873
1510963426509860996,,357,,1510963426,508678913,0,,,1794.00170898,214.826171875,-14.5495681763,,-0.00551567971706,0.813482701778,0.0132650583982,-0.581411600113
1510963426530173965,,358,,1510963426,528924942,0,,,1794.02819824,215.000488281,-14.5029373169,,-0.00559797883034,0.813473820686,0.0133236683905,-0.581421911716
1510963426558000944,,359,,1510963426,549542903,0,,,1793.94262695,214.886962891,-14.5141372681,,-0.00565139949322,0.813421845436,0.0135267488658,-0.581489562988
1510963426570009642,,360,,1510963426,568625926,0,,,1793.81945801,214.617919922,-14.5702590942,,-0.00578410923481,0.813332915306,0.0136377289891,-0.581609964371
1510963426589531360,,361,,1510963426,588124036,0,,,1793.83654785,214.467285156,-14.5925674438,,-0.00576721131802,0.813286423683,0.0137380622327,-0.581672728062
1510963426608624902,,362,,1510963426,607522964,0,,,1793.96044922,214.634277344,-14.5149002075,,-0.00542974472046,0.813267230988,0.0131850726902,-0.581715524197
1510963426634630683,,363,,1510963426,627840042,0,,,1793.97106934,214.741699219,-14.4359512329,,-0.00553631782532,0.813427388668,0.0133133605123,-0.581487834454
1510963426658118600,,364,,1510963426,652590036,0,,,1793.95556641,214.688476562,-14.4111709595,,-0.00566650927067,0.813491940498,0.0133037529886,-0.581396341324
1510963426668546725,,365,,1510963426,667258024,0,,,1793.87426758,214.486328125,-14.4512405396,,-0.00560946762562,0.81351351738,0.013072181493,-0.581372022629
1510963426687080579,,366,,1510963426,686381101,0,,,1793.76428223,214.236328125,-14.6342849731,,-0.0055635869503,0.813482880592,0.0130014717579,-0.581416964531
1510963426706744485,,367,,1510963426,706056118,0,,,1793.70812988,214.144287109,-14.7331924438,,-0.00558407604694,0.813352406025,0.012989025563,-0.581599414349
1510963426728328756,,368,,1510963426,726845026,0,,,1793.83312988,214.343017578,-14.6927566528,,-0.00510577857494,0.813288986683,0.0122041329741,-0.581709384918
1510963426763959694,,369,,1510963426,761558055,0,,,1793.80981445,214.459716797,-14.4998550415,,-0.0056314021349,0.813481628895,0.0129404254258,-0.581419348717
1510963426772535683,,370,,1510963426,771151065,0,,,1793.87353516,214.683105469,-14.3665847778,,-0.00558505952358,0.813476264477,0.013004027307,-0.581425905228
1510963426788136413,,371,,1510963426,786968946,0,,,1793.85961914,214.761962891,-14.3712539673,,-0.00557938218117,0.81347990036,0.0130628608167,-0.581419587135
1510963426806762037,,372,,1510963426,805676937,0,,,1793.78771973,214.610351562,-14.5369644165,,-0.00551465153694,0.813436985016,0.0131185315549,-0.581478893757
1510963426826519277,,373,,1510963426,825437068,0,,,1793.70922852,214.390625,-14.6644668579,,-0.00555704534054,0.813396692276,0.0132849030197,-0.581531047821
1510963426850319121,,374,,1510963426,848355054,0,,,1793.74609375,214.320556641,-14.6652603149,,-0.00561770796776,0.813399195671,0.0133795514703,-0.581524968147
1510963426866560892,,375,,1510963426,865422010,0,,,1793.91809082,214.55859375,-14.5728530884,,-0.00566767156124,0.813443660736,0.0135890841484,-0.58145737648
