rosbagTimestamp,header,seq,stamp,secs,nsecs,frame_id,orientation,x,y,z,w,orientation_covariance,angular_velocity,x,y,z,angular_velocity_covariance,linear_acceleration,x,y,z,linear_acceleration_covariance
1508259956701418192,,90275,,1508259956,701125744,imu,,-0.0213146023452,0.0152817294002,0.646150648594,0.762759149075,"[0.0, 0.0, 0.0, 0.0, 0.0, 0.0, 0.0, 0.0, 0.0]",,-0.00277644395828,-0.00328302546404,-0.0232307240367,"[0.0, 0.0, 0.0, 0.0, 0.0, 0.0, 0.0, 0.0, 0.0]",,0.563033103943,0.149833664298,-9.56002235413,"[0.0, 0.0, 0.0, 0.0, 0.0, 0.0, 0.0, 0.0, 0.0]"
1508259956711651369,,90276,,1508259956,711337984,imu,,-0.0213253218681,0.0152949858457,0.646147310734,0.762761414051,"[0.0, 0.0, 0.0, 0.0, 0.0, 0.0, 0.0, 0.0, 0.0]",,0.00138865946792,0.00589867122471,-0.0254894979298,"[0.0, 0.0, 0.0, 0.0, 0.0, 0.0, 0.0, 0.0, 0.0]",,0.428563535213,0.130117535591,-9.48484611511,"[0.0, 0.0, 0.0, 0.0, 0.0, 0.0, 0.0, 0.0, 0.0]"
1508259956721816109,,90277,,1508259956,721539338,imu,,-0.0213300623,0.0152960112318,0.646138727665,0.762768447399,"[0.0, 0.0, 0.0, 0.0, 0.0, 0.0, 0.0, 0.0, 0.0]",,-0.000288514886051,-0.000432747940067,-0.0240497309715,"[0.0, 0.0, 0.0, 0.0, 0.0, 0.0, 0.0, 0.0, 0.0]",,0.466404259205,0.189587041736,-9.66713905334,"[0.0, 0.0, 0.0, 0.0, 0.0, 0.0, 0.0, 0.0, 0.0]"
1508259956732075952,,90278,,1508259956,731749338,imu,,-0.0213221553713,0.0152889164165,0.646134734154,0.762772321701,"[0.0, 0.0, 0.0, 0.0, 0.0, 0.0, 0.0, 0.0, 0.0]",,0.00224411254749,-0.00105600222014,-0.0250230878592,"[0.0, 0.0, 0.0, 0.0, 0.0, 0.0, 0.0, 0.0, 0.0]",,0.53817486763,0.161056086421,-9.42729854584,"[0.0, 0.0, 0.0, 0.0, 0.0, 0.0, 0.0, 0.0, 0.0]"
1508259956742302463,,90279,,1508259956,741955380,imu,,-0.0213245246559,0.0153183890507,0.646132290363,0.762773752213,"[0.0, 0.0, 0.0, 0.0, 0.0, 0.0, 0.0, 0.0, 0.0]",,0.00314275338314,0.00475278822705,-0.0247083567083,"[0.0, 0.0, 0.0, 0.0, 0.0, 0.0, 0.0, 0.0, 0.0]",,0.43438744545,0.160020440817,-9.63263034821,"[0.0, 0.0, 0.0, 0.0, 0.0, 0.0, 0.0, 0.0, 0.0]"
1508259956752421525,,90280,,1508259956,752142567,imu,,-0.0213128328323,0.0153182270005,0.646132528782,0.762773871422,"[0.0, 0.0, 0.0, 0.0, 0.0, 0.0, 0.0, 0.0, 0.0]",,0.00281491805799,-0.00210337294266,-0.0247366651893,"[0.0, 0.0, 0.0, 0.0, 0.0, 0.0, 0.0, 0.0, 0.0]",,0.580151796341,0.136714324355,-9.56614208221,"[0.0, 0.0, 0.0, 0.0, 0.0, 0.0, 0.0, 0.0, 0.0]"
1508259956762674494,,90281,,1508259956,762320015,imu,,-0.0213139504194,0.0153470905498,0.646129369736,0.76277589798,"[0.0, 0.0, 0.0, 0.0, 0.0, 0.0, 0.0, 0.0, 0.0]",,0.00312901427969,0.00470738532022,-0.0260393358767,"[0.0, 0.0, 0.0, 0.0, 0.0, 0.0, 0.0, 0.0, 0.0]",,0.445152044296,0.0777547135949,-9.48110580444,"[0.0, 0.0, 0.0, 0.0, 0.0, 0.0, 0.0, 0.0, 0.0]"
1508259956772906525,,90282,,1508259956,772505952,imu,,-0.021306835115,0.0153528088704,0.646129667759,0.76277577877,"[0.0, 0.0, 0.0, 0.0, 0.0, 0.0, 0.0, 0.0, 0.0]",,-0.000492280465551,-0.00077484321082,-0.0239396002144,"[0.0, 0.0, 0.0, 0.0, 0.0, 0.0, 0.0, 0.0, 0.0]",,0.509265780449,0.127532839775,-9.68836021423,"[0.0, 0.0, 0.0, 0.0, 0.0, 0.0, 0.0, 0.0, 0.0]"
1508259956783180015,,90283,,1508259956,782737984,imu,,-0.021296042949,0.0153530603275,0.646131634712,0.762774348259,"[0.0, 0.0, 0.0, 0.0, 0.0, 0.0, 0.0, 0.0, 0.0]",,0.00122855789959,-0.000177823123522,-0.0247922092676,"[0.0, 0.0, 0.0, 0.0, 0.0, 0.0, 0.0, 0.0, 0.0]",,0.51482707262,0.0795321911573,-9.40322494507,"[0.0, 0.0, 0.0, 0.0, 0.0, 0.0, 0.0, 0.0, 0.0]"
1508259956793609807,,90284,,1508259956,792942984,imu,,-0.0213071163744,0.0153680508956,0.646129608154,0.762775421143,"[0.0, 0.0, 0.0, 0.0, 0.0, 0.0, 0.0, 0.0, 0.0]",,-0.00163299683481,0.00418879603967,-0.024438014254,"[0.0, 0.0, 0.0, 0.0, 0.0, 0.0, 0.0, 0.0, 0.0]",,0.448834300041,0.110930502415,-9.61761569977,"[0.0, 0.0, 0.0, 0.0, 0.0, 0.0, 0.0, 0.0, 0.0]"
1508259956803676838,,90285,,1508259956,803118504,imu,,-0.0213049966842,0.0153448786587,0.646133065224,0.762773096561,"[0.0, 0.0, 0.0, 0.0, 0.0, 0.0, 0.0, 0.0, 0.0]",,-0.00242273136973,-0.00426330324262,-0.0235451646149,"[0.0, 0.0, 0.0, 0.0, 0.0, 0.0, 0.0, 0.0, 0.0]",,0.559017896652,0.117814444005,-9.55668258667,"[0.0, 0.0, 0.0, 0.0, 0.0, 0.0, 0.0, 0.0, 0.0]"
1508259956813777932,,90286,,1508259956,813337671,imu,,-0.0213149897754,0.015348999761,0.646130561829,0.762774825096,"[0.0, 0.0, 0.0, 0.0, 0.0, 0.0, 0.0, 0.0, 0.0]",,-0.000795442261733,0.00212984159589,-0.0250773075968,"[0.0, 0.0, 0.0, 0.0, 0.0, 0.0, 0.0, 0.0, 0.0]",,0.420526266098,0.086132094264,-9.44616603851,"[0.0, 0.0, 0.0, 0.0, 0.0, 0.0, 0.0, 0.0, 0.0]"
1508259956818811786,,90287,,1508259956,818452254,imu,,-0.0213269051164,0.0153354406357,0.646132826805,0.762772798538,"[0.0, 0.0, 0.0, 0.0, 0.0, 0.0, 0.0, 0.0, 0.0]",,-0.00480672158301,-0.00255446135998,-0.0241043716669,"[0.0, 0.0, 0.0, 0.0, 0.0, 0.0, 0.0, 0.0, 0.0]",,0.532067894936,0.152607098222,-9.66319274902,"[0.0, 0.0, 0.0, 0.0, 0.0, 0.0, 0.0, 0.0, 0.0]"
1508259956828818661,,90288,,1508259956,828617775,imu,,-0.0213322918862,0.0153174549341,0.646134674549,0.762771487236,"[0.0, 0.0, 0.0, 0.0, 0.0, 0.0, 0.0, 0.0, 0.0]",,-0.0015689356951,-0.00128225539811,-0.0253038629889,"[0.0, 0.0, 0.0, 0.0, 0.0, 0.0, 0.0, 0.0, 0.0]",,0.528502583504,0.139439925551,-9.45084571838,"[0.0, 0.0, 0.0, 0.0, 0.0, 0.0, 0.0, 0.0, 0.0]"
1508259956839138400,,90289,,1508259956,838790848,imu,,-0.0213443376124,0.0153213115409,0.646130919456,0.762774288654,"[0.0, 0.0, 0.0, 0.0, 0.0, 0.0, 0.0, 0.0, 0.0]",,-0.000833530444652,0.00121722440235,-0.0248307697475,"[0.0, 0.0, 0.0, 0.0, 0.0, 0.0, 0.0, 0.0, 0.0]",,0.398461848497,0.147972166538,-9.60991096497,"[0.0, 0.0, 0.0, 0.0, 0.0, 0.0, 0.0, 0.0, 0.0]"
1508259956849278713,,90290,,1508259956,848986577,imu,,-0.0213374085724,0.0152955316007,0.646135568619,0.762771070004,"[0.0, 0.0, 0.0, 0.0, 0.0, 0.0, 0.0, 0.0, 0.0]",,-0.00132089643739,-0.00608748290688,-0.0242701247334,"[0.0, 0.0, 0.0, 0.0, 0.0, 0.0, 0.0, 0.0, 0.0]",,0.552510499954,0.161716103554,-9.58051395416,"[0.0, 0.0, 0.0, 0.0, 0.0, 0.0, 0.0, 0.0, 0.0]"
1508259956859410848,,90291,,1508259956,859173296,imu,,-0.0213379710913,0.0153065118939,0.646132111549,0.762773633003,"[0.0, 0.0, 0.0, 0.0, 0.0, 0.0, 0.0, 0.0, 0.0]",,0.00260331435129,0.00301650399342,-0.025617107749,"[0.0, 0.0, 0.0, 0.0, 0.0, 0.0, 0.0, 0.0, 0.0]",,0.402366429567,0.108048923314,-9.45375442505,"[0.0, 0.0, 0.0, 0.0, 0.0, 0.0, 0.0, 0.0, 0.0]"
1508259956869612307,,90292,,1508259956,869347046,imu,,-0.021329537034,0.0153053626418,0.646130621433,0.762775242329,"[0.0, 0.0, 0.0, 0.0, 0.0, 0.0, 0.0, 0.0, 0.0]",,0.000805382267572,-0.00120751617942,-0.0244924873114,"[0.0, 0.0, 0.0, 0.0, 0.0, 0.0, 0.0, 0.0, 0.0]",,0.486202836037,0.164805650711,-9.65733528137,"[0.0, 0.0, 0.0, 0.0, 0.0, 0.0, 0.0, 0.0, 0.0]"
1508259956879849911,,90293,,1508259956,879574077,imu,,-0.0213150978088,0.0153036005795,0.646131694317,0.762774765491,"[0.0, 0.0, 0.0, 0.0, 0.0, 0.0, 0.0, 0.0, 0.0]",,0.00388995255344,-0.0010587645229,-0.025245603174,"[0.0, 0.0, 0.0, 0.0, 0.0, 0.0, 0.0, 0.0, 0.0]",,0.515198945999,0.102007552981,-9.4233341217,"[0.0, 0.0, 0.0, 0.0, 0.0, 0.0, 0.0, 0.0, 0.0]"
1508259956889982202,,90294,,1508259956,889752359,imu,,-0.0213140398264,0.0153284417465,0.646130084991,0.762775719166,"[0.0, 0.0, 0.0, 0.0, 0.0, 0.0, 0.0, 0.0, 0.0]",,0.00175612117164,0.00461357738823,-0.0244710240513,"[0.0, 0.0, 0.0, 0.0, 0.0, 0.0, 0.0, 0.0, 0.0]",,0.404076755047,0.121894724667,-9.61215591431,"[0.0, 0.0, 0.0, 0.0, 0.0, 0.0, 0.0, 0.0, 0.0]"
1508259956900162463,,90295,,1508259956,899932046,imu,,-0.0213031880558,0.0153179727495,0.646130561829,0.762775719166,"[0.0, 0.0, 0.0, 0.0, 0.0, 0.0, 0.0, 0.0, 0.0]",,0.000608279078733,-0.00287317112088,-0.023516735062,"[0.0, 0.0, 0.0, 0.0, 0.0, 0.0, 0.0, 0.0, 0.0]",,0.558061420918,0.105314299464,-9.5721321106,"[0.0, 0.0, 0.0, 0.0, 0.0, 0.0, 0.0, 0.0, 0.0]"
1508259956910415015,,90296,,1508259956,910124650,imu,,-0.0213045068085,0.0153395300731,0.646124958992,0.7627800107,"[0.0, 0.0, 0.0, 0.0, 0.0, 0.0, 0.0, 0.0, 0.0]",,0.0015307929134,0.00541316717863,-0.0257156807929,"[0.0, 0.0, 0.0, 0.0, 0.0, 0.0, 0.0, 0.0, 0.0]",,0.413995981216,0.0965271368623,-9.47466945648,"[0.0, 0.0, 0.0, 0.0, 0.0, 0.0, 0.0, 0.0, 0.0]"
1508259956920566629,,90297,,1508259956,920323036,imu,,-0.0213079620153,0.0153387216851,0.646121740341,0.762782752514,"[0.0, 0.0, 0.0, 0.0, 0.0, 0.0, 0.0, 0.0, 0.0]",,-0.00231930240989,-9.75655275397e-05,-0.0238216258585,"[0.0, 0.0, 0.0, 0.0, 0.0, 0.0, 0.0, 0.0, 0.0]",,0.505944728851,0.130272269249,-9.69805908203,"[0.0, 0.0, 0.0, 0.0, 0.0, 0.0, 0.0, 0.0, 0.0]"
1508259956930675379,,90298,,1508259956,930491317,imu,,-0.0213107075542,0.0153307020664,0.646121382713,0.762783110142,"[0.0, 0.0, 0.0, 0.0, 0.0, 0.0, 0.0, 0.0, 0.0]",,-0.000675899442285,0.000538880005479,-0.0249818135053,"[0.0, 0.0, 0.0, 0.0, 0.0, 0.0, 0.0, 0.0, 0.0]",,0.508154571056,0.0881577134132,-9.42998409271,"[0.0, 0.0, 0.0, 0.0, 0.0, 0.0, 0.0, 0.0, 0.0]"
1508259956940963192,,90299,,1508259956,940673869,imu,,-0.0213304720819,0.0153466258198,0.646116793156,0.762786149979,"[0.0, 0.0, 0.0, 0.0, 0.0, 0.0, 0.0, 0.0, 0.0]",,-0.00340514909476,0.00508769787848,-0.0247837007046,"[0.0, 0.0, 0.0, 0.0, 0.0, 0.0, 0.0, 0.0, 0.0]",,0.428703159094,0.133586600423,-9.62369632721,"[0.0, 0.0, 0.0, 0.0, 0.0, 0.0, 0.0, 0.0, 0.0]"
1508259956951204338,,90300,,1508259956,950874702,imu,,-0.021335054189,0.015319602564,0.64612275362,0.762781500816,"[0.0, 0.0, 0.0, 0.0, 0.0, 0.0, 0.0, 0.0, 0.0]",,-0.00430590007454,-0.00425472902134,-0.0228447727859,"[0.0, 0.0, 0.0, 0.0, 0.0, 0.0, 0.0, 0.0, 0.0]",,0.584980666637,0.115081578493,-9.59840965271,"[0.0, 0.0, 0.0, 0.0, 0.0, 0.0, 0.0, 0.0, 0.0]"
1508259956961302984,,90301,,1508259956,961057932,imu,,-0.0213465578854,0.015332242474,0.64612185955,0.762781620026,"[0.0, 0.0, 0.0, 0.0, 0.0, 0.0, 0.0, 0.0, 0.0]",,-0.000441149284597,0.00451680598781,-0.0252170152962,"[0.0, 0.0, 0.0, 0.0, 0.0, 0.0, 0.0, 0.0, 0.0]",,0.430715113878,0.099406927824,-9.44573974609,"[0.0, 0.0, 0.0, 0.0, 0.0, 0.0, 0.0, 0.0, 0.0]"
1508259956971536994,,90302,,1508259956,971247515,imu,,-0.0213545877486,0.015331027098,0.64611941576,0.762783586979,"[0.0, 0.0, 0.0, 0.0, 0.0, 0.0, 0.0, 0.0, 0.0]",,-0.00208390294574,-0.000702020246536,-0.024331567809,"[0.0, 0.0, 0.0, 0.0, 0.0, 0.0, 0.0, 0.0, 0.0]",,0.51465344429,0.15989112854,-9.66379928589,"[0.0, 0.0, 0.0, 0.0, 0.0, 0.0, 0.0, 0.0, 0.0]"
1508259956981748244,,90303,,1508259956,981456317,imu,,-0.0213490836322,0.0153241893277,0.646118104458,0.762784957886,"[0.0, 0.0, 0.0, 0.0, 0.0, 0.0, 0.0, 0.0, 0.0]",,0.000201381335501,-0.0004836890148,-0.0242302566767,"[0.0, 0.0, 0.0, 0.0, 0.0, 0.0, 0.0, 0.0, 0.0]",,0.506944417953,0.117640465498,-9.43105125427,"[0.0, 0.0, 0.0, 0.0, 0.0, 0.0, 0.0, 0.0, 0.0]"
1508259956991895432,,90304,,1508259956,991647411,imu,,-0.021349882707,0.0153371626511,0.646111428738,0.762790262699,"[0.0, 0.0, 0.0, 0.0, 0.0, 0.0, 0.0, 0.0, 0.0]",,0.00116251385771,0.00253452826291,-0.0246095322073,"[0.0, 0.0, 0.0, 0.0, 0.0, 0.0, 0.0, 0.0, 0.0]",,0.415948808193,0.134887322783,-9.62387180328,"[0.0, 0.0, 0.0, 0.0, 0.0, 0.0, 0.0, 0.0, 0.0]"
1508259957002106473,,90305,,1508259957,1843504,imu,,-0.0213310085237,0.0153214437887,0.646110832691,0.762791693211,"[0.0, 0.0, 0.0, 0.0, 0.0, 0.0, 0.0, 0.0, 0.0]",,0.00129545561504,-0.00524367764592,-0.0244307760149,"[0.0, 0.0, 0.0, 0.0, 0.0, 0.0, 0.0, 0.0, 0.0]",,0.5579251647,0.122578270733,-9.55199623108,"[0.0, 0.0, 0.0, 0.0, 0.0, 0.0, 0.0, 0.0, 0.0]"
1508259957012916994,,90306,,1508259957,12291213,imu,,-0.0213228072971,0.0153363263234,0.646104454994,0.762796938419,"[0.0, 0.0, 0.0, 0.0, 0.0, 0.0, 0.0, 0.0, 0.0]",,0.00287358206697,0.00264837499708,-0.0260206665844,"[0.0, 0.0, 0.0, 0.0, 0.0, 0.0, 0.0, 0.0, 0.0]",,0.428075492382,0.106447644532,-9.43517112732,"[0.0, 0.0, 0.0, 0.0, 0.0, 0.0, 0.0, 0.0, 0.0]"
1508259957023040640,,90307,,1508259957,22583192,imu,,-0.0213136654347,0.0153344841674,0.646099805832,0.762801229954,"[0.0, 0.0, 0.0, 0.0, 0.0, 0.0, 0.0, 0.0, 0.0]",,-0.000158010006999,-0.00324785429984,-0.0247166752815,"[0.0, 0.0, 0.0, 0.0, 0.0, 0.0, 0.0, 0.0, 0.0]",,0.477836877108,0.149242013693,-9.67499828339,"[0.0, 0.0, 0.0, 0.0, 0.0, 0.0, 0.0, 0.0, 0.0]"
1508259957033199077,,90308,,1508259957,32787671,imu,,-0.0212993342429,0.0153237152845,0.646103739738,0.76279848814,"[0.0, 0.0, 0.0, 0.0, 0.0, 0.0, 0.0, 0.0, 0.0]",,0.00186746043619,-0.00220827804878,-0.0240902081132,"[0.0, 0.0, 0.0, 0.0, 0.0, 0.0, 0.0, 0.0, 0.0]",,0.511761248112,0.0986020192504,-9.43335533142,"[0.0, 0.0, 0.0, 0.0, 0.0, 0.0, 0.0, 0.0, 0.0]"
1508259957043304129,,90309,,1508259957,42979963,imu,,-0.0213027838618,0.015342454426,0.64610517025,0.76279681921,"[0.0, 0.0, 0.0, 0.0, 0.0, 0.0, 0.0, 0.0, 0.0]",,0.000763960182667,0.00318777584471,-0.0254324562848,"[0.0, 0.0, 0.0, 0.0, 0.0, 0.0, 0.0, 0.0, 0.0]",,0.402975797653,0.0959740057588,-9.62062454224,"[0.0, 0.0, 0.0, 0.0, 0.0, 0.0, 0.0, 0.0, 0.0]"
1508259957053721838,,90310,,1508259957,53175952,imu,,-0.0212967917323,0.0153172370046,0.646109640598,0.762793660164,"[0.0, 0.0, 0.0, 0.0, 0.0, 0.0, 0.0, 0.0, 0.0]",,-0.00259301788174,-0.00485335569829,-0.0244308300316,"[0.0, 0.0, 0.0, 0.0, 0.0, 0.0, 0.0, 0.0, 0.0]",,0.560176849365,0.118560798466,-9.58193874359,"[0.0, 0.0, 0.0, 0.0, 0.0, 0.0, 0.0, 0.0, 0.0]"
1508259957063660536,,90311,,1508259957,63371838,imu,,-0.021301291883,0.0153276631609,0.646109998226,0.762793064117,"[0.0, 0.0, 0.0, 0.0, 0.0, 0.0, 0.0, 0.0, 0.0]",,8.29751370475e-05,0.00316501362249,-0.0253421664238,"[0.0, 0.0, 0.0, 0.0, 0.0, 0.0, 0.0, 0.0, 0.0]",,0.410001277924,0.0859217792749,-9.47902393341,"[0.0, 0.0, 0.0, 0.0, 0.0, 0.0, 0.0, 0.0, 0.0]"
1508259957068637827,,90312,,1508259957,68478088,imu,,-0.0213102344424,0.015322051011,0.64611184597,0.762791335583,"[0.0, 0.0, 0.0, 0.0, 0.0, 0.0, 0.0, 0.0, 0.0]",,-0.00383134651929,-0.000529866316356,-0.0237643718719,"[0.0, 0.0, 0.0, 0.0, 0.0, 0.0, 0.0, 0.0, 0.0]",,0.469438254833,0.138648629189,-9.67397785187,"[0.0, 0.0, 0.0, 0.0, 0.0, 0.0, 0.0, 0.0, 0.0]"
1508259957078901786,,90313,,1508259957,78663400,imu,,-0.0213163532317,0.0153075866401,0.646114528179,0.76278924942,"[0.0, 0.0, 0.0, 0.0, 0.0, 0.0, 0.0, 0.0, 0.0]",,-0.00131492165383,-0.000263541762251,-0.0242029260844,"[0.0, 0.0, 0.0, 0.0, 0.0, 0.0, 0.0, 0.0, 0.0]",,0.510696053505,0.105072408915,-9.45999908447,"[0.0, 0.0, 0.0, 0.0, 0.0, 0.0, 0.0, 0.0, 0.0]"
1508259957089122463,,90314,,1508259957,88856004,imu,,-0.0213294383138,0.0153205981478,0.646116673946,0.76278680563,"[0.0, 0.0, 0.0, 0.0, 0.0, 0.0, 0.0, 0.0, 0.0]",,-0.00154544424731,0.00366768310778,-0.0249444339424,"[0.0, 0.0, 0.0, 0.0, 0.0, 0.0, 0.0, 0.0, 0.0]",,0.413755714893,0.148005768657,-9.55756568909,"[0.0, 0.0, 0.0, 0.0, 0.0, 0.0, 0.0, 0.0, 0.0]"
1508259957099267671,,90315,,1508259957,99052567,imu,,-0.0213307719678,0.0153043856844,0.646123468876,0.762781262398,"[0.0, 0.0, 0.0, 0.0, 0.0, 0.0, 0.0, 0.0, 0.0]",,-0.00186595227569,-0.00347149604931,-0.0239840131253,"[0.0, 0.0, 0.0, 0.0, 0.0, 0.0, 0.0, 0.0, 0.0]",,0.57212972641,0.153800144792,-9.56042098999,"[0.0, 0.0, 0.0, 0.0, 0.0, 0.0, 0.0, 0.0, 0.0]"
1508259957109706317,,90316,,1508259957,109475692,imu,,-0.0213337745517,0.015323347412,0.646120786667,0.762783110142,"[0.0, 0.0, 0.0, 0.0, 0.0, 0.0, 0.0, 0.0, 0.0]",,0.00240680575371,0.00506640970707,-0.0257087796926,"[0.0, 0.0, 0.0, 0.0, 0.0, 0.0, 0.0, 0.0, 0.0]",,0.425832748413,0.117042921484,-9.46619796753,"[0.0, 0.0, 0.0, 0.0, 0.0, 0.0, 0.0, 0.0, 0.0]"
1508259957120014129,,90317,,1508259957,119807723,imu,,-0.0213292706758,0.0153225222602,0.646118581295,0.762785077095,"[0.0, 0.0, 0.0, 0.0, 0.0, 0.0, 0.0, 0.0, 0.0]",,-0.000131861103,-0.00168405100703,-0.0238645002246,"[0.0, 0.0, 0.0, 0.0, 0.0, 0.0, 0.0, 0.0, 0.0]",,0.524010777473,0.159602895379,-9.65796375275,"[0.0, 0.0, 0.0, 0.0, 0.0, 0.0, 0.0, 0.0, 0.0]"
1508259957130228713,,90318,,1508259957,130007098,imu,,-0.0213196668774,0.0153204873204,0.646122157574,0.762782335281,"[0.0, 0.0, 0.0, 0.0, 0.0, 0.0, 0.0, 0.0, 0.0]",,0.00304285879247,-0.00193326652516,-0.0249215252697,"[0.0, 0.0, 0.0, 0.0, 0.0, 0.0, 0.0, 0.0, 0.0]",,0.532799422741,0.129611209035,-9.43883895874,"[0.0, 0.0, 0.0, 0.0, 0.0, 0.0, 0.0, 0.0, 0.0]"
1508259957140410171,,90319,,1508259957,140192827,imu,,-0.0213173534721,0.0153440767899,0.646118700504,0.762784898281,"[0.0, 0.0, 0.0, 0.0, 0.0, 0.0, 0.0, 0.0, 0.0]",,0.0020198917482,0.00393373705447,-0.0246250331402,"[0.0, 0.0, 0.0, 0.0, 0.0, 0.0, 0.0, 0.0, 0.0]",,0.424549520016,0.118930049241,-9.58484172821,"[0.0, 0.0, 0.0, 0.0, 0.0, 0.0, 0.0, 0.0, 0.0]"
1508259957150635952,,90320,,1508259957,150414859,imu,,-0.0213004238904,0.0153261525556,0.646121263504,0.762783586979,"[0.0, 0.0, 0.0, 0.0, 0.0, 0.0, 0.0, 0.0, 0.0]",,0.000236016159761,-0.00458020251244,-0.0232215188444,"[0.0, 0.0, 0.0, 0.0, 0.0, 0.0, 0.0, 0.0, 0.0]",,0.548793315887,0.106811925769,-9.55804157257,"[0.0, 0.0, 0.0, 0.0, 0.0, 0.0, 0.0, 0.0, 0.0]"
1508259957160866473,,90321,,1508259957,160616994,imu,,-0.02129843086,0.0153407352045,0.646120488644,0.762784004211,"[0.0, 0.0, 0.0, 0.0, 0.0, 0.0, 0.0, 0.0, 0.0]",,0.00140021834522,0.00393409840763,-0.0264384467155,"[0.0, 0.0, 0.0, 0.0, 0.0, 0.0, 0.0, 0.0, 0.0]",,0.431394815445,0.0826580822468,-9.47577285767,"[0.0, 0.0, 0.0, 0.0, 0.0, 0.0, 0.0, 0.0, 0.0]"
1508259957171036056,,90322,,1508259957,170808192,imu,,-0.0212894584984,0.0153393866494,0.646119832993,0.762784838676,"[0.0, 0.0, 0.0, 0.0, 0.0, 0.0, 0.0, 0.0, 0.0]",,-6.30171562079e-05,-0.00167985423468,-0.0234445165843,"[0.0, 0.0, 0.0, 0.0, 0.0, 0.0, 0.0, 0.0, 0.0]",,0.500395417213,0.110321350396,-9.6586523056,"[0.0, 0.0, 0.0, 0.0, 0.0, 0.0, 0.0, 0.0, 0.0]"
1508259957181273661,,90323,,1508259957,181005327,imu,,-0.0212866216898,0.0153264245018,0.646125137806,0.762780606747,"[0.0, 0.0, 0.0, 0.0, 0.0, 0.0, 0.0, 0.0, 0.0]",,-0.00152849685401,-0.00191298837308,-0.0237239915878,"[0.0, 0.0, 0.0, 0.0, 0.0, 0.0, 0.0, 0.0, 0.0]",,0.52204823494,0.0892937481403,-9.43903446198,"[0.0, 0.0, 0.0, 0.0, 0.0, 0.0, 0.0, 0.0, 0.0]"
1508259957191415431,,90324,,1508259957,191202202,imu,,-0.0213009845465,0.0153310168535,0.646126508713,0.762779057026,"[0.0, 0.0, 0.0, 0.0, 0.0, 0.0, 0.0, 0.0, 0.0]",,-0.0025491360575,0.00330023956485,-0.0243680868298,"[0.0, 0.0, 0.0, 0.0, 0.0, 0.0, 0.0, 0.0, 0.0]",,0.419421464205,0.118216745555,-9.58968353271,"[0.0, 0.0, 0.0, 0.0, 0.0, 0.0, 0.0, 0.0, 0.0]"
1508259957201604234,,90325,,1508259957,201387931,imu,,-0.0213011298329,0.015304800123,0.646130263805,0.762776374817,"[0.0, 0.0, 0.0, 0.0, 0.0, 0.0, 0.0, 0.0, 0.0]",,-0.00305279414169,-0.00425087381154,-0.0240748301148,"[0.0, 0.0, 0.0, 0.0, 0.0, 0.0, 0.0, 0.0, 0.0]",,0.552343130112,0.132348403335,-9.5482711792,"[0.0, 0.0, 0.0, 0.0, 0.0, 0.0, 0.0, 0.0, 0.0]"
1508259957211942984,,90326,,1508259957,211574025,imu,,-0.0213132500648,0.0153107009828,0.64612275362,0.762782275677,"[0.0, 0.0, 0.0, 0.0, 0.0, 0.0, 0.0, 0.0, 0.0]",,3.08515809593e-05,0.00384567771107,-0.0265587978065,"[0.0, 0.0, 0.0, 0.0, 0.0, 0.0, 0.0, 0.0, 0.0]",,0.432877361774,0.0989474952221,-9.43558502197,"[0.0, 0.0, 0.0, 0.0, 0.0, 0.0, 0.0, 0.0, 0.0]"
1508259957222043817,,90327,,1508259957,221773088,imu,,-0.0213198810816,0.0153037570417,0.646120965481,0.762783765793,"[0.0, 0.0, 0.0, 0.0, 0.0, 0.0, 0.0, 0.0, 0.0]",,-0.00264565343969,-0.00118709087837,-0.0229920782149,"[0.0, 0.0, 0.0, 0.0, 0.0, 0.0, 0.0, 0.0, 0.0]",,0.497354894876,0.178453683853,-9.69438743591,"[0.0, 0.0, 0.0, 0.0, 0.0, 0.0, 0.0, 0.0, 0.0]"
1508259957232186369,,90328,,1508259957,231978296,imu,,-0.0213152971119,0.0152922505513,0.646114587784,0.762789487839,"[0.0, 0.0, 0.0, 0.0, 0.0, 0.0, 0.0, 0.0, 0.0]",,0.000323425338138,-0.00173199910205,-0.024479303509,"[0.0, 0.0, 0.0, 0.0, 0.0, 0.0, 0.0, 0.0, 0.0]",,0.517087876797,0.127834945917,-9.43008041382,"[0.0, 0.0, 0.0, 0.0, 0.0, 0.0, 0.0, 0.0, 0.0]"
1508259957242432358,,90329,,1508259957,242187150,imu,,-0.0213195309043,0.0153119424358,0.646109044552,0.762793660164,"[0.0, 0.0, 0.0, 0.0, 0.0, 0.0, 0.0, 0.0, 0.0]",,0.00162182981148,0.004221979063,-0.0244729779661,"[0.0, 0.0, 0.0, 0.0, 0.0, 0.0, 0.0, 0.0, 0.0]",,0.412101328373,0.130091398954,-9.6075258255,"[0.0, 0.0, 0.0, 0.0, 0.0, 0.0, 0.0, 0.0, 0.0]"
1508259957252740744,,90330,,1508259957,252381786,imu,,-0.0213075634092,0.0152989849448,0.646114289761,0.762789785862,"[0.0, 0.0, 0.0, 0.0, 0.0, 0.0, 0.0, 0.0, 0.0]",,0.00073560414603,-0.00391995860264,-0.0237019713968,"[0.0, 0.0, 0.0, 0.0, 0.0, 0.0, 0.0, 0.0, 0.0]",,0.570337235928,0.139034405351,-9.56334877014,"[0.0, 0.0, 0.0, 0.0, 0.0, 0.0, 0.0, 0.0, 0.0]"
1508259957263204754,,90331,,1508259957,262909390,imu,,-0.021302960813,0.0153220137581,0.646110892296,0.762792348862,"[0.0, 0.0, 0.0, 0.0, 0.0, 0.0, 0.0, 0.0, 0.0]",,0.00421364791691,0.00448930449784,-0.0254069268703,"[0.0, 0.0, 0.0, 0.0, 0.0, 0.0, 0.0, 0.0, 0.0]",,0.42499050498,0.0869214907289,-9.48153305054,"[0.0, 0.0, 0.0, 0.0, 0.0, 0.0, 0.0, 0.0, 0.0]"
1508259957273393765,,90332,,1508259957,273103765,imu,,-0.0212950687855,0.0153280496597,0.646111428738,0.762791991234,"[0.0, 0.0, 0.0, 0.0, 0.0, 0.0, 0.0, 0.0, 0.0]",,0.000536421779543,-0.001392735634,-0.0234524160624,"[0.0, 0.0, 0.0, 0.0, 0.0, 0.0, 0.0, 0.0, 0.0]",,0.491647034883,0.110456883907,-9.71586036682,"[0.0, 0.0, 0.0, 0.0, 0.0, 0.0, 0.0, 0.0, 0.0]"
1508259957283603817,,90333,,1508259957,283290588,imu,,-0.0212801285088,0.0153254680336,0.646111130714,0.762792766094,"[0.0, 0.0, 0.0, 0.0, 0.0, 0.0, 0.0, 0.0, 0.0]",,0.00134398462251,-0.00117722852156,-0.0256130751222,"[0.0, 0.0, 0.0, 0.0, 0.0, 0.0, 0.0, 0.0, 0.0]",,0.53191870451,0.108063735068,-9.42232513428,"[0.0, 0.0, 0.0, 0.0, 0.0, 0.0, 0.0, 0.0, 0.0]"
1508259957288615223,,90334,,1508259957,288407879,imu,,-0.0212854519486,0.0153502486646,0.646108150482,0.762794613838,"[0.0, 0.0, 0.0, 0.0, 0.0, 0.0, 0.0, 0.0, 0.0]",,0.00071625621058,0.00483433855698,-0.0253842175007,"[0.0, 0.0, 0.0, 0.0, 0.0, 0.0, 0.0, 0.0, 0.0]",,0.426821053028,0.108179718256,-9.60458850861,"[0.0, 0.0, 0.0, 0.0, 0.0, 0.0, 0.0, 0.0, 0.0]"
1508259957298930067,,90335,,1508259957,298605067,imu,,-0.0212807450444,0.0153365852311,0.646114528179,0.762789607048,"[0.0, 0.0, 0.0, 0.0, 0.0, 0.0, 0.0, 0.0, 0.0]",,-0.00123803166207,-0.00404034880921,-0.0233729798347,"[0.0, 0.0, 0.0, 0.0, 0.0, 0.0, 0.0, 0.0, 0.0]",,0.577719449997,0.10216666013,-9.583943367,"[0.0, 0.0, 0.0, 0.0, 0.0, 0.0, 0.0, 0.0, 0.0]"
1508259957309079077,,90336,,1508259957,308812567,imu,,-0.0212858878076,0.0153460139409,0.646115660667,0.76278835535,"[0.0, 0.0, 0.0, 0.0, 0.0, 0.0, 0.0, 0.0, 0.0]",,0.000880297273397,0.00409821653739,-0.0258183646947,"[0.0, 0.0, 0.0, 0.0, 0.0, 0.0, 0.0, 0.0, 0.0]",,0.440219551325,0.0694292485714,-9.48872852325,"[0.0, 0.0, 0.0, 0.0, 0.0, 0.0, 0.0, 0.0, 0.0]"
1508259957319414077,,90337,,1508259957,319011213,imu,,-0.0212944075465,0.0153422374278,0.646117329597,0.76278668642,"[0.0, 0.0, 0.0, 0.0, 0.0, 0.0, 0.0, 0.0, 0.0]",,-0.00317471171729,-0.00109691522084,-0.0229415632784,"[0.0, 0.0, 0.0, 0.0, 0.0, 0.0, 0.0, 0.0, 0.0]",,0.483034521341,0.123046651483,-9.67765235901,"[0.0, 0.0, 0.0, 0.0, 0.0, 0.0, 0.0, 0.0, 0.0]"
1508259957329445744,,90338,,1508259957,329193036,imu,,-0.0212953519076,0.0153224980459,0.646115779877,0.76278847456,"[0.0, 0.0, 0.0, 0.0, 0.0, 0.0, 0.0, 0.0, 0.0]",,-0.00117000006139,-0.00187390507199,-0.0237866733223,"[0.0, 0.0, 0.0, 0.0, 0.0, 0.0, 0.0, 0.0, 0.0]",,0.519328653812,0.105535745621,-9.43472290039,"[0.0, 0.0, 0.0, 0.0, 0.0, 0.0, 0.0, 0.0, 0.0]"
1508259957339588088,,90339,,1508259957,339379911,imu,,-0.0213086325675,0.0153330648318,0.646113455296,0.762789845467,"[0.0, 0.0, 0.0, 0.0, 0.0, 0.0, 0.0, 0.0, 0.0]",,-0.00260471133515,0.0028310411144,-0.0244210157543,"[0.0, 0.0, 0.0, 0.0, 0.0, 0.0, 0.0, 0.0, 0.0]",,0.41482463479,0.133326500654,-9.5998134613,"[0.0, 0.0, 0.0, 0.0, 0.0, 0.0, 0.0, 0.0, 0.0]"
1508259957350022515,,90340,,1508259957,349575796,imu,,-0.021304000169,0.0153126111254,0.646112978458,0.762790739536,"[0.0, 0.0, 0.0, 0.0, 0.0, 0.0, 0.0, 0.0, 0.0]",,-0.00156440597493,-0.00459460075945,-0.0237930025905,"[0.0, 0.0, 0.0, 0.0, 0.0, 0.0, 0.0, 0.0, 0.0]",,0.571358919144,0.149578690529,-9.56199550629,"[0.0, 0.0, 0.0, 0.0, 0.0, 0.0, 0.0, 0.0, 0.0]"
1508259957359984233,,90341,,1508259957,359759494,imu,,-0.0213089138269,0.0153191313148,0.646110236645,0.762792766094,"[0.0, 0.0, 0.0, 0.0, 0.0, 0.0, 0.0, 0.0, 0.0]",,0.000984463840723,0.00307206017897,-0.0252121761441,"[0.0, 0.0, 0.0, 0.0, 0.0, 0.0, 0.0, 0.0, 0.0]",,0.422838151455,0.122097998857,-9.47953796387,"[0.0, 0.0, 0.0, 0.0, 0.0, 0.0, 0.0, 0.0, 0.0]"
1508259957370201213,,90342,,1508259957,369951629,imu,,-0.0213047675788,0.0153148379177,0.64610928297,0.762793838978,"[0.0, 0.0, 0.0, 0.0, 0.0, 0.0, 0.0, 0.0, 0.0]",,-0.000356327102054,-0.00226718909107,-0.0235016662627,"[0.0, 0.0, 0.0, 0.0, 0.0, 0.0, 0.0, 0.0, 0.0]",,0.500363588333,0.156400620937,-9.66903877258,"[0.0, 0.0, 0.0, 0.0, 0.0, 0.0, 0.0, 0.0, 0.0]"
1508259957380415431,,90343,,1508259957,380162046,imu,,-0.0212912485003,0.0153066013008,0.64610928297,0.76279437542,"[0.0, 0.0, 0.0, 0.0, 0.0, 0.0, 0.0, 0.0, 0.0]",,0.00228475127369,-0.00252404040657,-0.0245267339051,"[0.0, 0.0, 0.0, 0.0, 0.0, 0.0, 0.0, 0.0, 0.0]",,0.525505840778,0.100021786988,-9.43721008301,"[0.0, 0.0, 0.0, 0.0, 0.0, 0.0, 0.0, 0.0, 0.0]"
1508259957390566369,,90344,,1508259957,390349129,imu,,-0.0212940666825,0.0153335947543,0.64611274004,0.762790858746,"[0.0, 0.0, 0.0, 0.0, 0.0, 0.0, 0.0, 0.0, 0.0]",,0.00111511792056,0.0043401052244,-0.0245969556272,"[0.0, 0.0, 0.0, 0.0, 0.0, 0.0, 0.0, 0.0, 0.0]",,0.433454722166,0.119694843888,-9.58765220642,"[0.0, 0.0, 0.0, 0.0, 0.0, 0.0, 0.0, 0.0, 0.0]"
1508259957400827775,,90345,,1508259957,400576317,imu,,-0.0212776474655,0.0153242675588,0.646120429039,0.762784957886,"[0.0, 0.0, 0.0, 0.0, 0.0, 0.0, 0.0, 0.0, 0.0]",,0.00104002479929,-0.00444407109171,-0.0235784221441,"[0.0, 0.0, 0.0, 0.0, 0.0, 0.0, 0.0, 0.0, 0.0]",,0.561401486397,0.148276984692,-9.57864952087,"[0.0, 0.0, 0.0, 0.0, 0.0, 0.0, 0.0, 0.0, 0.0]"
1508259957411020067,,90346,,1508259957,410766890,imu,,-0.0212771967053,0.0153387421742,0.646118402481,0.762786388397,"[0.0, 0.0, 0.0, 0.0, 0.0, 0.0, 0.0, 0.0, 0.0]",,0.00317122112028,0.00464975880459,-0.0260860845447,"[0.0, 0.0, 0.0, 0.0, 0.0, 0.0, 0.0, 0.0, 0.0]",,0.429162114859,0.092006623745,-9.45172023773,"[0.0, 0.0, 0.0, 0.0, 0.0, 0.0, 0.0, 0.0, 0.0]"
1508259957421190536,,90347,,1508259957,420958765,imu,,-0.0212791971862,0.0153380893171,0.646119058132,0.762785792351,"[0.0, 0.0, 0.0, 0.0, 0.0, 0.0, 0.0, 0.0, 0.0]",,-0.002078397898,-0.000744966848288,-0.0235855635256,"[0.0, 0.0, 0.0, 0.0, 0.0, 0.0, 0.0, 0.0, 0.0]",,0.479996412992,0.13515868783,-9.69521141052,"[0.0, 0.0, 0.0, 0.0, 0.0, 0.0, 0.0, 0.0, 0.0]"
1508259957431385900,,90348,,1508259957,431138452,imu,,-0.0212706122547,0.0153316259384,0.646121382713,0.76278424263,"[0.0, 0.0, 0.0, 0.0, 0.0, 0.0, 0.0, 0.0, 0.0]",,0.00126052636188,-0.000870724848937,-0.0239100325853,"[0.0, 0.0, 0.0, 0.0, 0.0, 0.0, 0.0, 0.0, 0.0]",,0.527874290943,0.10229216516,-9.4573764801,"[0.0, 0.0, 0.0, 0.0, 0.0, 0.0, 0.0, 0.0, 0.0]"
1508259957441593140,,90349,,1508259957,441328765,imu,,-0.0212864857167,0.0153496032581,0.646115362644,0.762788414955,"[0.0, 0.0, 0.0, 0.0, 0.0, 0.0, 0.0, 0.0, 0.0]",,-0.00121534965001,0.00540538039058,-0.024340538308,"[0.0, 0.0, 0.0, 0.0, 0.0, 0.0, 0.0, 0.0, 0.0]",,0.424815028906,0.103406429291,-9.59246063232,"[0.0, 0.0, 0.0, 0.0, 0.0, 0.0, 0.0, 0.0, 0.0]"
1508259957451861004,,90350,,1508259957,451578244,imu,,-0.0212890114635,0.0153327751905,0.64611440897,0.762789547443,"[0.0, 0.0, 0.0, 0.0, 0.0, 0.0, 0.0, 0.0, 0.0]",,-0.00223375787027,-0.00327453669161,-0.0233247503638,"[0.0, 0.0, 0.0, 0.0, 0.0, 0.0, 0.0, 0.0, 0.0]",,0.562037467957,0.122909635305,-9.5911693573,"[0.0, 0.0, 0.0, 0.0, 0.0, 0.0, 0.0, 0.0, 0.0]"
1508259957461988713,,90351,,1508259957,461764858,imu,,-0.0212953966111,0.0153420940042,0.646111726761,0.762791454792,"[0.0, 0.0, 0.0, 0.0, 0.0, 0.0, 0.0, 0.0, 0.0]",,0.000382376660127,0.00378539948724,-0.0262357592583,"[0.0, 0.0, 0.0, 0.0, 0.0, 0.0, 0.0, 0.0, 0.0]",,0.435014218092,0.102735042572,-9.45661067963,"[0.0, 0.0, 0.0, 0.0, 0.0, 0.0, 0.0, 0.0, 0.0]"
1508259957472237046,,90352,,1508259957,471981160,imu,,-0.0213026925921,0.0153384488076,0.646106421947,0.762795805931,"[0.0, 0.0, 0.0, 0.0, 0.0, 0.0, 0.0, 0.0, 0.0]",,-0.00305840978399,-0.000889845832717,-0.0250991825014,"[0.0, 0.0, 0.0, 0.0, 0.0, 0.0, 0.0, 0.0, 0.0]",,0.489729166031,0.161473229527,-9.6503162384,"[0.0, 0.0, 0.0, 0.0, 0.0, 0.0, 0.0, 0.0, 0.0]"
1508259957482468869,,90353,,1508259957,482185379,imu,,-0.0213001668453,0.0153220435604,0.646108150482,0.762794733047,"[0.0, 0.0, 0.0, 0.0, 0.0, 0.0, 0.0, 0.0, 0.0]",,-6.08479531365e-05,-0.000957371143159,-0.0244933478534,"[0.0, 0.0, 0.0, 0.0, 0.0, 0.0, 0.0, 0.0, 0.0]",,0.528904736042,0.128089755774,-9.42923641205,"[0.0, 0.0, 0.0, 0.0, 0.0, 0.0, 0.0, 0.0, 0.0]"
1508259957492784494,,90354,,1508259957,492433244,imu,,-0.0213125590235,0.015340805985,0.64610761404,0.762794494629,"[0.0, 0.0, 0.0, 0.0, 0.0, 0.0, 0.0, 0.0, 0.0]",,-0.000378088530852,0.00447949720547,-0.0245494842529,"[0.0, 0.0, 0.0, 0.0, 0.0, 0.0, 0.0, 0.0, 0.0]",,0.412625193596,0.121364310384,-9.56868171692,"[0.0, 0.0, 0.0, 0.0, 0.0, 0.0, 0.0, 0.0, 0.0]"
1508259957503276056,,90355,,1508259957,502942463,imu,,-0.0213054120541,0.015326321125,0.646112263203,0.76279103756,"[0.0, 0.0, 0.0, 0.0, 0.0, 0.0, 0.0, 0.0, 0.0]",,0.000336504512234,-0.00388420606032,-0.0237594973296,"[0.0, 0.0, 0.0, 0.0, 0.0, 0.0, 0.0, 0.0, 0.0]",,0.561474204063,0.135980755091,-9.54747390747,"[0.0, 0.0, 0.0, 0.0, 0.0, 0.0, 0.0, 0.0, 0.0]"
1508259957513710327,,90356,,1508259957,513234963,imu,,-0.0213037319481,0.0153398197144,0.646113812923,0.762789547443,"[0.0, 0.0, 0.0, 0.0, 0.0, 0.0, 0.0, 0.0, 0.0]",,0.00251564360224,0.00402277056128,-0.0249021183699,"[0.0, 0.0, 0.0, 0.0, 0.0, 0.0, 0.0, 0.0, 0.0]",,0.451844573021,0.109949566424,-9.42602539062,"[0.0, 0.0, 0.0, 0.0, 0.0, 0.0, 0.0, 0.0, 0.0]"
1508259957519087931,,90357,,1508259957,518668452,imu,,-0.0213018227369,0.0153437359259,0.646110892296,0.762791872025,"[0.0, 0.0, 0.0, 0.0, 0.0, 0.0, 0.0, 0.0, 0.0]",,-0.000812741462141,-0.00102205853909,-0.0242540277541,"[0.0, 0.0, 0.0, 0.0, 0.0, 0.0, 0.0, 0.0, 0.0]",,0.506650924683,0.125529304147,-9.68283367157,"[0.0, 0.0, 0.0, 0.0, 0.0, 0.0, 0.0, 0.0, 0.0]"
1508259957529046525,,90358,,1508259957,528847098,imu,,-0.0212927237153,0.0153382141143,0.646106719971,0.762795746326,"[0.0, 0.0, 0.0, 0.0, 0.0, 0.0, 0.0, 0.0, 0.0]",,0.00208140537143,-0.000834448263049,-0.0252181310207,"[0.0, 0.0, 0.0, 0.0, 0.0, 0.0, 0.0, 0.0, 0.0]",,0.560204207897,0.109400011599,-9.45806121826,"[0.0, 0.0, 0.0, 0.0, 0.0, 0.0, 0.0, 0.0, 0.0]"
1508259957539348192,,90359,,1508259957,539027567,imu,,-0.021296499297,0.0153595162556,0.646101117134,0.762800097466,"[0.0, 0.0, 0.0, 0.0, 0.0, 0.0, 0.0, 0.0, 0.0]",,0.00123418821022,0.00295222690329,-0.0243144370615,"[0.0, 0.0, 0.0, 0.0, 0.0, 0.0, 0.0, 0.0, 0.0]",,0.404574990273,0.105355516076,-9.60679149628,"[0.0, 0.0, 0.0, 0.0, 0.0, 0.0, 0.0, 0.0, 0.0]"
1508259957549520483,,90360,,1508259957,549232567,imu,,-0.0212844815105,0.0153407296166,0.646100103855,0.762801647186,"[0.0, 0.0, 0.0, 0.0, 0.0, 0.0, 0.0, 0.0, 0.0]",,-0.000779904949013,-0.00569581612945,-0.0246392246336,"[0.0, 0.0, 0.0, 0.0, 0.0, 0.0, 0.0, 0.0, 0.0]",,0.566880822182,0.134850084782,-9.59244441986,"[0.0, 0.0, 0.0, 0.0, 0.0, 0.0, 0.0, 0.0, 0.0]"
1508259957559645015,,90361,,1508259957,559417202,imu,,-0.0212893001735,0.0153510821983,0.646093904972,0.762806534767,"[0.0, 0.0, 0.0, 0.0, 0.0, 0.0, 0.0, 0.0, 0.0]",,0.0013442884665,0.00282163708471,-0.0250333324075,"[0.0, 0.0, 0.0, 0.0, 0.0, 0.0, 0.0, 0.0, 0.0]",,0.437038064003,0.102417774498,-9.42816829681,"[0.0, 0.0, 0.0, 0.0, 0.0, 0.0, 0.0, 0.0, 0.0]"
1508259957569907306,,90362,,1508259957,569589285,imu,,-0.0212903246284,0.0153457783163,0.646091282368,0.762808859348,"[0.0, 0.0, 0.0, 0.0, 0.0, 0.0, 0.0, 0.0, 0.0]",,-0.00272192293778,-0.00147634150926,-0.0239531677216,"[0.0, 0.0, 0.0, 0.0, 0.0, 0.0, 0.0, 0.0, 0.0]",,0.496473073959,0.0985175669193,-9.66593647003,"[0.0, 0.0, 0.0, 0.0, 0.0, 0.0, 0.0, 0.0, 0.0]"
1508259957580071942,,90363,,1508259957,579791629,imu,,-0.0212835781276,0.0153341637924,0.646094024181,0.762806952,"[0.0, 0.0, 0.0, 0.0, 0.0, 0.0, 0.0, 0.0, 0.0]",,-0.000142443997902,-0.00245318096131,-0.0244310945272,"[0.0, 0.0, 0.0, 0.0, 0.0, 0.0, 0.0, 0.0, 0.0]",,0.522880136967,0.0830011814833,-9.44627380371,"[0.0, 0.0, 0.0, 0.0, 0.0, 0.0, 0.0, 0.0, 0.0]"
1508259957590216265,,90364,,1508259957,589985015,imu,,-0.0212899968028,0.0153464507312,0.646086573601,0.762812793255,"[0.0, 0.0, 0.0, 0.0, 0.0, 0.0, 0.0, 0.0, 0.0]",,-0.000447856960818,0.00343988323584,-0.0262802951038,"[0.0, 0.0, 0.0, 0.0, 0.0, 0.0, 0.0, 0.0, 0.0]",,0.421943664551,0.129327356815,-9.59370136261,"[0.0, 0.0, 0.0, 0.0, 0.0, 0.0, 0.0, 0.0, 0.0]"
1508259957600383556,,90365,,1508259957,600164338,imu,,-0.0212895739824,0.0153241958469,0.646088004112,0.762812077999,"[0.0, 0.0, 0.0, 0.0, 0.0, 0.0, 0.0, 0.0, 0.0]",,-0.00176013133023,-0.00384851894341,-0.023634377867,"[0.0, 0.0, 0.0, 0.0, 0.0, 0.0, 0.0, 0.0, 0.0]",,0.548536419868,0.133073627949,-9.57378196716,"[0.0, 0.0, 0.0, 0.0, 0.0, 0.0, 0.0, 0.0, 0.0]"
1508259957611241213,,90366,,1508259957,610984390,imu,,-0.0212950818241,0.015333591029,0.646086573601,0.762812972069,"[0.0, 0.0, 0.0, 0.0, 0.0, 0.0, 0.0, 0.0, 0.0]",,0.00173315394204,0.00407639425248,-0.0251703690737,"[0.0, 0.0, 0.0, 0.0, 0.0, 0.0, 0.0, 0.0, 0.0]",,0.422270447016,0.117611348629,-9.44779014587,"[0.0, 0.0, 0.0, 0.0, 0.0, 0.0, 0.0, 0.0, 0.0]"
1508259957621409494,,90367,,1508259957,621183452,imu,,-0.0213013999164,0.0153302485123,0.646087825298,0.762811779976,"[0.0, 0.0, 0.0, 0.0, 0.0, 0.0, 0.0, 0.0, 0.0]",,-0.00218069157563,0.000216752770939,-0.0238911211491,"[0.0, 0.0, 0.0, 0.0, 0.0, 0.0, 0.0, 0.0, 0.0]",,0.501751899719,0.146238788962,-9.65665626526,"[0.0, 0.0, 0.0, 0.0, 0.0, 0.0, 0.0, 0.0, 0.0]"
1508259957631573348,,90368,,1508259957,631359702,imu,,-0.0212983582169,0.0153209473938,0.646093189716,0.762807488441,"[0.0, 0.0, 0.0, 0.0, 0.0, 0.0, 0.0, 0.0, 0.0]",,0.000875771860592,-0.000759824877605,-0.0242831651121,"[0.0, 0.0, 0.0, 0.0, 0.0, 0.0, 0.0, 0.0, 0.0]",,0.518642783165,0.132400989532,-9.41937732697,"[0.0, 0.0, 0.0, 0.0, 0.0, 0.0, 0.0, 0.0, 0.0]"
1508259957641984129,,90369,,1508259957,641685327,imu,,-0.0213063657284,0.0153417224064,0.646090567112,0.762809097767,"[0.0, 0.0, 0.0, 0.0, 0.0, 0.0, 0.0, 0.0, 0.0]",,0.000700028496794,0.00434448476881,-0.0263257268816,"[0.0, 0.0, 0.0, 0.0, 0.0, 0.0, 0.0, 0.0, 0.0]",,0.409353613853,0.15088057518,-9.60138130188,"[0.0, 0.0, 0.0, 0.0, 0.0, 0.0, 0.0, 0.0, 0.0]"
1508259957652234077,,90370,,1508259957,651914546,imu,,-0.0212962143123,0.0153251774609,0.646089315414,0.762810766697,"[0.0, 0.0, 0.0, 0.0, 0.0, 0.0, 0.0, 0.0, 0.0]",,0.000362465332728,-0.00387605465949,-0.0238710418344,"[0.0, 0.0, 0.0, 0.0, 0.0, 0.0, 0.0, 0.0, 0.0]",,0.591517448425,0.145237535238,-9.56779003143,"[0.0, 0.0, 0.0, 0.0, 0.0, 0.0, 0.0, 0.0, 0.0]"
1508259957662315015,,90371,,1508259957,662097254,imu,,-0.0212987121195,0.0153386658058,0.646082043648,0.762816607952,"[0.0, 0.0, 0.0, 0.0, 0.0, 0.0, 0.0, 0.0, 0.0]",,0.00131782400422,0.00330882146955,-0.0250823106617,"[0.0, 0.0, 0.0, 0.0, 0.0, 0.0, 0.0, 0.0, 0.0]",,0.449143558741,0.0860291942954,-9.48192977905,"[0.0, 0.0, 0.0, 0.0, 0.0, 0.0, 0.0, 0.0, 0.0]"
1508259957672487515,,90372,,1508259957,672271890,imu,,-0.0212978739291,0.0153431966901,0.646079957485,0.762818217278,"[0.0, 0.0, 0.0, 0.0, 0.0, 0.0, 0.0, 0.0, 0.0]",,-0.000375355768483,-0.000824759830721,-0.023823691532,"[0.0, 0.0, 0.0, 0.0, 0.0, 0.0, 0.0, 0.0, 0.0]",,0.515583276749,0.139911711216,-9.69439315796,"[0.0, 0.0, 0.0, 0.0, 0.0, 0.0, 0.0, 0.0, 0.0]"
1508259957682840744,,90373,,1508259957,682462098,imu,,-0.0212889537215,0.015336711891,0.646081566811,0.762817263603,"[0.0, 0.0, 0.0, 0.0, 0.0, 0.0, 0.0, 0.0, 0.0]",,0.000863086315803,-0.00136641878635,-0.0242936890572,"[0.0, 0.0, 0.0, 0.0, 0.0, 0.0, 0.0, 0.0, 0.0]",,0.543540835381,0.0823815688491,-9.43863868713,"[0.0, 0.0, 0.0, 0.0, 0.0, 0.0, 0.0, 0.0, 0.0]"
1508259957693376108,,90374,,1508259957,692936160,imu,,-0.0212943404913,0.0153560899198,0.646079957485,0.762818098068,"[0.0, 0.0, 0.0, 0.0, 0.0, 0.0, 0.0, 0.0, 0.0]",,-0.000114852184197,0.00391191570088,-0.0253857187927,"[0.0, 0.0, 0.0, 0.0, 0.0, 0.0, 0.0, 0.0, 0.0]",,0.410279691219,0.106181487441,-9.57714939117,"[0.0, 0.0, 0.0, 0.0, 0.0, 0.0, 0.0, 0.0, 0.0]"
1508259957703435379,,90375,,1508259957,703126994,imu,,-0.0212910976261,0.0153403645381,0.646085739136,0.76281362772,"[0.0, 0.0, 0.0, 0.0, 0.0, 0.0, 0.0, 0.0, 0.0]",,-0.0018563629128,-0.0035474342294,-0.02402330935,"[0.0, 0.0, 0.0, 0.0, 0.0, 0.0, 0.0, 0.0, 0.0]",,0.576474547386,0.107870988548,-9.59068584442,"[0.0, 0.0, 0.0, 0.0, 0.0, 0.0, 0.0, 0.0, 0.0]"
1508259957713671629,,90376,,1508259957,713342046,imu,,-0.0212898459285,0.0153504190966,0.646085679531,0.762813508511,"[0.0, 0.0, 0.0, 0.0, 0.0, 0.0, 0.0, 0.0, 0.0]",,0.00194150023162,0.00233601918444,-0.0250148605555,"[0.0, 0.0, 0.0, 0.0, 0.0, 0.0, 0.0, 0.0, 0.0]",,0.432832062244,0.0912824869156,-9.47623825073,"[0.0, 0.0, 0.0, 0.0, 0.0, 0.0, 0.0, 0.0, 0.0]"
1508259957719552462,,90377,,1508259957,719262306,imu,,-0.0212923437357,0.0153456116095,0.646083772182,0.762815177441,"[0.0, 0.0, 0.0, 0.0, 0.0, 0.0, 0.0, 0.0, 0.0]",,-0.00161700078752,-0.000771229679231,-0.0251591168344,"[0.0, 0.0, 0.0, 0.0, 0.0, 0.0, 0.0, 0.0, 0.0]",,0.492278367281,0.16061258316,-9.6655960083,"[0.0, 0.0, 0.0, 0.0, 0.0, 0.0, 0.0, 0.0, 0.0]"
1508259957729785275,,90378,,1508259957,729521890,imu,,-0.021286111325,0.0153311518952,0.646085083485,0.76281452179,"[0.0, 0.0, 0.0, 0.0, 0.0, 0.0, 0.0, 0.0, 0.0]",,-0.000250507961027,-0.00260797608644,-0.02448579669,"[0.0, 0.0, 0.0, 0.0, 0.0, 0.0, 0.0, 0.0, 0.0]",,0.534763813019,0.106711365283,-9.42154979706,"[0.0, 0.0, 0.0, 0.0, 0.0, 0.0, 0.0, 0.0, 0.0]"
1508259957740040119,,90379,,1508259957,739753869,imu,,-0.0212937071919,0.0153419207782,0.64607656002,0.762821316719,"[0.0, 0.0, 0.0, 0.0, 0.0, 0.0, 0.0, 0.0, 0.0]",,-0.0010570762679,0.00310317892581,-0.0250068921596,"[0.0, 0.0, 0.0, 0.0, 0.0, 0.0, 0.0, 0.0, 0.0]",,0.422047674656,0.137927830219,-9.58373832703,"[0.0, 0.0, 0.0, 0.0, 0.0, 0.0, 0.0, 0.0, 0.0]"
1508259957750255483,,90380,,1508259957,749943869,imu,,-0.0212880130857,0.0153164165094,0.646076500416,0.76282197237,"[0.0, 0.0, 0.0, 0.0, 0.0, 0.0, 0.0, 0.0, 0.0]",,-0.00249501038343,-0.00477627944201,-0.0237751733512,"[0.0, 0.0, 0.0, 0.0, 0.0, 0.0, 0.0, 0.0, 0.0]",,0.578342497349,0.159396469593,-9.59648513794,"[0.0, 0.0, 0.0, 0.0, 0.0, 0.0, 0.0, 0.0, 0.0]"
1508259957760410952,,90381,,1508259957,760137254,imu,,-0.0212928745896,0.0153226405382,0.646073400974,0.762824356556,"[0.0, 0.0, 0.0, 0.0, 0.0, 0.0, 0.0, 0.0, 0.0]",,0.00137310358696,0.00324097531848,-0.0261972490698,"[0.0, 0.0, 0.0, 0.0, 0.0, 0.0, 0.0, 0.0, 0.0]",,0.426599621773,0.0985979139805,-9.44287109375,"[0.0, 0.0, 0.0, 0.0, 0.0, 0.0, 0.0, 0.0, 0.0]"
1508259957770671421,,90382,,1508259957,770367879,imu,,-0.0212922990322,0.0153200970963,0.646077811718,0.762820661068,"[0.0, 0.0, 0.0, 0.0, 0.0, 0.0, 0.0, 0.0, 0.0]",,-0.0013896827586,-0.00141473661643,-0.0236593261361,"[0.0, 0.0, 0.0, 0.0, 0.0, 0.0, 0.0, 0.0, 0.0]",,0.465138435364,0.128046393394,-9.67412567139,"[0.0, 0.0, 0.0, 0.0, 0.0, 0.0, 0.0, 0.0, 0.0]"
1508259957780816004,,90383,,1508259957,780563348,imu,,-0.0212843734771,0.0153073361143,0.646084427834,0.762815654278,"[0.0, 0.0, 0.0, 0.0, 0.0, 0.0, 0.0, 0.0, 0.0]",,1.86346296687e-05,-0.00215468625538,-0.0245141088963,"[0.0, 0.0, 0.0, 0.0, 0.0, 0.0, 0.0, 0.0, 0.0]",,0.542330443859,0.132905229926,-9.46829605103,"[0.0, 0.0, 0.0, 0.0, 0.0, 0.0, 0.0, 0.0, 0.0]"
1508259957790998192,,90384,,1508259957,790753296,imu,,-0.0212933942676,0.0153285562992,0.646086931229,0.762812793255,"[0.0, 0.0, 0.0, 0.0, 0.0, 0.0, 0.0, 0.0, 0.0]",,0.000525315757841,0.00518382899463,-0.0236663222313,"[0.0, 0.0, 0.0, 0.0, 0.0, 0.0, 0.0, 0.0, 0.0]",,0.385981976986,0.114379674196,-9.57054328918,"[0.0, 0.0, 0.0, 0.0, 0.0, 0.0, 0.0, 0.0, 0.0]"
1508259957801246733,,90385,,1508259957,801019494,imu,,-0.0212822817266,0.0153146879748,0.646087408066,0.762812972069,"[0.0, 0.0, 0.0, 0.0, 0.0, 0.0, 0.0, 0.0, 0.0]",,0.000326343870256,-0.00402887491509,-0.0243864171207,"[0.0, 0.0, 0.0, 0.0, 0.0, 0.0, 0.0, 0.0, 0.0]",,0.578123807907,0.113350994885,-9.57534217834,"[0.0, 0.0, 0.0, 0.0, 0.0, 0.0, 0.0, 0.0, 0.0]"
1508259957811571890,,90386,,1508259957,811300275,imu,,-0.0212805196643,0.0153337586671,0.646080374718,0.76281863451,"[0.0, 0.0, 0.0, 0.0, 0.0, 0.0, 0.0, 0.0, 0.0]",,0.00328990654089,0.0030137761496,-0.0258294194937,"[0.0, 0.0, 0.0, 0.0, 0.0, 0.0, 0.0, 0.0, 0.0]",,0.401707470417,0.114993289113,-9.44299125671,"[0.0, 0.0, 0.0, 0.0, 0.0, 0.0, 0.0, 0.0, 0.0]"
1508259957821867410,,90387,,1508259957,821570327,imu,,-0.0212776679546,0.0153322219849,0.646078646183,0.762820184231,"[0.0, 0.0, 0.0, 0.0, 0.0, 0.0, 0.0, 0.0, 0.0]",,-0.000276707636658,-0.000932251219638,-0.0239144675434,"[0.0, 0.0, 0.0, 0.0, 0.0, 0.0, 0.0, 0.0, 0.0]",,0.475849211216,0.112150512636,-9.65946388245,"[0.0, 0.0, 0.0, 0.0, 0.0, 0.0, 0.0, 0.0, 0.0]"
1508259957832103817,,90388,,1508259957,831841265,imu,,-0.0212663523853,0.0153201101348,0.646078169346,0.762821137905,"[0.0, 0.0, 0.0, 0.0, 0.0, 0.0, 0.0, 0.0, 0.0]",,0.00120060064364,-0.00231169676408,-0.0252191759646,"[0.0, 0.0, 0.0, 0.0, 0.0, 0.0, 0.0, 0.0, 0.0]",,0.521757662296,0.0981733575463,-9.4393787384,"[0.0, 0.0, 0.0, 0.0, 0.0, 0.0, 0.0, 0.0, 0.0]"
1508259957842482567,,90389,,1508259957,842066004,imu,,-0.021274689585,0.0153374951333,0.646075963974,0.762822449207,"[0.0, 0.0, 0.0, 0.0, 0.0, 0.0, 0.0, 0.0, 0.0]",,-0.000467360921903,0.00396003667265,-0.0248583815992,"[0.0, 0.0, 0.0, 0.0, 0.0, 0.0, 0.0, 0.0, 0.0]",,0.405567705631,0.132136806846,-9.58556175232,"[0.0, 0.0, 0.0, 0.0, 0.0, 0.0, 0.0, 0.0, 0.0]"
1508259957852666473,,90390,,1508259957,852300223,imu,,-0.0212648250163,0.0153172407299,0.646084010601,0.76281619072,"[0.0, 0.0, 0.0, 0.0, 0.0, 0.0, 0.0, 0.0, 0.0]",,-0.000732830027118,-0.00442819716409,-0.0237304437906,"[0.0, 0.0, 0.0, 0.0, 0.0, 0.0, 0.0, 0.0, 0.0]",,0.589062571526,0.122402139008,-9.61428070068,"[0.0, 0.0, 0.0, 0.0, 0.0, 0.0, 0.0, 0.0, 0.0]"
1508259957862960171,,90391,,1508259957,862625015,imu,,-0.0212689135224,0.015328858979,0.646084785461,0.762815356255,"[0.0, 0.0, 0.0, 0.0, 0.0, 0.0, 0.0, 0.0, 0.0]",,0.00175147457048,0.00312659051269,-0.0249835290015,"[0.0, 0.0, 0.0, 0.0, 0.0, 0.0, 0.0, 0.0, 0.0]",,0.425606369972,0.0880862474442,-9.46191120148,"[0.0, 0.0, 0.0, 0.0, 0.0, 0.0, 0.0, 0.0, 0.0]"
1508259957873198869,,90392,,1508259957,872887515,imu,,-0.0212725773454,0.0153274293989,0.646082818508,0.762816905975,"[0.0, 0.0, 0.0, 0.0, 0.0, 0.0, 0.0, 0.0, 0.0]",,-0.00175955321174,0.000250732176937,-0.0238918494433,"[0.0, 0.0, 0.0, 0.0, 0.0, 0.0, 0.0, 0.0, 0.0]",,0.488575190306,0.150549396873,-9.66511058807,"[0.0, 0.0, 0.0, 0.0, 0.0, 0.0, 0.0, 0.0, 0.0]"
1508259957883485171,,90393,,1508259957,883119233,imu,,-0.0212723650038,0.0153180370107,0.64608746767,0.762813091278,"[0.0, 0.0, 0.0, 0.0, 0.0, 0.0, 0.0, 0.0, 0.0]",,-0.000327622168697,-0.000540532229934,-0.0248348489404,"[0.0, 0.0, 0.0, 0.0, 0.0, 0.0, 0.0, 0.0, 0.0]",,0.539711654186,0.1022759974,-9.46411132812,"[0.0, 0.0, 0.0, 0.0, 0.0, 0.0, 0.0, 0.0, 0.0]"
1508259957893661421,,90394,,1508259957,893329233,imu,,-0.0212814938277,0.0153349293396,0.646081030369,0.762818038464,"[0.0, 0.0, 0.0, 0.0, 0.0, 0.0, 0.0, 0.0, 0.0]",,-0.000343040272128,0.00469775591046,-0.0246119070798,"[0.0, 0.0, 0.0, 0.0, 0.0, 0.0, 0.0, 0.0, 0.0]",,0.402261465788,0.12393464148,-9.56505203247,"[0.0, 0.0, 0.0, 0.0, 0.0, 0.0, 0.0, 0.0, 0.0]"
1508259957898900900,,90395,,1508259957,898693139,imu,,-0.0212737228721,0.0153102027252,0.646081328392,0.762818455696,"[0.0, 0.0, 0.0, 0.0, 0.0, 0.0, 0.0, 0.0, 0.0]",,-0.00269346195273,-0.00515406858176,-0.0236558839679,"[0.0, 0.0, 0.0, 0.0, 0.0, 0.0, 0.0, 0.0, 0.0]",,0.578014314175,0.137703597546,-9.56676769257,"[0.0, 0.0, 0.0, 0.0, 0.0, 0.0, 0.0, 0.0, 0.0]"
1508259957909219233,,90396,,1508259957,908896994,imu,,-0.0212770942599,0.0153239117935,0.646082341671,0.762817263603,"[0.0, 0.0, 0.0, 0.0, 0.0, 0.0, 0.0, 0.0, 0.0]",,0.00203840457834,0.00280803069472,-0.0259762406349,"[0.0, 0.0, 0.0, 0.0, 0.0, 0.0, 0.0, 0.0, 0.0]",,0.428691208363,0.118366897106,-9.40928077698,"[0.0, 0.0, 0.0, 0.0, 0.0, 0.0, 0.0, 0.0, 0.0]"
1508259957919306629,,90397,,1508259957,919094494,imu,,-0.0212807338685,0.0153222139925,0.646085321903,0.762814640999,"[0.0, 0.0, 0.0, 0.0, 0.0, 0.0, 0.0, 0.0, 0.0]",,-0.00141930719838,-0.000523161317687,-0.0241006538272,"[0.0, 0.0, 0.0, 0.0, 0.0, 0.0, 0.0, 0.0, 0.0]",,0.500030398369,0.148974448442,-9.68611526489,"[0.0, 0.0, 0.0, 0.0, 0.0, 0.0, 0.0, 0.0, 0.0]"
1508259957929533504,,90398,,1508259957,929286473,imu,,-0.021269576624,0.0153093505651,0.646090626717,0.762810766697,"[0.0, 0.0, 0.0, 0.0, 0.0, 0.0, 0.0, 0.0, 0.0]",,0.00129901641048,-0.0026770120021,-0.0248176939785,"[0.0, 0.0, 0.0, 0.0, 0.0, 0.0, 0.0, 0.0, 0.0]",,0.537073612213,0.100122310221,-9.45466709137,"[0.0, 0.0, 0.0, 0.0, 0.0, 0.0, 0.0, 0.0, 0.0]"
1508259957940021317,,90399,,1508259957,939821160,imu,,-0.0212735012174,0.0153344636783,0.646086394787,0.762813687325,"[0.0, 0.0, 0.0, 0.0, 0.0, 0.0, 0.0, 0.0, 0.0]",,0.00222730310634,0.00483321771026,-0.0254435949028,"[0.0, 0.0, 0.0, 0.0, 0.0, 0.0, 0.0, 0.0, 0.0]",,0.393006682396,0.115683615208,-9.56938934326,"[0.0, 0.0, 0.0, 0.0, 0.0, 0.0, 0.0, 0.0, 0.0]"
1508259957950317202,,90400,,1508259957,950009806,imu,,-0.0212646797299,0.0153161287308,0.646084368229,0.76281607151,"[0.0, 0.0, 0.0, 0.0, 0.0, 0.0, 0.0, 0.0, 0.0]",,-0.0011793357553,-0.00526450574398,-0.0243612639606,"[0.0, 0.0, 0.0, 0.0, 0.0, 0.0, 0.0, 0.0, 0.0]",,0.573879599571,0.12171331048,-9.59332752228,"[0.0, 0.0, 0.0, 0.0, 0.0, 0.0, 0.0, 0.0, 0.0]"
1508259957960493556,,90401,,1508259957,960205014,imu,,-0.0212668273598,0.0153271444142,0.646081507206,0.762818098068,"[0.0, 0.0, 0.0, 0.0, 0.0, 0.0, 0.0, 0.0, 0.0]",,0.00113372481428,0.0039994888939,-0.0252877920866,"[0.0, 0.0, 0.0, 0.0, 0.0, 0.0, 0.0, 0.0, 0.0]",,0.465842813253,0.101873740554,-9.45562934875,"[0.0, 0.0, 0.0, 0.0, 0.0, 0.0, 0.0, 0.0, 0.0]"
1508259957970751108,,90402,,1508259957,970407983,imu,,-0.0212694741786,0.0153342811391,0.646082699299,0.76281696558,"[0.0, 0.0, 0.0, 0.0, 0.0, 0.0, 0.0, 0.0, 0.0]",,-0.000776053406298,0.000315054378007,-0.0236807931215,"[0.0, 0.0, 0.0, 0.0, 0.0, 0.0, 0.0, 0.0, 0.0]",,0.503388464451,0.123525686562,-9.66617298126,"[0.0, 0.0, 0.0, 0.0, 0.0, 0.0, 0.0, 0.0, 0.0]"
1508259957980966264,,90403,,1508259957,980603452,imu,,-0.0212597250938,0.0153215993196,0.646077394485,0.76282197237,"[0.0, 0.0, 0.0, 0.0, 0.0, 0.0, 0.0, 0.0, 0.0]",,0.000880335283,-0.00279498589225,-0.0242737922817,"[0.0, 0.0, 0.0, 0.0, 0.0, 0.0, 0.0, 0.0, 0.0]",,0.549851357937,0.106579855084,-9.44833564758,"[0.0, 0.0, 0.0, 0.0, 0.0, 0.0, 0.0, 0.0, 0.0]"
1508259957991695952,,90404,,1508259957,990839546,imu,,-0.0212701316923,0.0153376432136,0.646068572998,0.762828826904,"[0.0, 0.0, 0.0, 0.0, 0.0, 0.0, 0.0, 0.0, 0.0]",,-0.000760938040912,0.00418746005744,-0.0250845253468,"[0.0, 0.0, 0.0, 0.0, 0.0, 0.0, 0.0, 0.0, 0.0]",,0.423959970474,0.0842386186123,-9.59526062012,"[0.0, 0.0, 0.0, 0.0, 0.0, 0.0, 0.0, 0.0, 0.0]"
1508259958001262827,,90405,,1508259958,1033973,imu,,-0.021262254566,0.0153144933283,0.646070659161,0.762827754021,"[0.0, 0.0, 0.0, 0.0, 0.0, 0.0, 0.0, 0.0, 0.0]",,-0.0017324546352,-0.00463289674371,-0.0233389306813,"[0.0, 0.0, 0.0, 0.0, 0.0, 0.0, 0.0, 0.0, 0.0]",,0.565621972084,0.132993757725,-9.61818504333,"[0.0, 0.0, 0.0, 0.0, 0.0, 0.0, 0.0, 0.0, 0.0]"
1508259958011650587,,90406,,1508259958,11231108,imu,,-0.0212679132819,0.0153204435483,0.646063506603,0.762833535671,"[0.0, 0.0, 0.0, 0.0, 0.0, 0.0, 0.0, 0.0, 0.0]",,0.000229810291785,0.00334786670282,-0.0264630801976,"[0.0, 0.0, 0.0, 0.0, 0.0, 0.0, 0.0, 0.0, 0.0]",,0.413470923901,0.108268991113,-9.47348594666,"[0.0, 0.0, 0.0, 0.0, 0.0, 0.0, 0.0, 0.0, 0.0]"
1508259958022008973,,90407,,1508259958,21735014,imu,,-0.0212663784623,0.015313799493,0.646057665348,0.762838661671,"[0.0, 0.0, 0.0, 0.0, 0.0, 0.0, 0.0, 0.0, 0.0]",,-0.00162603473291,-0.00176462449599,-0.0251043308526,"[0.0, 0.0, 0.0, 0.0, 0.0, 0.0, 0.0, 0.0, 0.0]",,0.487161815166,0.156022340059,-9.66361427307,"[0.0, 0.0, 0.0, 0.0, 0.0, 0.0, 0.0, 0.0, 0.0]"
1508259958032279650,,90408,,1508259958,31973504,imu,,-0.0212620850652,0.0152971288189,0.646057844162,0.762838959694,"[0.0, 0.0, 0.0, 0.0, 0.0, 0.0, 0.0, 0.0, 0.0]",,-0.000702643941622,-0.00271686352789,-0.0257735867053,"[0.0, 0.0, 0.0, 0.0, 0.0, 0.0, 0.0, 0.0, 0.0]",,0.533516645432,0.0849537998438,-9.46433353424,"[0.0, 0.0, 0.0, 0.0, 0.0, 0.0, 0.0, 0.0, 0.0]"
1508259958042557879,,90409,,1508259958,42198400,imu,,-0.0212746188045,0.0153154674917,0.646056294441,0.76283955574,"[0.0, 0.0, 0.0, 0.0, 0.0, 0.0, 0.0, 0.0, 0.0]",,-0.000323006330291,0.00374291883782,-0.0240938346833,"[0.0, 0.0, 0.0, 0.0, 0.0, 0.0, 0.0, 0.0, 0.0]",,0.395259290934,0.121258176863,-9.57564163208,"[0.0, 0.0, 0.0, 0.0, 0.0, 0.0, 0.0, 0.0, 0.0]"
1508259958052730639,,90410,,1508259958,52396212,imu,,-0.0212687365711,0.0152965625748,0.646056056023,0.762840211391,"[0.0, 0.0, 0.0, 0.0, 0.0, 0.0, 0.0, 0.0, 0.0]",,-0.00126808462664,-0.00373088545166,-0.0249250028282,"[0.0, 0.0, 0.0, 0.0, 0.0, 0.0, 0.0, 0.0, 0.0]",,0.567800521851,0.141195341945,-9.57405090332,"[0.0, 0.0, 0.0, 0.0, 0.0, 0.0, 0.0, 0.0, 0.0]"
1508259958063033400,,90411,,1508259958,62675952,imu,,-0.0212702788413,0.0153074748814,0.646057546139,0.76283878088,"[0.0, 0.0, 0.0, 0.0, 0.0, 0.0, 0.0, 0.0, 0.0]",,0.000967689789832,0.00292678247206,-0.0254653021693,"[0.0, 0.0, 0.0, 0.0, 0.0, 0.0, 0.0, 0.0, 0.0]",,0.435659587383,0.116680771112,-9.44442367554,"[0.0, 0.0, 0.0, 0.0, 0.0, 0.0, 0.0, 0.0, 0.0]"
1508259958073272046,,90412,,1508259958,72930014,imu,,-0.0212724618614,0.01530886814,0.646057665348,0.762838602066,"[0.0, 0.0, 0.0, 0.0, 0.0, 0.0, 0.0, 0.0, 0.0]",,-0.00143786426634,0.000171328603756,-0.0247578620911,"[0.0, 0.0, 0.0, 0.0, 0.0, 0.0, 0.0, 0.0, 0.0]",,0.488365232944,0.142876580358,-9.68349266052,"[0.0, 0.0, 0.0, 0.0, 0.0, 0.0, 0.0, 0.0, 0.0]"
1508259958083433139,,90413,,1508259958,83130483,imu,,-0.0212692636997,0.0153006799519,0.64605820179,0.762838304043,"[0.0, 0.0, 0.0, 0.0, 0.0, 0.0, 0.0, 0.0, 0.0]",,-0.000111034751171,-0.000501909118611,-0.0242981761694,"[0.0, 0.0, 0.0, 0.0, 0.0, 0.0, 0.0, 0.0, 0.0]",,0.549188613892,0.1053725034,-9.44279670715,"[0.0, 0.0, 0.0, 0.0, 0.0, 0.0, 0.0, 0.0, 0.0]"
1508259958088742202,,90414,,1508259958,88498921,imu,,-0.0212785694748,0.0153286317363,0.646054029465,0.762841105461,"[0.0, 0.0, 0.0, 0.0, 0.0, 0.0, 0.0, 0.0, 0.0]",,0.00199374835938,0.00645937817171,-0.0248830541968,"[0.0, 0.0, 0.0, 0.0, 0.0, 0.0, 0.0, 0.0, 0.0]",,0.432532072067,0.133230626583,-9.53424739838,"[0.0, 0.0, 0.0, 0.0, 0.0, 0.0, 0.0, 0.0, 0.0]"
1508259958099005171,,90415,,1508259958,98683192,imu,,-0.0212730858475,0.0153160374612,0.646056413651,0.762839496136,"[0.0, 0.0, 0.0, 0.0, 0.0, 0.0, 0.0, 0.0, 0.0]",,-1.53298606165e-05,-0.00320394104347,-0.0236469320953,"[0.0, 0.0, 0.0, 0.0, 0.0, 0.0, 0.0, 0.0, 0.0]",,0.58416980505,0.131605222821,-9.59790706635,"[0.0, 0.0, 0.0, 0.0, 0.0, 0.0, 0.0, 0.0, 0.0]"
1508259958109247046,,90416,,1508259958,108885171,imu,,-0.021274920553,0.0153338555247,0.646057009697,0.762838602066,"[0.0, 0.0, 0.0, 0.0, 0.0, 0.0, 0.0, 0.0, 0.0]",,0.002661309205,0.00371787115,-0.0260791443288,"[0.0, 0.0, 0.0, 0.0, 0.0, 0.0, 0.0, 0.0, 0.0]",,0.453124880791,0.114314675331,-9.43486690521,"[0.0, 0.0, 0.0, 0.0, 0.0, 0.0, 0.0, 0.0, 0.0]"
1508259958119501264,,90417,,1508259958,119131004,imu,,-0.0212808195502,0.0153347430751,0.646056711674,0.762838661671,"[0.0, 0.0, 0.0, 0.0, 0.0, 0.0, 0.0, 0.0, 0.0]",,-0.00231208326295,-0.000384559505619,-0.0245992187411,"[0.0, 0.0, 0.0, 0.0, 0.0, 0.0, 0.0, 0.0, 0.0]",,0.491092771292,0.135581374168,-9.67450332642,"[0.0, 0.0, 0.0, 0.0, 0.0, 0.0, 0.0, 0.0, 0.0]"
1508259958129693973,,90418,,1508259958,129396212,imu,,-0.0212736651301,0.0153237394989,0.646052539349,0.762842595577,"[0.0, 0.0, 0.0, 0.0, 0.0, 0.0, 0.0, 0.0, 0.0]",,-0.000266956398264,-0.00295531889424,-0.0255113113672,"[0.0, 0.0, 0.0, 0.0, 0.0, 0.0, 0.0, 0.0, 0.0]",,0.542753756046,0.125235497952,-9.42032527924,"[0.0, 0.0, 0.0, 0.0, 0.0, 0.0, 0.0, 0.0, 0.0]"
1508259958139794129,,90419,,1508259958,139588191,imu,,-0.0212786179036,0.0153375407681,0.646048426628,0.762845635414,"[0.0, 0.0, 0.0, 0.0, 0.0, 0.0, 0.0, 0.0, 0.0]",,-0.000360060366802,0.00306880800053,-0.024561073631,"[0.0, 0.0, 0.0, 0.0, 0.0, 0.0, 0.0, 0.0, 0.0]",,0.407714724541,0.0836301222444,-9.54592514038,"[0.0, 0.0, 0.0, 0.0, 0.0, 0.0, 0.0, 0.0, 0.0]"
1508259958150047098,,90420,,1508259958,149782358,imu,,-0.0212670397013,0.015315935947,0.646049261093,0.762845695019,"[0.0, 0.0, 0.0, 0.0, 0.0, 0.0, 0.0, 0.0, 0.0]",,-0.000991753768176,-0.00492415111512,-0.0234798230231,"[0.0, 0.0, 0.0, 0.0, 0.0, 0.0, 0.0, 0.0, 0.0]",,0.587984979153,0.118638567626,-9.60137653351,"[0.0, 0.0, 0.0, 0.0, 0.0, 0.0, 0.0, 0.0, 0.0]"
1508259958160197775,,90421,,1508259958,159977827,imu,,-0.0212647859007,0.0153214959428,0.646051228046,0.762844026089,"[0.0, 0.0, 0.0, 0.0, 0.0, 0.0, 0.0, 0.0, 0.0]",,0.000360301462933,0.00138368527405,-0.0248158052564,"[0.0, 0.0, 0.0, 0.0, 0.0, 0.0, 0.0, 0.0, 0.0]",,0.439795732498,0.0887581557035,-9.45178508759,"[0.0, 0.0, 0.0, 0.0, 0.0, 0.0, 0.0, 0.0, 0.0]"
1508259958170594962,,90422,,1508259958,170321994,imu,,-0.0212692897767,0.0153205422685,0.646048367023,0.76284635067,"[0.0, 0.0, 0.0, 0.0, 0.0, 0.0, 0.0, 0.0, 0.0]",,-0.00216985307634,0.000564611516893,-0.0237359125167,"[0.0, 0.0, 0.0, 0.0, 0.0, 0.0, 0.0, 0.0, 0.0]",,0.487072229385,0.154083490372,-9.65420150757,"[0.0, 0.0, 0.0, 0.0, 0.0, 0.0, 0.0, 0.0, 0.0]"
1508259958180778973,,90423,,1508259958,180523921,imu,,-0.0212625544518,0.015304338187,0.646050155163,0.762845218182,"[0.0, 0.0, 0.0, 0.0, 0.0, 0.0, 0.0, 0.0, 0.0]",,-2.43059475906e-05,-0.00315965549089,-0.0242026112974,"[0.0, 0.0, 0.0, 0.0, 0.0, 0.0, 0.0, 0.0, 0.0]",,0.545181751251,0.106041945517,-9.43129253387,"[0.0, 0.0, 0.0, 0.0, 0.0, 0.0, 0.0, 0.0, 0.0]"
1508259958191024285,,90424,,1508259958,190801264,imu,,-0.0212707780302,0.015313141048,0.646045148373,0.762849152088,"[0.0, 0.0, 0.0, 0.0, 0.0, 0.0, 0.0, 0.0, 0.0]",,-0.000957131851465,0.00318215764128,-0.0258224010468,"[0.0, 0.0, 0.0, 0.0, 0.0, 0.0, 0.0, 0.0, 0.0]",,0.405464112759,0.111821085215,-9.57135772705,"[0.0, 0.0, 0.0, 0.0, 0.0, 0.0, 0.0, 0.0, 0.0]"
1508259958201453244,,90425,,1508259958,201035223,imu,,-0.0212652720511,0.0152952140197,0.64604395628,0.762850522995,"[0.0, 0.0, 0.0, 0.0, 0.0, 0.0, 0.0, 0.0, 0.0]",,-0.00177772028837,-0.003692407161,-0.0247204583138,"[0.0, 0.0, 0.0, 0.0, 0.0, 0.0, 0.0, 0.0, 0.0]",,0.584301590919,0.144385397434,-9.55839729309,"[0.0, 0.0, 0.0, 0.0, 0.0, 0.0, 0.0, 0.0, 0.0]"
1508259958211631108,,90426,,1508259958,211236004,imu,,-0.0212714802474,0.0153091903776,0.646043777466,0.762850344181,"[0.0, 0.0, 0.0, 0.0, 0.0, 0.0, 0.0, 0.0, 0.0]",,0.00138361868449,0.00350656057708,-0.0249097421765,"[0.0, 0.0, 0.0, 0.0, 0.0, 0.0, 0.0, 0.0, 0.0]",,0.420031458139,0.123640656471,-9.44354629517,"[0.0, 0.0, 0.0, 0.0, 0.0, 0.0, 0.0, 0.0, 0.0]"
1508259958221664337,,90427,,1508259958,221433869,imu,,-0.0212774090469,0.0153116025031,0.64604395628,0.762849986553,"[0.0, 0.0, 0.0, 0.0, 0.0, 0.0, 0.0, 0.0, 0.0]",,-0.00186284689698,0.000891251547728,-0.0241004414856,"[0.0, 0.0, 0.0, 0.0, 0.0, 0.0, 0.0, 0.0, 0.0]",,0.445045053959,0.161953687668,-9.68210220337,"[0.0, 0.0, 0.0, 0.0, 0.0, 0.0, 0.0, 0.0, 0.0]"
1508259958231905275,,90428,,1508259958,231700952,imu,,-0.0212697591633,0.0152999563143,0.646042466164,0.762851655483,"[0.0, 0.0, 0.0, 0.0, 0.0, 0.0, 0.0, 0.0, 0.0]",,0.00103432836477,-0.00128845637664,-0.0250354036689,"[0.0, 0.0, 0.0, 0.0, 0.0, 0.0, 0.0, 0.0, 0.0]",,0.560917615891,0.128253430128,-9.46593475342,"[0.0, 0.0, 0.0, 0.0, 0.0, 0.0, 0.0, 0.0, 0.0]"
1508259958242364129,,90429,,1508259958,241968400,imu,,-0.021279649809,0.0153205934912,0.64603805542,0.762854754925,"[0.0, 0.0, 0.0, 0.0, 0.0, 0.0, 0.0, 0.0, 0.0]",,0.000622035411652,0.00474878773093,-0.025084277615,"[0.0, 0.0, 0.0, 0.0, 0.0, 0.0, 0.0, 0.0, 0.0]",,0.398364007473,0.147784143686,-9.56104755402,"[0.0, 0.0, 0.0, 0.0, 0.0, 0.0, 0.0, 0.0, 0.0]"
1508259958252475900,,90430,,1508259958,252211056,imu,,-0.0212736483663,0.0153097491711,0.646043121815,0.762850880623,"[0.0, 0.0, 0.0, 0.0, 0.0, 0.0, 0.0, 0.0, 0.0]",,0.000271594326477,-0.00310688721947,-0.0236802976578,"[0.0, 0.0, 0.0, 0.0, 0.0, 0.0, 0.0, 0.0, 0.0]",,0.598621487617,0.149663373828,-9.58119773865,"[0.0, 0.0, 0.0, 0.0, 0.0, 0.0, 0.0, 0.0, 0.0]"
1508259958262712723,,90431,,1508259958,262403139,imu,,-0.0212756153196,0.0153280152008,0.646041333675,0.762851834297,"[0.0, 0.0, 0.0, 0.0, 0.0, 0.0, 0.0, 0.0, 0.0]",,0.00217139325105,0.00444181216881,-0.0250800140202,"[0.0, 0.0, 0.0, 0.0, 0.0, 0.0, 0.0, 0.0, 0.0]",,0.453716427088,0.0843042507768,-9.45977115631,"[0.0, 0.0, 0.0, 0.0, 0.0, 0.0, 0.0, 0.0, 0.0]"
1508259958273216889,,90432,,1508259958,272895014,imu,,-0.0212705731392,0.0153369680047,0.646041572094,0.762851715088,"[0.0, 0.0, 0.0, 0.0, 0.0, 0.0, 0.0, 0.0, 0.0]",,0.000241804344114,-0.000479212554637,-0.024827376008,"[0.0, 0.0, 0.0, 0.0, 0.0, 0.0, 0.0, 0.0, 0.0]",,0.491551280022,0.130311265588,-9.69892215729,"[0.0, 0.0, 0.0, 0.0, 0.0, 0.0, 0.0, 0.0, 0.0]"
1508259958283751889,,90433,,1508259958,283406004,imu,,-0.021259855479,0.0153296235949,0.646050810814,0.762844324112,"[0.0, 0.0, 0.0, 0.0, 0.0, 0.0, 0.0, 0.0, 0.0]",,0.00137202837504,-0.00277987867594,-0.024024695158,"[0.0, 0.0, 0.0, 0.0, 0.0, 0.0, 0.0, 0.0, 0.0]",,0.543701469898,0.074174977839,-9.46348381042,"[0.0, 0.0, 0.0, 0.0, 0.0, 0.0, 0.0, 0.0, 0.0]"
1508259958289036421,,90434,,1508259958,288859181,imu,,-0.0212672259659,0.0153474966064,0.646049439907,0.762844920158,"[0.0, 0.0, 0.0, 0.0, 0.0, 0.0, 0.0, 0.0, 0.0]",,0.000321081315633,0.0045408452861,-0.0256362445652,"[0.0, 0.0, 0.0, 0.0, 0.0, 0.0, 0.0, 0.0, 0.0]",,0.403408825397,0.0965560674667,-9.57169342041,"[0.0, 0.0, 0.0, 0.0, 0.0, 0.0, 0.0, 0.0, 0.0]"
1508259958299314650,,90435,,1508259958,299032514,imu,,-0.021262684837,0.0153299244121,0.646053910255,0.762841582298,"[0.0, 0.0, 0.0, 0.0, 0.0, 0.0, 0.0, 0.0, 0.0]",,-0.00249369908124,-0.00431891344488,-0.0238148681819,"[0.0, 0.0, 0.0, 0.0, 0.0, 0.0, 0.0, 0.0, 0.0]",,0.585888564587,0.121939115226,-9.62400436401,"[0.0, 0.0, 0.0, 0.0, 0.0, 0.0, 0.0, 0.0, 0.0]"
1508259958309610171,,90436,,1508259958,309225275,imu,,-0.0212669335306,0.0153320208192,0.646048903465,0.762845695019,"[0.0, 0.0, 0.0, 0.0, 0.0, 0.0, 0.0, 0.0, 0.0]",,-0.000138546049129,0.0017926315777,-0.026947228238,"[0.0, 0.0, 0.0, 0.0, 0.0, 0.0, 0.0, 0.0, 0.0]",,0.442647814751,0.0927055925131,-9.41631507874,"[0.0, 0.0, 0.0, 0.0, 0.0, 0.0, 0.0, 0.0, 0.0]"
1508259958319706785,,90437,,1508259958,319428764,imu,,-0.0212743412703,0.015330770053,0.646048367023,0.762845993042,"[0.0, 0.0, 0.0, 0.0, 0.0, 0.0, 0.0, 0.0, 0.0]",,-0.00235739094205,-0.000410947715864,-0.0232777521014,"[0.0, 0.0, 0.0, 0.0, 0.0, 0.0, 0.0, 0.0, 0.0]",,0.483592510223,0.146998554468,-9.66739273071,"[0.0, 0.0, 0.0, 0.0, 0.0, 0.0, 0.0, 0.0, 0.0]"
1508259958329901368,,90438,,1508259958,329651837,imu,,-0.0212703775615,0.0153087992221,0.646051645279,0.762843728065,"[0.0, 0.0, 0.0, 0.0, 0.0, 0.0, 0.0, 0.0, 0.0]",,-0.00132861849852,-0.0033783132676,-0.0245360434055,"[0.0, 0.0, 0.0, 0.0, 0.0, 0.0, 0.0, 0.0, 0.0]",,0.539528012276,0.114740818739,-9.45645332336,"[0.0, 0.0, 0.0, 0.0, 0.0, 0.0, 0.0, 0.0, 0.0]"
1508259958340093556,,90439,,1508259958,339835275,imu,,-0.0212785378098,0.0153145091608,0.646046519279,0.762847721577,"[0.0, 0.0, 0.0, 0.0, 0.0, 0.0, 0.0, 0.0, 0.0]",,-0.00074374396354,0.00322019611485,-0.0256193112582,"[0.0, 0.0, 0.0, 0.0, 0.0, 0.0, 0.0, 0.0, 0.0]",,0.413770347834,0.139736101031,-9.57127475739,"[0.0, 0.0, 0.0, 0.0, 0.0, 0.0, 0.0, 0.0, 0.0]"
