rosbagTimestamp,header,seq,stamp,secs,nsecs,frame_id,pose,position,x,y,z,orientation,x,y,z,w
1.50817E+18,,1,,1508174408,835870981,0,,,3825.772461,942.4106445,111.124115,,0.136686116,0.533918738,-0.031934351,-0.833803177
1.50817E+18,,2,,1508174408,854295969,0,,,3816.482422,929.6011963,101.554718,,0.12760894,0.574553967,-0.000304878,-0.808457494
1.50817E+18,,3,,1508174408,874020099,0,,,3802.903809,930.1130371,99.36404419,,0.200868949,0.61917758,0.036999352,-0.758222759
1.50817E+18,,4,,1508174408,894953966,0,,,3781.115234,931.9423828,87.56387329,,0.213812679,0.628814101,0.088965349,-0.742268205
1.50817E+18,,5,,1508174408,914659023,0,,,3765.094727,926.1333008,82.65322876,,0.204819649,0.636949062,0.074337497,-0.739471912
1.50817E+18,,6,,1508174408,934462070,0,,,3752.75293,915.8149414,81.70010376,,0.180082127,0.639908195,0.050703906,-0.745330036
1.50817E+18,,7,,1508174408,954562902,0,,,3750.939941,911.447998,80.00210571,,0.192829311,0.610925257,0.017301597,-0.767650783
1.50817E+18,,8,,1508174408,973793029,0,,,3756.884766,908.4772949,73.74313354,,0.229383796,0.58162421,-0.044273049,-0.779189467
1.50817E+18,,9,,1508174408,993912935,0,,,3739.269531,897.3435059,56.23605347,,0.240568429,0.609885275,0.024615318,-0.754692554
1.50817E+18,,10,,1508174409,14451980,0,,,3728.142578,885.6234131,49.47814941,,0.23918587,0.612993598,0.033937454,-0.752248168
1.50817E+18,,11,,1508174409,33871889,0,,,3716.404297,875.4001465,45.72790527,,0.240747705,0.60993731,0.028225407,-0.754466951
1.50817E+18,,12,,1508174409,52886962,0,,,3702.823242,862.8532715,43.42147827,,0.244882464,0.608421206,0.024426147,-0.754492939
1.50817E+18,,13,,1508174409,72707891,0,,,3690.743652,847.6154785,36.00961304,,0.240999863,0.612027764,0.016207829,-0.753046036
1.50817E+18,,14,,1508174409,94233989,0,,,3688.200684,835.0219727,27.84078979,,0.259410053,0.606632531,0.007743374,-0.751427531
1.50817E+18,,15,,1508174409,112464904,0,,,3674.067871,818.7600098,25.46749878,,0.2540133,0.605042338,0.011956573,-0.754491925
1.50817E+18,,16,,1508174409,132285118,0,,,3663.990723,802.4777832,22.2895813,,0.260609508,0.606704116,0.016656145,-0.750809848
1.50817E+18,,17,,1508174409,153080940,0,,,3657.506836,780.3764648,14.28359985,,0.251900494,0.609789789,0.005983353,-0.751443088
1.50817E+18,,18,,1508174409,171679019,0,,,3649.195801,765.9589844,12.87368774,,0.250354409,0.606189728,0.013852999,-0.754761398
1.50817E+18,,19,,1508174409,190978050,0,,,3639.867676,746.2109375,9.124969482,,0.248785406,0.606059849,0.011233971,-0.755427718
1.50817E+18,,20,,1508174409,210886001,0,,,3636.140625,723.8151855,6.607635498,,0.246388435,0.593434751,0.014026701,-0.766114354
1.50817E+18,,21,,1508174409,231235027,0,,,3631.578125,701.2888184,1.484039307,,0.246256769,0.596770346,0.003487602,-0.763682187
1.50817E+18,,22,,1508174409,250770092,0,,,3622.896484,682.1054688,-1.755218506,,0.244912654,0.594328463,0.014763832,-0.765880942
1.50817E+18,,23,,1508174409,270778894,0,,,3614.27002,664.9609375,-4.527557373,,0.248630345,0.599084079,0.002637669,-0.761100769
1.50817E+18,,24,,1508174409,290750026,0,,,3607.281738,646.1818848,-6.652679443,,0.255641073,0.60012722,0.000165448,-0.757954478
1.50817E+18,,25,,1508174409,310697078,0,,,3600.288574,627.4143066,-8.116119385,,0.248947024,0.601985514,0.007541656,-0.758671224
1.50817E+18,,26,,1508174409,329278945,0,,,3596.102051,607.0559082,-13.2739563,,0.253072053,0.606980324,0.000757843,-0.753345072
1.50817E+18,,27,,1508174409,349042892,0,,,3591.42041,587.4099121,-20.21835327,,0.267378002,0.606972098,-0.010337621,-0.748322725
1.50817E+18,,28,,1508174409,369545936,0,,,3584.214844,566.7802734,-23.63619995,,0.277537704,0.607057214,-0.011816278,-0.744523048
1.50817E+18,,29,,1508174409,389125108,0,,,3554.290039,533.4243164,-21.68063354,,0.197835132,0.652723074,-0.012912229,-0.731195688
1.50817E+18,,30,,1508174409,408587932,0,,,3536.527832,505.3361816,-18.06674194,,0.138753787,0.676820338,0.007236458,-0.722917259
1.50817E+18,,31,,1508174409,428400993,0,,,3529.391602,485.4802246,-18.05648804,,0.12257272,0.678336322,0.01905378,-0.724204779
1.50817E+18,,32,,1508174409,448532104,0,,,3521.437988,470.5495605,-20.11917114,,0.133102998,0.684652448,0.000630833,-0.716613054
1.50817E+18,,33,,1508174409,467947959,0,,,3519.251953,454.7722168,-20.43130493,,0.139593616,0.677306354,0.007621147,-0.722296178
1.50817E+18,,34,,1508174409,487473964,0,,,3517.929688,438.8520508,-21.16647339,,0.139513537,0.679502308,0.009268664,-0.720226765
1.50817E+18,,35,,1508174409,507105112,0,,,3541.323242,496.2021484,-45.73886108,,0.108024567,0.518629491,-0.281738639,-0.799985886
1.50817E+18,,36,,1508174409,526894092,0,,,3533.879883,385.2585449,-0.447540283,,0.046979085,0.612871528,0.080438256,-0.784672558
1.50817E+18,,37,,1508174409,547486066,0,,,3524.678223,370.4240723,-5.640350342,,0.051788226,0.637217939,0.057573058,-0.766783357
1.50817E+18,,38,,1508174409,566673994,0,,,3517.055664,357.9562988,-6.7059021,,0.046589002,0.643176436,0.07244613,-0.760858238
1.50817E+18,,39,,1508174409,586796045,0,,,3509.59082,344.4758301,-8.706390381,,0.045811638,0.641124964,0.068102248,-0.763034821
1.50817E+18,,40,,1508174409,606600046,0,,,3508.545898,333.5246582,-8.368988037,,0.047213003,0.636905432,0.080665872,-0.765255094
1.50817E+18,,41,,1508174409,628427982,0,,,3504.069824,321.4550781,-8.24899292,,0.05001758,0.640823245,0.055944934,-0.764011741
1.50817E+18,,42,,1508174409,646136045,0,,,3505.922852,313.5754395,-8.548614502,,0.042401478,0.638448596,0.071741588,-0.765139639
1.50817E+18,,43,,1508174409,665898084,0,,,3502.347656,304.6538086,-7.22567749,,0.036185101,0.631991386,0.079262339,-0.770061731
1.50817E+18,,44,,1508174409,685681104,0,,,3499.299805,294.5776367,-5.242462158,,0.04444921,0.613822937,0.083932154,-0.783709764
1.50817E+18,,45,,1508174409,705713987,0,,,3490.380371,291.5427246,-14.00619507,,0.050368428,0.629070163,0.069870003,-0.772561908
1.50817E+18,,46,,1508174409,725550889,0,,,3490.068848,281.6970215,-11.54116821,,0.046646476,0.619918346,0.054081284,-0.781409323
1.50817E+18,,47,,1508174409,745063066,0,,,3488.849121,274.9743652,-9.141204834,,0.050811872,0.622846127,0.068173759,-0.77771014
1.50817E+18,,48,,1508174409,765158891,0,,,3483.818848,265.7263184,-9.47354126,,0.063338906,0.611404419,0.054783873,-0.786874533
1.50817E+18,,49,,1508174409,784823894,0,,,3477.877441,262.1828613,-13.50735474,,0.064833313,0.630903721,0.042317435,-0.77198863
1.50817E+18,,50,,1508174409,805531978,0,,,3477.150879,259.8952637,-13.26589966,,0.062841669,0.629546165,0.049817085,-0.772813618
1.50817E+18,,51,,1508174409,825043916,0,,,3480.431152,256.5578613,-11.04568481,,0.060428113,0.626966834,0.048508011,-0.775182545
1.50817E+18,,52,,1508174409,845232963,0,,,3477.986328,250.559082,-8.34664917,,0.058305606,0.612009406,0.048654363,-0.7871961
1.50817E+18,,53,,1508174409,865819931,0,,,3474.580078,249.4584961,-13.86593628,,0.05761005,0.631781876,0.043992482,-0.771749616
1.50817E+18,,54,,1508174409,884341955,0,,,3474.473633,248.2902832,-17.30203247,,0.035526231,0.624694705,0.016371541,-0.77988869
1.50817E+18,,55,,1508174409,904503107,0,,,3475.257324,247.3061523,-15.96737671,,0.056000099,0.625104845,0.038072385,-0.777597785
1.50817E+18,,56,,1508174409,924087047,0,,,3476.28418,243.6445313,-14.4133606,,0.065251589,0.627653897,0.054224193,-0.773855567
1.50817E+18,,57,,1508174409,943804025,0,,,3473.818359,237.9509277,-12.9815979,,0.056269601,0.62381047,0.048700206,-0.778024793
1.50817E+18,,58,,1508174409,963903903,0,,,3474.524902,233.3950195,-12.83798218,,0.06616433,0.63454622,0.05479084,-0.76809597
1.50817E+18,,59,,1508174409,983664035,0,,,3471.001465,232.8505859,-10.91854858,,0.060528636,0.6271559,0.038711235,-0.775572896
1.50817E+18,,60,,1508174410,3458976,0,,,3471.574707,233.4919434,-14.80209351,,0.040245175,0.603131175,0.015326723,-0.796478748
1.50817E+18,,61,,1508174410,22933006,0,,,3470.662598,231.0397949,-13.07357788,,0.055339247,0.628798366,0.03407833,-0.774847627
1.50817E+18,,62,,1508174410,43315887,0,,,3471.962402,228.5927734,-12.96640015,,0.049519435,0.624647141,0.041501507,-0.778229713
1.50817E+18,,63,,1508174410,70030927,0,,,3469.44043,230.2583008,-11.34945679,,0.050561637,0.628426075,0.031434812,-0.775587678
1.50817E+18,,64,,1508174410,83616018,0,,,3471.450195,226.880127,-10.8364563,,0.033297434,0.606774807,0.028609179,-0.793660581
1.50817E+18,,65,,1508174410,101852893,0,,,3469.232422,225.8132324,-10.62643433,,0.027106717,0.618485093,0.040237807,-0.784297287
1.50817E+18,,66,,1508174410,121169090,0,,,3470.379883,225.4709473,-9.329498291,,0.022693992,0.617012143,0.032568567,-0.785951853
1.50817E+18,,67,,1508174410,146905899,0,,,3470.057617,228.8046875,-8.596343994,,0.015696242,0.610785604,0.021857865,-0.791338623
1.50817E+18,,68,,1508174410,163752079,0,,,3471.810547,217.2700195,2.525054932,,0.033412322,0.612191439,0.039032251,-0.789038539
1.50817E+18,,69,,1508174410,180979967,0,,,3471.561035,213.7111816,3.142608643,,0.039585903,0.631175756,0.050746746,-0.772965074
1.50817E+18,,70,,1508174410,201204061,0,,,3468.687988,207.9919434,7.809417725,,0.044944897,0.637026548,0.042405084,-0.768361092
1.50817E+18,,71,,1508174410,220390081,0,,,3472.109863,200.7268066,9.44644165,,0.041061893,0.609517574,0.037428036,-0.790823102
1.50817E+18,,72,,1508174410,239957094,0,,,3472.048828,200.6750488,11.71035767,,0.025844246,0.608958542,0.055294886,-0.790850222
1.50817E+18,,73,,1508174410,260373115,0,,,3472.609375,209.6616211,7.609222412,,-0.01366742,0.608312309,0.059038527,-0.791381001
1.50817E+18,,74,,1508174410,280463933,0,,,3470.943359,209.5671387,7.639312744,,-0.026349664,0.605466545,0.044742763,-0.794175088
1.50817E+18,,75,,1508174410,300061941,0,,,3469.99707,208.697998,8.900909424,,-0.015630633,0.607181907,0.050758436,-0.792785823
1.50817E+18,,76,,1508174410,320185899,0,,,3472.665039,208.6533203,4.299102783,,-0.020201087,0.600928307,0.029374905,-0.798507512
1.50817E+18,,77,,1508174410,339967966,0,,,3471.19873,208.2124023,6.483062744,,0.001065284,0.615249276,0.029872343,-0.787765741
1.50817E+18,,78,,1508174410,359364986,0,,,3474.165527,206.7167969,5.579742432,,0.007015869,0.613828242,0.03552258,-0.788608789
1.50817E+18,,79,,1508174410,379394054,0,,,3476.802246,207.755127,4.995697021,,-0.008984745,0.608255923,0.030576184,-0.793101013
1.50817E+18,,80,,1508174410,398684024,0,,,3474.90332,206.6169434,8.751434326,,-0.001982361,0.603510022,0.05860664,-0.795196176
1.50817E+18,,81,,1508174410,418018102,0,,,3474.130371,207.3012695,5.025115967,,0.003874794,0.623067617,0.046794541,-0.780757368
1.50817E+18,,82,,1508174410,437907934,0,,,3475.711914,202.9121094,7.393218994,,0.008379802,0.621927559,0.033026651,-0.782333136
1.50817E+18,,83,,1508174410,457739114,0,,,3476.914063,201.7038574,8.168609619,,0.013316706,0.620935142,0.042823866,-0.782578051
1.50817E+18,,84,,1508174410,478785037,0,,,3475.620605,206.6989746,7.059051514,,-0.00973323,0.594258785,0.034534574,-0.803473234
1.50817E+18,,85,,1508174410,496973991,0,,,3478.910645,207.8786621,6.149627686,,-0.00801301,0.607798278,0.007088631,-0.794019461
1.50817E+18,,86,,1508174410,516607999,0,,,3474.979004,233.637207,1.005645752,,0.020254284,0.592899501,-0.067503028,-0.802186608
1.50817E+18,,87,,1508174410,536614894,0,,,3473.512695,239.5739746,2.066802979,,0.072265387,0.600866556,-0.111399926,-0.788243055
1.50817E+18,,88,,1508174410,556940078,0,,,3476.14209,204.3701172,9.683197021,,0.011773422,0.606216073,0.034088038,-0.794481874
1.50817E+18,,89,,1508174410,576242923,0,,,3478.334473,201.4624023,10.43710327,,0.02776055,0.622266293,0.021262109,-0.782024324
1.50817E+18,,90,,1508174410,595843076,0,,,3470.281738,210.958252,10.34207153,,0.026539251,0.625868917,-0.00770016,-0.779438615
1.50817E+18,,91,,1508174410,615838050,0,,,3471.388184,213.9345703,6.156341553,,0.021757752,0.606275797,8.46E-05,-0.794956744
1.50817E+18,,92,,1508174410,635706901,0,,,3467.300781,212.6149902,4.245269775,,-0.010630906,0.595643342,0.011226259,-0.803100228
1.50817E+18,,93,,1508174410,655255079,0,,,3459.364258,220.3308105,2.745880127,,-0.01650849,0.60347724,-0.019860849,-0.796961844
1.50817E+18,,94,,1508174410,675156116,0,,,3459.19043,217.2790527,5.670257568,,0.002847821,0.610674977,-0.009990536,-0.791813195
1.50817E+18,,95,,1508174410,694796085,0,,,3461.291016,214.7651367,8.690765381,,0.000675976,0.608203053,-0.003454104,-0.793773711
1.50817E+18,,96,,1508174410,715380907,0,,,3461.97998,210.526123,11.40090942,,-0.005790979,0.607011557,0.013687685,-0.794554055
1.50817E+18,,97,,1508174410,735414028,0,,,3459.667969,214.8747559,6.742156982,,-0.001415819,0.61392504,-0.009603009,-0.789304614
1.50817E+18,,98,,1508174410,756989002,0,,,3459.950684,216.673584,6.974639893,,0.011009544,0.611276627,-0.012558706,-0.791240752
1.50817E+18,,99,,1508174410,777190923,0,,,3462.42334,212.3691406,8.7159729,,0.009122252,0.617483735,-0.004615255,-0.786517262
1.50817E+18,,100,,1508174410,794652938,0,,,3459.654297,217.996582,7.445526123,,-0.014012516,0.591872573,-0.006454125,-0.805883884
1.50817E+18,,101,,1508174410,814042091,0,,,3459.74707,215.0778809,7.379669189,,0.003677368,0.613719583,0.003286675,-0.789508581
1.50817E+18,,102,,1508174410,834069967,0,,,3460.970215,210.4013672,9.063751221,,0.006754905,0.61792171,0.001979358,-0.786208034
1.50817E+18,,103,,1508174410,854808092,0,,,3462.810059,213.1936035,7.391143799,,0.002636969,0.610042453,-0.004216351,-0.792353153
1.50817E+18,,104,,1508174410,873812913,0,,,3460.91748,214.8569336,10.11642456,,0.00384295,0.603306711,-0.00435482,-0.797488034
1.50817E+18,,105,,1508174410,893474102,0,,,3463.302734,213.2106934,8.27041626,,0.017226845,0.626006961,0.009449966,-0.779569924
1.50817E+18,,106,,1508174410,913327932,0,,,3463.178711,212.595459,6.3800354,,0.020929068,0.629653454,0.015095286,-0.776447415
1.50817E+18,,107,,1508174410,935015916,0,,,3464.257324,212.1123047,8.653717041,,0.012551978,0.618036091,-0.000192516,-0.786049485
1.50817E+18,,108,,1508174410,953598022,0,,,3462.547852,214.2443848,8.070953369,,0.009711266,0.59686929,0.007829964,-0.802241564
1.50817E+18,,109,,1508174410,973017930,0,,,3466.541504,211.4846191,7.367828369,,-0.006820083,0.601823866,0.008125246,-0.798558354
1.50817E+18,,110,,1508174410,991966009,0,,,3458.930664,216.5700684,2.175140381,,-0.000600427,0.618255973,0.006076597,-0.785953045
1.50817E+18,,111,,1508174411,12135982,0,,,3466.5625,212.7868652,5.918609619,,0.004324436,0.61232698,0.016128533,-0.79042834
1.50817E+18,,112,,1508174411,32005071,0,,,3459.878418,214.5910645,9.760894775,,0.008074969,0.605055213,0.005743235,-0.796121895
1.50817E+18,,113,,1508174411,51772117,0,,,3455.861816,216.1115723,5.923431396,,0.00552687,0.620447874,-0.001496337,-0.784226775
1.50817E+18,,114,,1508174411,71945905,0,,,3450.085938,219.0996094,6.145172119,,0.006560475,0.623633146,-0.01870013,-0.781465828
1.50817E+18,,115,,1508174411,91284036,0,,,3454.708496,221.4006348,6.506378174,,0.00416711,0.609966993,-0.013055727,-0.792308271
1.50817E+18,,116,,1508174411,112099885,0,,,3454.066406,224.689209,10.00552368,,0.012049705,0.601448536,-0.01741261,-0.798630834
1.50817E+18,,117,,1508174411,138164043,0,,,3448.517578,222.2316895,4.691864014,,0.004125893,0.618332744,-0.032530248,-0.785232008
1.50817E+18,,118,,1508174411,150618076,0,,,3447.806641,223.5842285,5.060577393,,0.001046181,0.619769573,-0.021767356,-0.784481168
1.50817E+18,,119,,1508174411,171021938,0,,,3454.196289,218.5759277,8.952545166,,0.010573655,0.613308251,-0.018464044,-0.78955698
1.50817E+18,,120,,1508174411,189899921,0,,,3450.081543,220.9260254,9.882965088,,0.001015574,0.601443291,-0.015572771,-0.798762977
1.50817E+18,,121,,1508174411,209656953,0,,,3446.932129,222.402832,4.631744385,,0.015739426,0.631460547,-0.020064592,-0.774988472
1.50817E+18,,122,,1508174411,229830026,0,,,3449.678711,224.5151367,4.822296143,,-0.006192148,0.614171982,-0.021513477,-0.788854599
1.50817E+18,,123,,1508174411,249588012,0,,,3455.81543,222.432373,9.45791626,,0.021556541,0.615582526,-0.016709998,-0.787600398
1.50817E+18,,124,,1508174411,268876075,0,,,3448.126465,223.7885742,5.352935791,,0.005210876,0.614785373,-0.011500515,-0.788593411
1.50817E+18,,125,,1508174411,288683891,0,,,3446.347168,223.4785156,5.018035889,,-0.002932936,0.620011985,-0.027480401,-0.78410548
1.50817E+18,,126,,1508174411,308434009,0,,,3449.09668,220.1779785,6.083343506,,0.001515388,0.615004957,-0.011322446,-0.788440585
1.50817E+18,,127,,1508174411,328383922,0,,,3454.489746,221.5617676,6.671783447,,0.005084097,0.60781014,-0.024651989,-0.79368335
1.50817E+18,,128,,1508174411,348150968,0,,,3449.552734,221.6140137,8.17855835,,-0.004500896,0.601279736,-0.011470683,-0.79894352
1.50817E+18,,129,,1508174411,369793891,0,,,3447.171387,226.1525879,3.375030518,,-0.005056202,0.616414547,-0.015837893,-0.787246227
1.50817E+18,,130,,1508174411,388220071,0,,,3451.161133,221.8720703,8.348114014,,0.013904691,0.621255577,-0.014815792,-0.783344507
1.50817E+18,,131,,1508174411,407690048,0,,,3450.437988,221.5583496,6.750946045,,0.003353387,0.615207195,-0.015541188,-0.788205147
1.50817E+18,,132,,1508174411,428142070,0,,,3449.07666,220.7783203,9.027740479,,-0.00066632,0.605204523,-0.023586005,-0.795720279
1.50817E+18,,133,,1508174411,447267055,0,,,3449.467285,219.4255371,7.584991455,,0.012163341,0.618989944,-0.021851577,-0.785000682
1.50817E+18,,134,,1508174411,467020034,0,,,3450.455566,219.659668,7.867462158,,0.015746146,0.615347028,-0.028300457,-0.787590623
1.50817E+18,,135,,1508174411,486879110,0,,,3451.805664,220.4978027,5.876312256,,-0.002769828,0.61065346,-0.018479571,-0.791677475
1.50817E+18,,136,,1508174411,507045984,0,,,3447.807617,227.0341797,7.731048584,,-0.013288498,0.597940445,-0.009176299,-0.801377833
1.50817E+18,,137,,1508174411,526521921,0,,,3449.781738,219.2492676,7.668121338,,0.006986558,0.625072479,-0.009226725,-0.780480921
1.50817E+18,,138,,1508174411,546432971,0,,,3447.031738,218.9558105,7.89932251,,0.009126425,0.619500518,-0.023140967,-0.784601927
1.50817E+18,,139,,1508174411,566417932,0,,,3452.065918,215.4785156,10.7270813,,0.010404825,0.616985738,-0.029785104,-0.786341667
1.50817E+18,,140,,1508174411,585747003,0,,,3450.912109,217.0480957,13.71762085,,0.011176497,0.60658145,-0.017411456,-0.794751942
1.50817E+18,,141,,1508174411,606241941,0,,,3449.86377,224.5974121,6.806243896,,0.008264005,0.612698078,-0.024946786,-0.789880097
1.50817E+18,,142,,1508174411,626600027,0,,,3445.684082,221.8415527,4.444793701,,-0.004374713,0.621701002,-0.015420519,-0.783090651
1.50817E+18,,143,,1508174411,645802021,0,,,3448.1875,226.1174316,3.544219971,,-0.000856102,0.621316433,-0.020594254,-0.783288598
1.50817E+18,,144,,1508174411,665632009,0,,,3450.465332,218.0153809,12.3812561,,0.003102273,0.603978157,-0.005952783,-0.796972573
1.50817E+18,,145,,1508174411,686289072,0,,,3449.833984,215.0183105,10.66549683,,0.013566196,0.626621783,-0.020096816,-0.778946221
1.50817E+18,,146,,1508174411,705461978,0,,,3448.04541,221.3479004,4.372894287,,-0.002144814,0.619077265,-0.011761524,-0.78523922
1.50817E+18,,147,,1508174411,724885940,0,,,3451.737305,224.6428223,5.230438232,,-0.011407524,0.608356357,-0.016591556,-0.793408513
1.50817E+18,,148,,1508174411,744743108,0,,,3450.970703,221.9643555,12.33554077,,0.006489962,0.601121724,-0.001561999,-0.799129605
1.50817E+18,,149,,1508174411,764951944,0,,,3444.009766,223.8908691,2.911468506,,0.005219236,0.630186498,-0.011036135,-0.776347876
1.50817E+18,,150,,1508174411,784862041,0,,,3450.241211,220.9472656,5.310760498,,-0.008120239,0.618344903,-0.021602862,-0.78556782
1.50817E+18,,151,,1508174411,805203914,0,,,3453.302246,215.923584,11.84963989,,0.014026046,0.615867794,-0.011199586,-0.787645042
1.50817E+18,,152,,1508174411,824867010,0,,,3450.918457,219.4992676,11.5151062,,0.007710278,0.600006223,-0.019465655,-0.799721301
1.50817E+18,,153,,1508174411,843743085,0,,,3447.020508,221.1887207,4.045501709,,-0.00689888,0.619765341,-0.013416335,-0.78464222
1.50817E+18,,154,,1508174411,863791942,0,,,3446.798828,224.9929199,3.087249756,,-0.012140512,0.614922583,-0.007711567,-0.788456261
1.50817E+18,,155,,1508174411,883559942,0,,,3452.836426,218.6887207,9.892913818,,0.001491219,0.616018474,-0.00316523,-0.787723899
1.50817E+18,,156,,1508174411,904628992,0,,,3447.29541,220.3620605,10.15267944,,-0.000840634,0.605095387,-0.007631339,-0.796115994
1.50817E+18,,157,,1508174411,923690080,0,,,3451.071777,218.3168945,6.696929932,,-0.012916088,0.611243248,-0.0206559,-0.791067839
1.50817E+18,,158,,1508174411,943247079,0,,,3449.298828,222.3833008,4.064178467,,-0.006872773,0.612608433,-0.006959885,-0.790325999
1.50817E+18,,159,,1508174411,962475061,0,,,3453.395508,221.878418,9.671478271,,0.009342045,0.609223604,-0.023835368,-0.792585135
1.50817E+18,,160,,1508174411,984330892,0,,,3448.428223,221.3771973,7.517486572,,-0.011006564,0.599235654,-0.007232353,-0.800464392
1.50817E+18,,161,,1508174412,2904891,0,,,3450.438965,218.8486328,7.640472412,,-0.001141906,0.618528545,-0.007598095,-0.785724699
1.50817E+18,,162,,1508174412,22888898,0,,,3449.233398,218.3813477,7.682281494,,0.003482938,0.623998821,-0.001176298,-0.781416655
1.50817E+18,,163,,1508174412,41615962,0,,,3451.37793,220.6467285,7.371307373,,-0.005445391,0.611054361,-0.011755735,-0.791482568
1.50817E+18,,164,,1508174412,61958074,0,,,3446.52002,221.4260254,8.073272705,,-0.013574272,0.597772837,-0.003778689,-0.801541686
1.50817E+18,,165,,1508174412,81096887,0,,,3449.65625,216.9445801,9.616607666,,4.34E-05,0.625412881,-0.004438676,-0.780281305
1.50817E+18,,166,,1508174412,101157903,0,,,3451.071289,222.8190918,6.317962646,,-0.005978256,0.612449408,-0.012246601,-0.79039228
1.50817E+18,,167,,1508174412,125763893,0,,,3448.879883,220.8029785,6.159088135,,-0.008813739,0.61136663,-0.019370429,-0.791061282
1.50817E+18,,168,,1508174412,140386104,0,,,3450.12793,219.2270508,9.857025146,,-0.007948875,0.603857458,-0.004722089,-0.797038794
1.50817E+18,,169,,1508174412,160032033,0,,,3448.031738,223.2416992,0.965911865,,-0.003212243,0.621026754,0.002203524,-0.783779681
1.50817E+18,,170,,1508174412,179495096,0,,,3449.133789,220.079834,6.326568604,,-0.006940097,0.615178466,-0.013126329,-0.788248122
1.50817E+18,,171,,1508174412,199438095,0,,,3451.824707,220.8483887,5.484771729,,-0.008421391,0.610045075,-0.009548537,-0.792264462
1.50817E+18,,172,,1508174412,219034910,0,,,3448.352539,223.5368652,7.551483154,,-0.017150491,0.599980116,-0.002579741,-0.799826801
1.50817E+18,,173,,1508174412,239377975,0,,,3449.630859,220.5197754,8.568878174,,0.00197342,0.617409289,-0.013439246,-0.786524773
1.50817E+18,,174,,1508174412,263873100,0,,,3444.934082,221.109375,5.194671631,,-0.008618504,0.620480537,-0.008736812,-0.784125865
1.50817E+18,,175,,1508174412,278646945,0,,,3454.74707,216.239502,10.75912476,,-0.002806753,0.613076091,-0.016808771,-0.789839983
1.50817E+18,,176,,1508174412,298058032,0,,,3451.136719,223.3283691,6.127532959,,-0.003920078,0.600828588,-0.006232522,-0.799343884
1.50817E+18,,177,,1508174412,317785024,0,,,3449.226074,222.9572754,4.822601318,,-0.007850051,0.611227989,-0.017685965,-0.791217983
1.50817E+18,,178,,1508174412,338243007,0,,,3448.118652,221.9494629,3.371856689,,-0.011257291,0.619504809,-0.005480379,-0.784893036
1.50817E+18,,179,,1508174412,358141899,0,,,3451.151367,222.4650879,4.847442627,,-0.011927605,0.606198192,-0.008059345,-0.79518342
1.50817E+18,,180,,1508174412,377521038,0,,,3450.202637,217.1657715,10.1859436,,-0.00284341,0.603987813,0.00598558,-0.796966016
1.50817E+18,,181,,1508174412,397156953,0,,,3458.150391,209.5622559,8.951263428,,0.008166239,0.630160093,0.022077456,-0.776108384
1.50817E+18,,182,,1508174412,419558048,0,,,3455.935547,209.4152832,8.722015381,,0.014841199,0.63361764,0.014212959,-0.773373425
1.50817E+18,,183,,1508174412,436825037,0,,,3459.030762,215.3803711,6.035797119,,-0.005208075,0.599768341,0.007405058,-0.80012244
1.50817E+18,,184,,1508174412,456590890,0,,,3457.342773,215.2780762,9.602203369,,0.006456107,0.601722002,0.018355154,-0.798468471
1.50817E+18,,185,,1508174412,476537942,0,,,3452.751465,212.013916,7.903289795,,0.006437257,0.637804151,0.019899741,-0.769914567
1.50817E+18,,186,,1508174412,495929002,0,,,3450.580078,216.145752,4.900421143,,-0.019709378,0.610527873,0.006965049,-0.79171896
1.50817E+18,,187,,1508174412,517596006,0,,,3457.955566,210.8320313,8.886077881,,0.005821437,0.617548287,0.016420752,-0.786339939
1.50817E+18,,188,,1508174412,535506963,0,,,3452.899414,213.6572266,13.37374878,,0.008739531,0.616738081,0.012694322,-0.787017584
1.50817E+18,,189,,1508174412,555363893,0,,,3450.330566,217.6967773,4.918914795,,-0.004363775,0.621633232,0.002869792,-0.783291042
1.50817E+18,,190,,1508174412,575491905,0,,,3450.776855,218.9450684,4.945037842,,-0.016947225,0.616750062,0.008584566,-0.786929727
1.50817E+18,,191,,1508174412,595462083,0,,,3454.78125,215.7731934,9.180450439,,0.004437625,0.618510246,0.009158708,-0.785710812
1.50817E+18,,192,,1508174412,614564895,0,,,3449.165039,215.9748535,9.178924561,,-0.006251097,0.606349826,0.006551616,-0.795146585
1.50817E+18,,193,,1508174412,634402990,0,,,3443.531738,222.557373,2.96206665,,-0.010965973,0.622934818,-0.013402052,-0.782082021
1.50817E+18,,194,,1508174412,654758930,0,,,3451.844727,213.6311035,6.467803955,,0.004722416,0.616585791,0.015523843,-0.787120461
1.50817E+18,,195,,1508174412,674995899,0,,,3452.873535,216.0263672,9.210784912,,-0.008356005,0.610997856,0.016779564,-0.791410327
1.50817E+18,,196,,1508174412,695365905,0,,,3448.763672,221.1960449,5.041351318,,-0.022289544,0.597854078,0.005216539,-0.801278114
1.50817E+18,,197,,1508174412,714920043,0,,,3450.932617,217.3591309,6.128753662,,0.005115226,0.62488997,-0.000371143,-0.780696034
1.50817E+18,,198,,1508174412,734235048,0,,,3450.615723,217.8395996,5.863739014,,-0.004300028,0.616921186,0.008443221,-0.786967874
1.50817E+18,,199,,1508174412,753863096,0,,,3451.32373,217.5461426,6.183258057,,-0.008121938,0.611848712,0.000818953,-0.790932715
1.50817E+18,,200,,1508174412,774513959,0,,,3449.724609,215.6479492,9.209747314,,-0.01699385,0.605508029,0.008538142,-0.795611799
1.50817E+18,,201,,1508174412,794042110,0,,,3450.25,216.4611816,6.174530029,,-0.013423741,0.612789273,0.006839879,-0.79010272
1.50817E+18,,202,,1508174412,813502073,0,,,3451.810059,217.9257813,5.851165771,,-0.002826482,0.615235686,-0.002039865,-0.788335502
1.50817E+18,,203,,1508174412,833282947,0,,,3455.444824,214.4240723,8.298309326,,0.009035692,0.620859861,-0.004561953,-0.783856273
1.50817E+18,,204,,1508174412,853193998,0,,,3451.821777,217.9919434,9.05758667,,-0.002905428,0.606331587,0.009555958,-0.795149207
1.50817E+18,,205,,1508174412,873184919,0,,,3450.494141,216.6853027,5.300262451,,-0.006576061,0.619840026,0.010326594,-0.784632683
1.50817E+18,,206,,1508174412,894995927,0,,,3448.811035,217.095459,5.763702393,,-0.003540039,0.622258127,0.008009635,-0.782763124
1.50817E+18,,207,,1508174412,913830041,0,,,3456.931641,211.9770508,7.521331787,,-0.004780829,0.612154961,0.002065532,-0.790720582
1.50817E+18,,208,,1508174412,933712959,0,,,3452.243164,218.4377441,9.290863037,,-0.011363208,0.60435313,0.00721065,-0.796602845
1.50817E+18,,209,,1508174412,951412916,0,,,3451.739258,217.6589355,7.759246826,,0.005740434,0.620205462,-0.005249053,-0.784400761
1.50817E+18,,210,,1508174412,971735954,0,,,3448.084473,218.4355469,3.943084717,,-0.009477407,0.622844934,0.001926355,-0.782285511
1.50817E+18,,211,,1508174412,991384029,0,,,3452.27002,218.3164063,5.021453857,,-0.021444976,0.606198549,0.006256402,-0.794999599
1.50817E+18,,212,,1508174413,10494947,0,,,3452.029297,215.6281738,10.69046021,,-0.005861193,0.604154587,0.015493996,-0.796694994
1.50817E+18,,213,,1508174413,31292915,0,,,3450.319824,215.1491699,6.669830322,,-0.006113052,0.620187104,0.006370567,-0.784404278
1.50817E+18,,214,,1508174413,50688028,0,,,3450.305664,215.3583984,6.012969971,,-0.004022926,0.624138594,0.005067214,-0.781286776
1.50817E+18,,215,,1508174413,70943117,0,,,3451.226074,212.3884277,11.50643921,,0.009709477,0.610715628,-0.001180306,-0.791789532
1.50817E+18,,216,,1508174413,90615987,0,,,3454.16748,212.3251953,15.21658325,,0.018947259,0.615190566,0.008402154,-0.788105905
1.50817E+18,,217,,1508174413,111301898,0,,,3447.82373,217.0700684,5.058746338,,-0.008255079,0.622915566,0.006884463,-0.782215238
1.50817E+18,,218,,1508174413,129781007,0,,,3452.273926,217.8925781,4.95980835,,-0.022132233,0.61187309,0.001850866,-0.79064405
1.50817E+18,,219,,1508174413,149450063,0,,,3456.572266,212.2915039,10.15505981,,0.004086584,0.613289773,0.009380929,-0.789791822
1.50817E+18,,220,,1508174413,169029951,0,,,3456.992676,208.4707031,13.55856323,,-0.004428536,0.606110036,0.023652934,-0.795016646
1.50817E+18,,221,,1508174413,190613985,0,,,3450.902832,212.2468262,7.579681396,,-0.006697267,0.626419604,0.002465509,-0.779453337
1.50817E+18,,222,,1508174413,208704948,0,,,3452.120117,213.4033203,7.152557373,,-0.006269068,0.620242298,0.00612811,-0.784361303
1.50817E+18,,223,,1508174413,228490114,0,,,3458.259277,213.1298828,9.991546631,,0.001070917,0.611315489,0.008964054,-0.791335523
1.50817E+18,,224,,1508174413,248055934,0,,,3457.165527,211.989502,10.51852417,,0.005144924,0.613067031,0.023335338,-0.789669514
1.50817E+18,,225,,1508174413,267957925,0,,,3450.121582,216.9904785,4.488433838,,-0.011938125,0.619149923,-0.006831028,-0.785152316
1.50817E+18,,226,,1508174413,287969112,0,,,3449.053223,219.4621582,3.808624268,,-0.013470322,0.608802497,-0.001133114,-0.793206692
1.50817E+18,,227,,1508174413,307671070,0,,,3453.261719,219.4848633,7.536895752,,-0.003120899,0.607594907,-0.008197524,-0.794198632
1.50817E+18,,228,,1508174413,327548027,0,,,3449.86084,219.2456055,5.688934326,,-0.022205263,0.595612705,0.002884686,-0.802959681
1.50817E+18,,229,,1508174413,347289085,0,,,3448.316895,219.3105469,3.374237061,,-0.023190126,0.61309576,0.002854377,-0.789663076
1.50817E+18,,230,,1508174413,367106914,0,,,3451.572754,215.3024902,6.953094482,,0.002358079,0.621368051,0.005610183,-0.783495188
1.50817E+18,,231,,1508174413,387231111,0,,,3452.859863,219.5739746,5.92880249,,-0.014305353,0.607714057,-0.00182794,-0.794025064
1.50817E+18,,232,,1508174413,406703948,0,,,3457.085449,213.0114746,8.890594482,,-0.006547838,0.600172043,0.006199099,-0.799820185
1.50817E+18,,233,,1508174413,430526018,0,,,3455.37793,215.2658691,4.073455811,,-0.01825735,0.615563571,0.01418478,-0.787748039
1.50817E+18,,234,,1508174413,446830987,0,,,3454.937988,215.5373535,5.761505127,,-0.004764467,0.615316868,0.007980473,-0.788225055
1.50817E+18,,235,,1508174413,466376066,0,,,3457.969727,212.8708496,9.014923096,,-0.00965938,0.614166141,0.016470954,-0.788945675
1.50817E+18,,236,,1508174413,486200094,0,,,3455.45166,213.8215332,7.429656982,,-0.0142515,0.599352419,0.017187707,-0.800173938
1.50817E+18,,237,,1508174413,506150960,0,,,3450.665527,214.0893555,8.204681396,,0.003278702,0.622634172,0.004301459,-0.782494307
1.50817E+18,,238,,1508174413,526721000,0,,,3450.26416,213.8522949,8.591705322,,0.005750507,0.621861935,-0.008821934,-0.783056021
1.50817E+18,,239,,1508174413,545857906,0,,,3457.651367,210.807373,7.2449646,,-0.018593788,0.614320278,0.019458197,-0.788597584
1.50817E+18,,240,,1508174413,565583944,0,,,3451.47168,217.2280273,6.336883545,,-0.038120046,0.595491827,0.025089063,-0.802064061
1.50817E+18,,241,,1508174413,585483074,0,,,3455.837891,214.7385254,7.286590576,,0.003302366,0.622820735,0.015297413,-0.782207966
1.50817E+18,,242,,1508174413,605819940,0,,,3455.853027,208.3361816,8.475250244,,0.007001281,0.631077051,0.023962803,-0.775318384
1.50817E+18,,243,,1508174413,628751039,0,,,3460.114746,208.5097656,10.60848999,,-0.00111413,0.614976287,0.014134742,-0.788418114
1.50817E+18,,244,,1508174413,645733118,0,,,3453.581055,216.3510742,7.028167725,,-0.015553951,0.591922939,0.014692664,-0.805710495
1.50817E+18,,245,,1508174413,664338111,0,,,3458.448242,211.8654785,6.24508667,,0.009824917,0.633143663,0.032088101,-0.773306429
1.50817E+18,,246,,1508174413,683768987,0,,,3454.009277,212.4538574,4.261932373,,-0.008277565,0.62851578,0.033655852,-0.77702415
1.50817E+18,,247,,1508174413,703943967,0,,,3457.230957,215.9968262,4.963897705,,-0.014568269,0.609175622,0.011010028,-0.792825222
1.50817E+18,,248,,1508174413,724797010,0,,,3461.57666,210.385498,12.27005005,,-0.0027439,0.604759634,0.022363521,-0.796089292
1.50817E+18,,249,,1508174413,743844032,0,,,3453.759277,211.9208984,6.228973389,,-0.010502189,0.618579924,0.013197809,-0.785540819
1.50817E+18,,250,,1508174413,763746023,0,,,3450.95166,212.6633301,5.816009521,,-0.010648102,0.619695544,-0.003605075,-0.784761906
1.50817E+18,,251,,1508174413,785274028,0,,,3456.274414,212.104248,7.878448486,,-0.012840033,0.602703452,0.01169353,-0.797776103
1.50817E+18,,252,,1508174413,811857938,0,,,3456.070313,208.7116699,15.47781372,,-0.000346303,0.610181928,0.02363617,-0.791908622
1.50817E+18,,253,,1508174413,828368902,0,,,3453.746582,208.7380371,6.20980835,,-0.023019195,0.624306798,0.033427984,-0.780124128
1.50817E+18,,254,,1508174413,843935012,0,,,3453.70166,216.4020996,2.76675415,,-0.026309505,0.611987591,0.013585128,-0.790312767
1.50817E+18,,255,,1508174413,862644910,0,,,3457.945313,214.2458496,7.138275146,,-0.002106786,0.613120914,0.007296331,-0.789952636
1.50817E+18,,256,,1508174413,882692098,0,,,3453.181152,213.6540527,10.49386597,,-0.010856926,0.596149027,0.012007616,-0.802710593
1.50817E+18,,257,,1508174413,902776002,0,,,3453.641113,211.888916,4.684173584,,-0.018427476,0.618545175,0.020610653,-0.785262823
1.50817E+18,,258,,1508174413,922463893,0,,,3450.285645,217.9597168,2.462677002,,-0.039360836,0.601950705,0.021011516,-0.797285736
1.50817E+18,,259,,1508174413,946517944,0,,,3457.332031,217.2243652,5.585784912,,-0.012087733,0.608040094,0.009644583,-0.79375571
1.50817E+18,,260,,1508174413,961297035,0,,,3457.325684,211.4155273,8.566436768,,-0.002647251,0.605568767,0.014187254,-0.795662165
1.50817E+18,,261,,1508174413,981611013,0,,,3454.816406,214.170166,4.119293213,,-0.01484713,0.622256041,0.011636972,-0.782586455
1.50817E+18,,262,,1508174414,583887,0,,,3455.397461,211.5900879,6.800567627,,-0.002223253,0.617991924,0.011020184,-0.786104083
1.50817E+18,,263,,1508174414,20610094,0,,,3458.812012,212.4243164,7.521820068,,-0.01309672,0.608610153,0.01109416,-0.793283701
1.50817E+18,,264,,1508174414,40034055,0,,,3457.078613,211.3203125,12.42379761,,-0.012318552,0.605232656,0.013647541,-0.795836389
1.50817E+18,,265,,1508174414,60409069,0,,,3451.132813,217.4196777,-0.616973877,,-0.025564983,0.619973004,0.021669447,-0.783907175
1.50817E+18,,266,,1508174414,80014944,0,,,3456.183105,214.7697754,4.971710205,,-0.003309637,0.617527246,0.018420488,-0.786326766
1.50817E+18,,267,,1508174414,99858045,0,,,3458.805176,212.7121582,7.075164795,,-0.002137691,0.613555968,0.012622327,-0.789547443
1.50817E+18,,268,,1508174414,119486093,0,,,3457.92334,211.5268555,8.852813721,,-0.010170162,0.605168998,0.013725981,-0.795913756
1.50817E+18,,269,,1508174414,139045953,0,,,3452.917969,216.9233398,2.132537842,,-0.025444478,0.603587031,0.00907024,-0.796839356
1.50817E+18,,270,,1508174414,158710956,0,,,3454.588867,216.0393066,3.18057251,,-0.01711376,0.611462474,0.010325678,-0.79102087
1.50817E+18,,271,,1508174414,178653955,0,,,3460.935547,208.3383789,7.831573486,,0.000954002,0.621532261,0.017874293,-0.783184052
1.50817E+18,,272,,1508174414,207701921,0,,,3455.150879,213.2001953,10.49154663,,-0.00959596,0.603045464,0.019018278,-0.797422409
1.50817E+18,,273,,1508174414,218017101,0,,,3458.439941,208.9699707,8.198760986,,0.013564765,0.629046857,0.015095174,-0.777102351
1.50817E+18,,274,,1508174414,238918066,0,,,3458.561523,207.472168,11.01077271,,0.004804775,0.626115322,0.01524207,-0.779566765
1.50817E+18,,275,,1508174414,259373903,0,,,3457.214355,211.7680664,7.508026123,,-0.016141325,0.617329121,0.013532437,-0.786423028
1.50817E+18,,276,,1508174414,278284072,0,,,3451.570801,219.7575684,3.335540771,,-0.034939379,0.596514583,0.024834678,-0.80145669
1.50817E+18,,277,,1508174414,297243118,0,,,3453.019531,216.1201172,4.406341553,,-0.022693396,0.611864448,0.020781599,-0.790363789
1.50817E+18,,278,,1508174414,317178010,0,,,3453.727539,211.5444336,5.149810791,,-0.021254227,0.624493599,0.024504974,-0.78035599
1.50817E+18,,279,,1508174414,339668035,0,,,3458.25,211.6853027,7.350799561,,-0.011607051,0.613385916,0.013661571,-0.789579809
1.50817E+18,,280,,1508174414,357222080,0,,,3456.132813,214.6538086,9.643463135,,-0.007905751,0.600682139,0.015998475,-0.79928875
1.50817E+18,,281,,1508174414,376082897,0,,,3460.863281,208.3076172,8.277679443,,0.004499838,0.62753123,0.018287361,-0.778363585
1.50817E+18,,282,,1508174414,395504951,0,,,3455.433105,209.661377,6.79574585,,-0.017450958,0.622890472,0.027038433,-0.781646848
1.50817E+18,,283,,1508174414,415429115,0,,,3452.644043,218.4846191,4.36618042,,-0.034784496,0.605563343,0.010519221,-0.794966996
1.50817E+18,,284,,1508174414,435213088,0,,,3449.557617,220.1105957,8.709564209,,-0.031582355,0.595090091,0.016107105,-0.802876532
1.50817E+18,,285,,1508174414,456774950,0,,,3447.568359,217.4038086,4.293426514,,-0.025726944,0.617189646,0.009160906,-0.786340356
1.50817E+18,,286,,1508174414,474595069,0,,,3451.251465,215.3244629,3.337493896,,-0.028667882,0.612317145,0.006944574,-0.790061831
1.50817E+18,,287,,1508174414,498936891,0,,,3454.933594,215.6367188,11.28713989,,0.002681583,0.61209619,0.013755284,-0.79065913
1.50817E+18,,288,,1508174414,514302015,0,,,3452.519043,215.246582,10.05941772,,-0.007998943,0.591017425,0.024033003,-0.806261063
1.50817E+18,,289,,1508174414,534107923,0,,,3444.275391,216.5280762,4.54598999,,-0.020523459,0.614994287,0.011949129,-0.788173914
1.50817E+18,,290,,1508174414,554419040,0,,,3439.441406,220.2871094,1.783782959,,-0.020102322,0.609568775,0.00181888,-0.792476058
1.50817E+18,,291,,1508174414,575321912,0,,,3442.492188,211.1665039,10.48422241,,0.006698698,0.61540401,0.016438901,-0.788011849
1.50817E+18,,292,,1508174414,593334913,0,,,3435.859375,211.6181641,12.21078491,,0.000783324,0.613222778,0.028690659,-0.789388359
1.50817E+18,,293,,1508174414,613523006,0,,,3430.018555,210.7038574,6.255706787,,0.002258793,0.630917668,0.011579484,-0.775760055
1.50817E+18,,294,,1508174414,635026931,0,,,3422.586426,213.204834,2.675811768,,-0.001499698,0.626015306,0.017811343,-0.779605865
1.50817E+18,,295,,1508174414,652669906,0,,,3417.485352,212.3874512,6.71987915,,0.015046597,0.614232898,0.015723728,-0.788824677
1.50817E+18,,296,,1508174414,672383069,0,,,3402.23291,208.3098145,9.800933838,,-0.005535305,0.608618438,0.038723916,-0.792498112
1.50817E+18,,297,,1508174414,692656040,0,,,3387.471191,211.6833496,4.973297119,,-0.008975178,0.619118035,0.03224019,-0.784584522
1.50817E+18,,298,,1508174414,712830066,0,,,3375.362305,215.8967285,4.391998291,,-0.007230148,0.615899146,0.021847539,-0.787488818
1.50817E+18,,299,,1508174414,737174034,0,,,3371.019043,211.8122559,7.071990967,,-0.002501905,0.61588335,0.031309336,-0.787210822
1.50817E+18,,300,,1508174414,761976003,0,,,3358.291016,206.8779297,10.1913147,,-0.007597402,0.614489317,0.053525664,-0.787070572
1.50817E+18,,301,,1508174414,772675037,0,,,3347.053711,209.3508301,7.002532959,,-0.014713868,0.621699691,0.063682199,-0.780523896
1.50817E+18,,302,,1508174414,792114019,0,,,3336.747559,213.3044434,8.982818604,,0.008741289,0.6347965,0.058469675,-0.770414352
1.50817E+18,,303,,1508174414,811583042,0,,,3328.550293,215.8579102,14.42337036,,-0.012916282,0.634543061,0.035842858,-0.771947861
1.50817E+18,,304,,1508174414,830881118,0,,,3322.001465,215.7133789,13.15664673,,-0.003711283,0.613674283,0.029122069,-0.789013386
1.50817E+18,,305,,1508174414,852519035,0,,,3316.006836,217.3640137,10.42111206,,0.00138554,0.646709502,0.030678801,-0.762117863
1.50817E+18,,306,,1508174414,874247074,0,,,3307.628906,217.9333496,13.0741272,,0.00866504,0.645804584,0.027200669,-0.762968779
1.50817E+18,,307,,1508174414,890429019,0,,,3301.136719,216.3803711,13.48989868,,0.002737895,0.634091616,0.03129822,-0.772619367
1.50817E+18,,308,,1508174414,913474082,0,,,3294.006836,212.9250488,13.53292847,,-0.01782833,0.617311716,0.039426319,-0.785527885
1.50817E+18,,309,,1508174414,929800987,0,,,3285.869141,216.4594727,12.70663452,,-0.005418479,0.649073064,0.032711908,-0.76000315
1.50817E+18,,310,,1508174414,949799060,0,,,3272.391113,228.6564941,10.25912476,,-0.031356677,0.643907905,-0.003530644,-0.764451981
1.50817E+18,,311,,1508174414,969430923,0,,,3273.516602,224.9602051,8.281036377,,-0.02849175,0.635795653,0.003811024,-0.771321952
1.50817E+18,,312,,1508174414,989175081,0,,,3270.057129,220.362793,11.03091431,,-0.011198029,0.634195983,0.028328784,-0.7725721
1.50817E+18,,313,,1508174415,8822917,0,,,3259.743652,224.0095215,7.625701904,,-0.011955798,0.654980838,-0.005943999,-0.755527496
1.50817E+18,,314,,1508174415,29464006,0,,,3257.179688,222.8381348,5.883026123,,-0.012720987,0.66195941,-0.003489025,-0.749423563
1.50817E+18,,315,,1508174415,49078941,0,,,3254.890137,220.4597168,7.11416626,,-0.002456054,0.650957167,0.017389782,-0.758911312
1.50817E+18,,316,,1508174415,69334983,0,,,3244.370605,226.394043,9.519927979,,-0.022186399,0.633004546,0.000297546,-0.773830116
1.50817E+18,,317,,1508174415,90681076,0,,,3236.274414,229.5871582,2.264801025,,-0.030599952,0.642042816,-0.027308226,-0.765570879
1.50817E+18,,318,,1508174415,109894037,0,,,3232.633301,230.6882324,-0.601104736,,-0.041892946,0.646870673,-0.020721205,-0.761166036
1.50817E+18,,319,,1508174415,128704071,0,,,3234.018066,229.0957031,4.509124756,,-0.042372659,0.626018107,-0.016332231,-0.778485119
1.50817E+18,,320,,1508174415,148502111,0,,,3230.450684,227.121582,12.87753296,,-0.013495803,0.629775465,-0.011193313,-0.77657932
1.50817E+18,,321,,1508174415,168060064,0,,,3221.872559,227.3901367,2.364593506,,-0.034835875,0.649170935,-0.019193903,-0.759601891
1.50817E+18,,322,,1508174415,188411951,0,,,3220.163086,228.1994629,4.483795166,,-0.038710192,0.649472952,-0.001324758,-0.759397566
1.50817E+18,,323,,1508174415,207814931,0,,,3223.420898,227.230957,6.278106689,,-0.023515046,0.63967061,0.00426697,-0.768277466
1.50817E+18,,324,,1508174415,227475881,0,,,3217.762695,228.9443359,6.171356201,,-0.02496931,0.634409249,-0.00810416,-0.772551417
1.50817E+18,,325,,1508174415,247594118,0,,,3213.18457,229.6442871,-0.1590271,,-0.040942878,0.641150355,-0.022572763,-0.76598978
1.50817E+18,,326,,1508174415,267929077,0,,,3214.175293,230.1052246,-2.772247314,,-0.034828261,0.663630366,-0.005988963,-0.747225463
1.50817E+18,,327,,1508174415,287317991,0,,,3219.138672,225.0131836,9.607696533,,-0.001556754,0.651043177,0.004513778,-0.759025753
1.50817E+18,,328,,1508174415,306808948,0,,,3213.641602,220.6950684,10.67990112,,-0.004590213,0.648737788,0.022726044,-0.760658801
1.50817E+18,,329,,1508174415,326284885,0,,,3212.479492,221.5803223,5.601593018,,-0.020062894,0.658353567,0.002250105,-0.752438068
1.50817E+18,,330,,1508174415,346040010,0,,,3213.763672,227.9777832,4.713226318,,-0.030146524,0.647897482,0.001261473,-0.761129677
1.50817E+18,,331,,1508174415,366105079,0,,,3215.984863,229.4121094,5.166656494,,-0.025820613,0.632340014,-0.02056016,-0.773987591
1.50817E+18,,332,,1508174415,385479927,0,,,3212.070313,228.4963379,5.967498779,,-0.0384354,0.624277055,-0.015464537,-0.780103743
1.50817E+18,,333,,1508174415,405509948,0,,,3212.762207,228.0334473,2.31137085,,-0.033573538,0.64694488,-0.007044137,-0.761764765
1.50817E+18,,334,,1508174415,426209926,0,,,3215.819336,226.7036133,5.222320557,,-0.011362582,0.667453527,0.010402873,-0.744492054
1.50817E+18,,335,,1508174415,445930957,0,,,3215.862793,226.6386719,5.205718994,,-0.020667657,0.647779465,-0.003639758,-0.761538863
1.50817E+18,,336,,1508174415,467077016,0,,,3213.069824,229.0778809,5.552154541,,-0.045966461,0.623179078,-0.015600853,-0.780571342
1.50817E+18,,337,,1508174415,485723972,0,,,3214.044434,229.1003418,-0.250396729,,-0.04968217,0.633171082,-0.016627401,-0.772236824
1.50817E+18,,338,,1508174415,514381885,0,,,3218.744629,225.5134277,6.692840576,,-0.015323386,0.649702907,-0.014080234,-0.759903312
1.50817E+18,,339,,1508174415,524151086,0,,,3218.822754,225.9995117,4.845184326,,-0.035091326,0.633729339,-0.028378911,-0.772237241
1.50817E+18,,340,,1508174415,547786951,0,,,3215.174805,233.0881348,3.961639404,,-0.045715347,0.61428678,-0.014358215,-0.787626624
1.50817E+18,,341,,1508174415,564415931,0,,,3220.044922,225.8537598,5.045135498,,-0.021330222,0.650938392,-0.004217371,-0.758819044
1.50817E+18,,342,,1508174415,591792106,0,,,3218.708984,227.8098145,4.516815186,,-0.029738203,0.643348157,-0.022548825,-0.764663517
1.50817E+18,,343,,1508174415,611464977,0,,,3220.130371,226.6420898,3.70791626,,-0.038414448,0.635247648,-0.020783469,-0.771072388
1.50817E+18,,344,,1508174415,624083995,0,,,3220.752441,225.4375,8.595855713,,-0.040807992,0.628623962,0.005554579,-0.776618183
1.50817E+18,,345,,1508174415,642463922,0,,,3222.713379,226.0375977,6.994720459,,-0.013844654,0.651171684,-0.009941496,-0.758738995
1.50817E+18,,346,,1508174415,662240028,0,,,3218.246582,228.9470215,1.845245361,,-0.044098169,0.643899083,-0.022468381,-0.763507962
1.50817E+18,,347,,1508174415,682188987,0,,,3220.480469,230.1953125,3.087738037,,-0.048628137,0.626683831,-0.009521052,-0.777696609
1.50817E+18,,348,,1508174415,702042102,0,,,3220.893555,226.8781738,8.516082764,,-0.030118048,0.622709334,0.000875898,-0.781872988
1.50817E+18,,349,,1508174415,721632957,0,,,3221.244629,226.3676758,3.98147583,,-0.028146088,0.644589424,-0.018328078,-0.763790846
1.50817E+18,,350,,1508174415,741857051,0,,,3218.304688,229.5446777,0.561920166,,-0.050721481,0.637474954,-0.022475779,-0.768471122
1.50817E+18,,351,,1508174415,762469053,0,,,3223.907715,228.0881348,3.926177979,,-0.038359061,0.633430481,-0.011900663,-0.772756696
1.50817E+18,,352,,1508174415,781403064,0,,,3223.208008,226.309082,11.60409546,,-0.019352585,0.632864714,0.000355251,-0.774020493
1.50817E+18,,353,,1508174415,801333904,0,,,3218.932129,227.4943848,3.386383057,,-0.026873663,0.646207929,-0.022605479,-0.762353003
1.50817E+18,,354,,1508174415,820815086,0,,,3218.151855,228.4689941,1.563323975,,-0.041396365,0.641081333,-0.025285281,-0.765938401
1.50817E+18,,355,,1508174415,840394020,0,,,3222.131836,230.1428223,3.22177124,,-0.039266601,0.626160383,-0.008546717,-0.778657913
1.50817E+18,,356,,1508174415,860253095,0,,,3223.585938,226.1679688,11.79830933,,-0.017647937,0.624657035,-0.009763181,-0.780638635
1.50817E+18,,357,,1508174415,880059003,0,,,3219.624512,227.4663086,0.500274658,,-0.037373662,0.645641565,-0.025369443,-0.762303531
1.50817E+18,,358,,1508174415,899719953,0,,,3220.51123,230.3178711,1.51864624,,-0.040539816,0.642130911,-0.010972448,-0.765443683
1.50817E+18,,359,,1508174415,919675111,0,,,3223.797852,225.6850586,7.627044678,,-0.030415043,0.63771385,0.000528462,-0.769672453
1.50817E+18,,360,,1508174415,939126014,0,,,3219.45166,229.0388184,7.341644287,,-0.029533237,0.627357602,-0.008566968,-0.778123915
1.50817E+18,,361,,1508174415,959017992,0,,,3217.947754,228.4018555,0.418548584,,-0.043880925,0.642492473,-0.022539169,-0.764702439
1.50817E+18,,362,,1508174415,978770971,0,,,3220.789063,228.8994141,1.839996338,,-0.039615139,0.639573991,-0.012346752,-0.767608881
1.50817E+18,,363,,1508174415,999082088,0,,,3224.371094,225.8737793,10.00857544,,-0.013698727,0.638412416,-0.013057627,-0.769461811
1.50817E+18,,364,,1508174416,18348932,0,,,3219.786133,228.0375977,5.501251221,,-0.036851346,0.626191795,-0.013773352,-0.778675795
1.50817E+18,,365,,1508174416,38156032,0,,,3218.402344,227.4560547,2.984405518,,-0.032786191,0.644942403,-0.010466896,-0.763455808
1.50817E+18,,366,,1508174416,57990074,0,,,3220.124023,225.8647461,5.578155518,,-0.022770599,0.650678933,-0.000968777,-0.759010971
1.50817E+18,,367,,1508174416,79493999,0,,,3219.304199,226.6411133,5.628265381,,-0.027913257,0.634130776,-0.013185732,-0.772609293
1.50817E+18,,368,,1508174416,97572088,0,,,3210.827637,230.9035645,3.146148682,,-0.044343099,0.618272543,-0.023164444,-0.784369946
1.50817E+18,,369,,1508174416,117569923,0,,,3211.808105,228.1086426,1.892303467,,-0.038795963,0.642252207,-0.017183766,-0.765318036
1.50817E+18,,370,,1508174416,137144088,0,,,3210.595215,226.6870117,6.9190979,,-0.022937924,0.649879634,-0.009772867,-0.759628057
1.50817E+18,,371,,1508174416,156954050,0,,,3206.107422,228.798584,1.220611572,,-0.034398809,0.643706799,-0.019219823,-0.764257073
1.50817E+18,,372,,1508174416,176748037,0,,,3199.831055,230.2207031,3.366729736,,-0.044589698,0.617972016,-0.004357375,-0.7849226
1.50817E+18,,373,,1508174416,196439981,0,,,3196.006348,225.8149414,3.360809326,,-0.033978447,0.64280808,0.006509222,-0.765245676
1.50817E+18,,374,,1508174416,216301918,0,,,3193.726074,226.7312012,3.955352783,,-0.029918447,0.644621134,-0.015576459,-0.763757706
1.50817E+18,,375,,1508174416,237090110,0,,,3189.722168,229.3989258,2.789337158,,-0.030941486,0.631207824,-0.014932975,-0.774852514
1.50817E+18,,376,,1508174416,256118059,0,,,3184.585938,228.1708984,7.505767822,,-0.026085377,0.630895793,0.004016392,-0.775418401
1.50817E+18,,377,,1508174416,276006937,0,,,3179.158691,228.277832,7.063934326,,-0.011222646,0.648477614,-0.003072239,-0.761144757
1.50817E+18,,378,,1508174416,295684099,0,,,3167.206543,232.1464844,0.612335205,,-0.034014046,0.641190529,-0.014069073,-0.766498327
1.50817E+18,,379,,1508174416,315800905,0,,,3162.223633,229.8654785,2.174041748,,-0.033576742,0.632034004,-0.006876178,-0.774182379
1.50817E+18,,380,,1508174416,335613012,0,,,3153.956055,222.8288574,9.23928833,,-0.017997757,0.631666958,0.021766372,-0.774725199
1.50817E+18,,381,,1508174416,355424880,0,,,3145.408691,220.4714355,5.929534912,,-0.00284031,0.65417546,0.008292034,-0.756291986
1.50817E+18,,382,,1508174416,375161886,0,,,3134.553711,219.0046387,6.330169678,,-0.00432156,0.663096428,0.013087392,-0.748407066
1.50817E+18,,383,,1508174416,395106077,0,,,3124.905762,223.5800781,7.653289795,,-0.021980718,0.640755057,0.007103167,-0.767397881
1.50817E+18,,384,,1508174416,414510965,0,,,3112.57373,226.1882324,9.160491943,,-0.024511248,0.628507733,0.006629504,-0.777388811
1.50817E+18,,385,,1508174416,434231996,0,,,3099.282227,226.7209473,4.614349365,,-0.023166969,0.648606658,-0.004689917,-0.760756731
1.50817E+18,,386,,1508174416,454292058,0,,,3087.164063,225.3122559,3.259857178,,-0.031736925,0.650312841,-0.006199345,-0.75897789
1.50817E+18,,387,,1508174416,474276065,0,,,3079.664063,223.9055176,5.979492188,,-0.031652883,0.634555757,0.009175658,-0.772174239
1.50817E+18,,388,,1508174416,493812084,0,,,3068.600586,224.447998,13.78320313,,0.012924939,0.656556249,-0.002609663,-0.754161716
1.50817E+18,,389,,1508174416,513590097,0,,,3051.802734,220.4348145,9.878051758,,-0.003989041,0.672640264,0.00253547,-0.739954472
1.50817E+18,,390,,1508174416,533303976,0,,,3039.226563,221.5593262,9.75869751,,-0.007403761,0.665473938,0.006692193,-0.746354401
1.50817E+18,,391,,1508174416,553091049,0,,,3030.561035,218.7236328,10.993927,,-0.010338873,0.650987566,0.021334909,-0.758717954
1.50817E+18,,392,,1508174416,572809934,0,,,3009.84668,219.6025391,13.13061523,,-0.017262623,0.643020093,0.017745368,-0.765449047
1.50817E+18,,393,,1508174416,592789888,0,,,2991.775879,219.338623,6.425598145,,-0.016191378,0.658159912,0.009414658,-0.752645135
1.50817E+18,,394,,1508174416,613652944,0,,,2977.668457,217.7780762,9.762451172,,-0.008177146,0.6658144,0.027656749,-0.745559752
1.50817E+18,,395,,1508174416,632364988,0,,,2964.458984,220.5812988,10.53005981,,-0.012961939,0.654757261,0.02624508,-0.75527221
1.50817E+18,,396,,1508174416,652297019,0,,,2944.650391,217.8647461,11.11346436,,-0.014939293,0.647643745,0.033717446,-0.761050284
1.50817E+18,,397,,1508174416,672005891,0,,,2927.629883,216.0366211,7.006835938,,-0.015798897,0.661611855,0.027879834,-0.749161482
1.50817E+18,,398,,1508174416,693933963,0,,,2912.295898,216.5070801,8.338226318,,-0.008261159,0.662838936,0.029354565,-0.748140812
1.50817E+18,,399,,1508174416,711318016,0,,,2898.035156,218.7746582,10.37112427,,-0.010580599,0.646083593,0.012701102,-0.76308763
1.50817E+18,,400,,1508174416,731329917,0,,,2875.920898,218.4592285,12.32046509,,-0.011827484,0.644946456,0.02060914,-0.763858259
1.50817E+18,,401,,1508174416,751579999,0,,,2858.340088,219.6975098,4.686279297,,-0.007717043,0.663437009,0.032833397,-0.747471511
1.50817E+18,,402,,1508174416,771121978,0,,,2841.750488,219.4975586,7.11630249,,-0.001179174,0.663781464,0.02422788,-0.747533083
1.50817E+18,,403,,1508174416,790880918,0,,,2822.849121,218.657959,8.929718018,,-0.005105272,0.655735254,0.018840931,-0.75473845
1.50817E+18,,404,,1508174416,810712099,0,,,2800.868164,219.6540527,8.063018799,,-0.015846208,0.639377117,0.015020713,-0.768583238
1.50817E+18,,405,,1508174416,830702066,0,,,2785.965332,217.9025879,4.251647949,,-0.004726231,0.657215595,0.024627224,-0.753285289
1.50817E+18,,406,,1508174416,850089073,0,,,2763.417969,217.9277344,6.213531494,,0.001818329,0.66601187,0.011917919,-0.745843649
1.50817E+18,,407,,1508174416,870101928,0,,,2746.560547,218.4145508,8.30645752,,-0.013102978,0.651319921,0.013633795,-0.758567572
1.50817E+18,,408,,1508174416,890109062,0,,,2722.564697,221.864502,9.562072754,,-0.008293316,0.644697309,0.020167939,-0.764126897
1.50817E+18,,409,,1508174416,909801006,0,,,2704.697266,219.4719238,4.607208252,,-0.006006688,0.663756251,0.022646308,-0.747581959
1.50817E+18,,410,,1508174416,929131984,0,,,2685.033691,217.3361816,7.773529053,,0.000601321,0.669053555,0.020682149,-0.742926121
1.50817E+18,,411,,1508174416,948997974,0,,,2669.236572,215.480957,8.993682861,,-0.012284905,0.657515287,0.019464582,-0.753089547
1.50817E+18,,412,,1508174416,968498945,0,,,2648.519531,217.0632324,11.02856445,,-0.014116317,0.64217639,0.025702477,-0.765995741
1.50817E+18,,413,,1508174416,988506078,0,,,2625.076904,218.8413086,6.193328857,,0.00520575,0.669912934,0.015523553,-0.742259026
1.50817E+18,,414,,1508174417,8145093,0,,,2602.490723,217.4953613,6.293487549,,-0.004369795,0.671921551,0.014249027,-0.740472436
1.50817E+18,,415,,1508174417,27909994,0,,,2584.615234,220.5368652,7.09085083,,-0.008647308,0.65620178,0.011540972,-0.754447579
1.50817E+18,,416,,1508174417,47790050,0,,,2562.051758,219.954834,8.648895264,,-0.005752921,0.645273626,0.018395469,-0.763708353
1.50817E+18,,417,,1508174417,67428112,0,,,2540.646484,219.2053223,3.936126709,,-0.003758475,0.66898638,0.010515951,-0.743190646
1.50817E+18,,418,,1508174417,87358951,0,,,2521.240723,218.4399414,5.297058105,,-0.008531988,0.661617577,0.01619745,-0.749617934
1.50817E+18,,419,,1508174417,106961965,0,,,2501.255859,219.765625,6.703491211,,-0.006716996,0.662143946,0.021717168,-0.749031782
1.50817E+18,,420,,1508174417,127460956,0,,,2477.536621,220.2285156,11.18392944,,0.001148328,0.650756299,0.024554558,-0.758888721
1.50817E+18,,421,,1508174417,146653890,0,,,2453.428223,220.6606445,3.346984863,,-0.002538264,0.673158526,0.022315346,-0.73915714
1.50817E+18,,422,,1508174417,166426897,0,,,2432.463867,219.989502,4.098327637,,-0.000891924,0.669226646,0.012561135,-0.742951572
1.50817E+18,,423,,1508174417,186090946,0,,,2414.279785,219.2580566,7.088226318,,0.001712531,0.65982753,0.018598109,-0.75118494
1.50817E+18,,424,,1508174417,205893039,0,,,2387.068115,219.6564941,8.207550049,,0.002795622,0.656992555,0.021811523,-0.753576338
1.50817E+18,,425,,1508174417,227591037,0,,,2366.693359,218.9550781,5.677276611,,-0.001179427,0.668985903,0.01951585,-0.743017793
1.50817E+18,,426,,1508174417,245553970,0,,,2347.317383,220.7524414,6.197174072,,0.002520204,0.670873106,0.029383935,-0.740985513
1.50817E+18,,427,,1508174417,265409946,0,,,2327.04248,220.1682129,8.960083008,,0.001297399,0.658807337,0.023022763,-0.751958132
1.50817E+18,,428,,1508174417,285162925,0,,,2300.227539,220.2900391,11.39648438,,-0.000915349,0.648874402,0.022523008,-0.760561526
1.50817E+18,,429,,1508174417,304960012,0,,,2278.130859,217.9943848,4.462005615,,-0.003319606,0.667466819,0.014905386,-0.744483054
1.50817E+18,,430,,1508174417,324881076,0,,,2256.131348,220.1362305,6.182769775,,0.00057745,0.669219673,0.02256079,-0.742721856
1.50817E+18,,431,,1508174417,344489097,0,,,2236.833984,220.8122559,8.408935547,,0.002159715,0.659658432,0.014717028,-0.751418293
1.50817E+18,,432,,1508174417,364362001,0,,,2214.764404,221.4755859,11.55377197,,-0.009321973,0.640785813,0.019095182,-0.767425597
1.50817E+18,,433,,1508174417,384201049,0,,,2189.203613,223.6462402,2.405273438,,0.003148541,0.674308717,0.029110737,-0.737868786
1.50817E+18,,434,,1508174417,404055118,0,,,2165.242188,220.7819824,6.057647705,,0.004494235,0.669534385,0.019079812,-0.742522418
1.50817E+18,,435,,1508174417,423940896,0,,,2143.9375,220.557373,8.392608643,,-0.001665279,0.656450093,0.016729891,-0.7541821
1.50817E+18,,436,,1508174417,443521976,0,,,2118.687988,221.5876465,10.22128296,,-0.006496489,0.647630215,0.016060911,-0.761757731
1.50817E+18,,437,,1508174417,463502883,0,,,2096.854492,223.154541,4.992767334,,-0.005645901,0.670328319,0.019006819,-0.741799593
1.50817E+18,,438,,1508174417,483083963,0,,,2075.649902,224.4499512,8.04019165,,-0.008084193,0.658359289,0.015056022,-0.752509832
1.50817E+18,,439,,1508174417,502950906,0,,,2051.875488,224.9152832,9.409301758,,-0.005236551,0.658360541,0.012127519,-0.752586782
1.50817E+18,,440,,1508174417,522664070,0,,,2027.100098,225.1708984,12.79675293,,0.001196772,0.648881793,0.013556048,-0.760767579
1.50817E+18,,441,,1508174417,543656110,0,,,2003.979736,224.501709,7.110321045,,0.002205625,0.669658244,0.018832609,-0.742427289
1.50817E+18,,442,,1508174417,562354087,0,,,1979.181274,223.2231445,8.727355957,,-0.004159659,0.669156313,0.013510644,-0.742987335
1.50817E+18,,443,,1508174417,582134962,0,,,1959.442993,223.8439941,11.61386108,,-0.005039856,0.655354857,0.011270955,-0.755220175
1.50817E+18,,444,,1508174417,601768016,0,,,1935.863647,225.2719727,13.40463257,,-0.015135631,0.641411901,0.014635719,-0.766907692
1.50817E+18,,445,,1508174417,621737957,0,,,1908.890991,226.7314453,7.070556641,,0.002234593,0.672080874,0.012055844,-0.740376174
1.50817E+18,,446,,1508174417,641525030,0,,,1884.215332,226.8100586,7.491333008,,0.000357106,0.671919465,0.011131808,-0.740540504
1.50817E+18,,447,,1508174417,661195993,0,,,1864.527466,226.1362305,8.230712891,,-0.000246093,0.661973357,0.009053811,-0.749472737
1.50817E+18,,448,,1508174417,680991888,0,,,1838.804565,226.3425293,12.19189453,,0.003651991,0.651320219,0.014149621,-0.758662224
1.50817E+18,,449,,1508174417,700778007,0,,,1812.196411,224.5490723,7.472198486,,0.001276299,0.66694802,0.007237628,-0.745067954
1.50817E+18,,450,,1508174417,720750093,0,,,1790.044189,225.4172363,6.766540527,,0.00185883,0.674381971,0.011855774,-0.738285124
1.50817E+18,,451,,1508174417,740426063,0,,,1767.71814,227.8771973,9.529174805,,0.004948765,0.663295984,0.014436007,-0.748201549
1.50817E+18,,452,,1508174417,760078907,0,,,1740.541382,227.9902344,12.45397949,,0.001204416,0.65166682,0.008601949,-0.758455515
1.50817E+18,,453,,1508174417,780049085,0,,,1715.134766,228.3935547,7.184844971,,-0.001425982,0.671307504,0.010870367,-0.741097808
1.50817E+18,,454,,1508174417,799762010,0,,,1691.808594,227.2836914,7.185455322,,-0.001569495,0.672374725,0.007874727,-0.740167439
1.50817E+18,,455,,1508174417,820111989,0,,,1670.984375,228.310791,9.911956787,,0.002564251,0.663685262,0.014514573,-0.74786675
1.50817E+18,,456,,1508174417,840109109,0,,,1641.774658,228.5183105,13.11016846,,0.000880331,0.647241354,0.00781361,-0.762244582
1.50817E+18,,457,,1508174417,859091997,0,,,1617.429688,227.6286621,5.897155762,,-0.001081377,0.674720764,0.010368183,-0.737999439
1.50817E+18,,458,,1508174417,878902912,0,,,1592.510498,229.1147461,6.692169189,,0.002551973,0.671720505,0.010474868,-0.740726233
1.50817E+18,,459,,1508174417,898634910,0,,,1568.948486,230.114502,8.964324951,,0.007323578,0.661777437,0.004289657,-0.749652267
1.50817E+18,,460,,1508174417,918498992,0,,,1540.83667,230.4169922,10.34863281,,-0.000646085,0.64873904,0.005672194,-0.760989606
1.50817E+18,,461,,1508174417,939213037,0,,,1516.792236,229.737793,4.169128418,,0.00067471,0.670784593,0.008307114,-0.741605401
