rosbagTimestamp,header,seq,stamp,secs,nsecs,frame_id,pose,position,x,y,z,orientation,x,y,z,w
1506548364744056321,,1,,1506548364,739651918,0,,,1853.71606445,227.027832031,261.238677979,,-0.00154134631157,0.714479625225,0.0269575640559,-0.699135005474
1506548364762518925,,2,,1506548364,761204004,0,,,1853.76171875,227.141845703,261.198974609,,-0.0015117675066,0.714490175247,0.0270379558206,-0.699121236801
1506548364780240018,,3,,1506548364,779376983,0,,,1853.7253418,227.0546875,261.098327637,,-0.00170494616032,0.714457094669,0.0270921066403,-0.699152588844
1506548364799350175,,4,,1506548364,798613071,0,,,1853.69628906,226.849121094,261.057434082,,-0.00193153321743,0.714457154274,0.0270015895367,-0.699155330658
1506548364819305487,,5,,1506548364,818454027,0,,,1853.68017578,226.80078125,261.016998291,,-0.00200620293617,0.714602351189,0.027324385941,-0.698994219303
1506548364839042779,,6,,1506548364,838118076,0,,,1853.63989258,226.749023438,261.122772217,,-0.00191874802113,0.714509487152,0.0270593985915,-0.699099779129
1506548364860229185,,7,,1506548364,859035015,0,,,1853.68481445,226.967529297,261.25479126,,-0.00180180370808,0.714550495148,0.0272143483162,-0.699052035809
1506548364878853404,,8,,1506548364,877891063,0,,,1853.7409668,227.184814453,261.347473145,,-0.00161588191986,0.714650928974,0.0268513485789,-0.698963880539
1506548364898907935,,9,,1506548364,897800922,0,,,1853.73168945,227.093505859,261.247589111,,-0.00162293016911,0.714526891708,0.0272507444024,-0.699075341225
1506548364921883143,,10,,1506548364,920856952,0,,,1853.6932373,227.015136719,261.129425049,,-0.00172926485538,0.714579164982,0.027256667614,-0.699021339417
1506548364938408248,,11,,1506548364,937557935,0,,,1853.69226074,226.923828125,261.001281738,,-0.00187566876411,0.714588582516,0.0273108109832,-0.699009180069
1506548364961756321,,12,,1506548364,960645914,0,,,1853.67126465,226.888916016,261.06262207,,-0.001973092556,0.714641690254,0.0273926109076,-0.698951482773
1506548364978858143,,13,,1506548364,977744102,0,,,1853.69104004,226.959472656,261.198944092,,-0.00174690783024,0.714590072632,0.0273190364242,-0.699007749557
1506548364998305227,,14,,1506548364,997256040,0,,,1853.73339844,227.082275391,261.234405518,,-0.00141747295856,0.714608550072,0.0272229760885,-0.698993384838
1506548365018659654,,15,,1506548365,17183065,0,,,1853.65881348,227.020996094,261.230285645,,-0.00144253671169,0.714476883411,0.0269630625844,-0.699137866497
1506548365043637883,,16,,1506548365,41960954,0,,,1853.65917969,226.938720703,261.078979492,,-0.00157369673252,0.714487195015,0.0269916728139,-0.699126005173
1506548365058884914,,17,,1506548365,57461977,0,,,1853.70043945,226.910888672,260.988433838,,-0.00185239315033,0.714545965195,0.027321189642,-0.699052333832
1506548365083313716,,18,,1506548365,82207918,0,,,1853.7701416,226.945556641,261.058868408,,-0.00200416147709,0.714640319347,0.0275342017412,-0.698947250843
1506548365097350956,,19,,1506548365,95990896,0,,,1853.78857422,227.033447266,261.207214355,,-0.00189724564552,0.714682936668,0.0275687947869,-0.698902547359
1506548365136972466,,20,,1506548365,132436037,0,,,1853.73034668,227.056152344,261.286254883,,-0.00162883102894,0.714576721191,0.0273097977042,-0.699021995068
1506548365139318195,,21,,1506548365,137855052,0,,,1853.65393066,227.037597656,261.227783203,,-0.00136834383011,0.714580237865,0.027104280889,-0.699026942253
1506548365156043143,,22,,1506548365,154882907,0,,,1853.64916992,226.965820312,261.122833252,,-0.00159950554371,0.714553117752,0.0271275192499,-0.699053287506
1506548365176290123,,23,,1506548365,174861907,0,,,1853.66113281,226.826171875,261.082214355,,-0.00167709589005,0.714626312256,0.027174860239,-0.698976457119
1506548365196479862,,24,,1506548365,195004940,0,,,1853.74694824,226.882568359,261.089019775,,-0.00194078683853,0.714659929276,0.027419231832,-0.698931872845
1506548365224594497,,25,,1506548365,221663951,0,,,1853.77990723,226.992431641,261.106628418,,-0.00182393193245,0.714627385139,0.0274073705077,-0.698965907097
1506548365235719602,,26,,1506548365,234817028,0,,,1853.76037598,227.002929688,261.143066406,,-0.0015311986208,0.714533269405,0.0270872190595,-0.699075400829
1506548365254808716,,27,,1506548365,253937959,0,,,1853.73730469,227.098144531,261.19317627,,-0.00135114789009,0.71453255415,0.0269968286157,-0.699079990387
1506548365276373716,,28,,1506548365,274717092,0,,,1853.67077637,227.070556641,261.23223877,,-0.00142924487591,0.714539825916,0.0269359946251,-0.699074625969
1506548365295306945,,29,,1506548365,294276952,0,,,1853.60888672,226.992675781,261.220550537,,-0.00179794430733,0.714609563351,0.0271366164088,-0.69899469614
1506548365321167675,,30,,1506548365,319629907,0,,,1853.66772461,226.989257812,261.126373291,,-0.00198465585709,0.714569807053,0.0274249315262,-0.699023723602
1506548365335709081,,31,,1506548365,333981037,0,,,1853.73254395,227.0234375,261.059356689,,-0.00202938914299,0.714566588402,0.0274228602648,-0.699026823044
1506548365355962987,,32,,1506548365,354511976,0,,,1853.73571777,226.947509766,261.069824219,,-0.00170005857944,0.714550435543,0.0271976590157,-0.699052929878
1506548365376488456,,33,,1506548365,374720096,0,,,1853.7434082,226.994140625,261.106903076,,-0.00136803090572,0.714493453503,0.026885189116,-0.699124157429
1506548365395173091,,34,,1506548365,393640041,0,,,1853.71362305,226.962646484,261.201812744,,-0.00135777890682,0.714539527893,0.026949249208,-0.699074566364
1506548365414338352,,35,,1506548365,413084983,0,,,1853.68286133,226.905761719,261.253692627,,-0.00161236524582,0.714549481869,0.0270775109529,-0.699058949947
1506548365435827049,,36,,1506548365,433532953,0,,,1853.69921875,226.984863281,261.20602417,,-0.00170733034611,0.714569866657,0.0271019861102,-0.699036896229
1506548365454769914,,37,,1506548365,452886104,0,,,1853.74768066,226.98046875,261.141021729,,-0.00182378292084,0.714554905891,0.0273399651051,-0.69904255867
1506548365473687518,,38,,1506548365,472215890,0,,,1853.79223633,227.036621094,261.148101807,,-0.00154308974743,0.714555323124,0.0270750671625,-0.699053168297
1506548365494579654,,39,,1506548365,493141889,0,,,1853.73291016,226.968994141,261.152832031,,-0.00155952572823,0.714539587498,0.027071736753,-0.69906938076
1506548365513513924,,40,,1506548365,512495040,0,,,1853.68249512,226.932617188,261.174468994,,-0.00150562822819,0.714510560036,0.0270650088787,-0.699099421501
1506548365534435331,,41,,1506548365,532385110,0,,,1853.65771484,226.891601562,261.147857666,,-0.00164289772511,0.714542329311,0.0271213129163,-0.699064493179
1506548365560419602,,42,,1506548365,559250116,0,,,1853.64819336,226.983642578,261.140991211,,-0.00184686481953,0.714584887028,0.0273260623217,-0.69901239872
1506548365576726112,,43,,1506548365,575944900,0,,,1853.71594238,227.07421875,261.088470459,,-0.00183592736721,0.71461302042,0.0273467898369,-0.69898301363
1506548365592692466,,44,,1506548365,591974020,0,,,1853.72802734,227.091796875,261.148284912,,-0.00177216529846,0.714614450932,0.0270354822278,-0.698993742466
1506548365611364497,,45,,1506548365,610517024,0,,,1853.75708008,226.981933594,261.136352539,,-0.00146402418613,0.714504599571,0.0270120874047,-0.699107646942
1506548365632948247,,46,,1506548365,630841016,0,,,1853.73413086,226.900390625,261.198547363,,-0.00142292678356,0.714518606663,0.0268939211965,-0.69909787178
1506548365652140331,,47,,1506548365,650676965,0,,,1853.68530273,226.887695312,261.26385498,,-0.00158616900444,0.714522600174,0.027120269835,-0.699084758759
1506548365671833299,,48,,1506548365,670710086,0,,,1853.63793945,226.850097656,261.214752197,,-0.0017526447773,0.714497089386,0.0271241664886,-0.699110329151
1506548365692557101,,49,,1506548365,691070079,0,,,1853.6965332,226.903808594,261.175170898,,-0.00193063914776,0.714592456818,0.0274380072951,-0.699000120163
1506548365711020695,,50,,1506548365,710036039,0,,,1853.76831055,226.935791016,261.106445312,,-0.001739397645,0.714570641518,0.0272667706013,-0.699029505253
1506548365733075539,,51,,1506548365,729757070,0,,,1853.7947998,226.950927734,261.080810547,,-0.00137282907963,0.7145216465,0.0268933922052,-0.699095010757
1506548365753024341,,52,,1506548365,749661922,0,,,1853.74829102,226.952636719,261.145996094,,-0.00137753784657,0.714498102665,0.02687099576,-0.699119865894
1506548365769709341,,53,,1506548365,768794059,0,,,1853.66650391,226.945556641,261.263214111,,-0.00182950496674,0.714526772499,0.0271840021014,-0.699077606201
1506548365789144445,,54,,1506548365,788456916,0,,,1853.67907715,226.950195312,261.28414917,,-0.00205175578594,0.714572012424,0.0274641215801,-0.699019730091
1506548365808973768,,55,,1506548365,808216094,0,,,1853.70654297,226.994140625,261.194366455,,-0.00186966359615,0.714577496052,0.0274257138371,-0.699016034603
1506548365829582726,,56,,1506548365,828408002,0,,,1853.765625,227.030761719,261.179718018,,-0.00161238014698,0.714551389217,0.0271030217409,-0.69905591011
1506548365849669029,,57,,1506548365,848341941,0,,,1853.66906738,226.954345703,261.170471191,,-0.00141283869743,0.714527606964,0.0268543958664,-0.699090301991
1506548365869049185,,58,,1506548365,867865085,0,,,1853.65063477,226.919921875,261.150970459,,-0.00130458176136,0.714502215385,0.0268647298217,-0.699116110802
1506548365888716216,,59,,1506548365,887779951,0,,,1853.63439941,226.875732422,261.153564453,,-0.00163525342941,0.714551091194,0.0271373391151,-0.699054956436
1506548365908383091,,60,,1506548365,907140016,0,,,1853.65844727,226.930175781,261.129241943,,-0.00205373764038,0.71459710598,0.0276319533587,-0.698987424374
1506548365927826164,,61,,1506548365,927068948,0,,,1853.54797363,226.983642578,261.252746582,,-0.00236238539219,0.714910149574,0.0274806469679,-0.698672115803
1506548365947872101,,62,,1506548365,947208881,0,,,1853.77978516,226.977050781,261.210083008,,-0.00175197422504,0.714487731457,0.0272484943271,-0.699115037918
1506548365973929653,,63,,1506548365,971820116,0,,,1853.75976562,226.965576172,261.21887207,,-0.00149418413639,0.714537620544,0.0269135087729,-0.699077665806
1506548365990673820,,64,,1506548365,988893032,0,,,1853.7310791,226.963867188,261.171722412,,-0.00152462720871,0.714536190033,0.0270200818777,-0.699074864388
1506548366010026945,,65,,1506548366,8069038,0,,,1853.69873047,227.002441406,261.169067383,,-0.00164872407913,0.714545369148,0.0271333456039,-0.699060797691
1506548366028734081,,66,,1506548366,27264118,0,,,1853.64978027,226.930664062,261.168823242,,-0.00197586417198,0.714556097984,0.0274174213409,-0.699038028717
1506548366053138716,,67,,1506548366,51012992,0,,,1853.65466309,226.916015625,261.139373779,,-0.0018819719553,0.714540600777,0.0273830145597,-0.699055492878
1506548366068292049,,68,,1506548366,66669940,0,,,1853.7097168,226.837646484,261.142791748,,-0.00165374577045,0.714514434338,0.0270443111658,-0.699095845222
1506548366086954289,,69,,1506548366,85607051,0,,,1853.75463867,226.934326172,261.11618042,,-0.00138449668884,0.714517056942,0.0269456282258,-0.699097633362
1506548366106439862,,70,,1506548366,105406999,0,,,1853.72570801,226.997802734,261.151702881,,-0.00149162113667,0.714581727982,0.0271980911493,-0.69902151823
1506548366128407935,,71,,1506548366,127001047,0,,,1853.64624023,226.999755859,261.181793213,,-0.00176347792149,0.714591264725,0.027327619493,-0.699006080627
1506548366147732101,,72,,1506548366,146131038,0,,,1853.63806152,226.974121094,261.232849121,,-0.00192333757877,0.714572370052,0.0274466499686,-0.699020385742
1506548366167873351,,73,,1506548366,165931940,0,,,1853.66064453,226.943847656,261.237518311,,-0.00202724337578,0.714576721191,0.0274794176221,-0.699014246464
1506548366186620278,,74,,1506548366,185165882,0,,,1853.6652832,226.943847656,261.19821167,,-0.00160656869411,0.714507043362,0.0270933806896,-0.699101805687
1506548366206383351,,75,,1506548366,205097913,0,,,1853.68811035,226.968017578,261.170410156,,-0.00147305428982,0.714483082294,0.0269872918725,-0.699130535126
1506548366226455122,,76,,1506548366,225068092,0,,,1853.68774414,226.983154297,261.117340088,,-0.00155188143253,0.714553773403,0.0272008627653,-0.699049830437
1506548366246505122,,77,,1506548366,244927883,0,,,1853.6550293,226.899414062,261.070007324,,-0.00173522531986,0.714535474777,0.027241230011,-0.699066519737
1506548366265617726,,78,,1506548366,264507055,0,,,1853.65332031,226.837646484,261.11730957,,-0.0019840747118,0.714548528194,0.0273778513074,-0.699047267437
1506548366285259914,,79,,1506548366,284183979,0,,,1853.70458984,226.916259766,261.1199646,,-0.00187063217163,0.714510321617,0.027228616178,-0.699092328548
1506548366310513403,,80,,1506548366,309298992,0,,,1853.73999023,227.014648438,261.209747314,,-0.00170083343983,0.714496195316,0.0270558968186,-0.699113965034
1506548366327155226,,81,,1506548366,324194908,0,,,1853.74829102,227.125244141,261.206085205,,-0.00133071839809,0.714501142502,0.0268774405122,-0.699116706848
1506548366345513455,,82,,1506548366,343811035,0,,,1853.7142334,227.027099609,261.271789551,,-0.00166730582714,0.714550673962,0.0273050963879,-0.699048757553
1506548366365430903,,83,,1506548366,363574028,0,,,1853.68969727,226.946777344,261.144073486,,-0.00176435709,0.714600265026,0.0272844955325,-0.698998689651
1506548366384408039,,84,,1506548366,383183002,0,,,1853.61035156,226.804443359,261.141265869,,-0.00195749104023,0.714603662491,0.0273676887155,-0.698991298676
1506548366403577830,,85,,1506548366,402483940,0,,,1853.61694336,226.816894531,261.189178467,,-0.00199800729752,0.714704871178,0.0273057147861,-0.698890209198
1506548366429983560,,86,,1506548366,428853988,0,,,1853.68994141,226.877685547,261.164520264,,-0.00160747766495,0.714567959309,0.027106590569,-0.699038982391
1506548366443777257,,87,,1506548366,442653894,0,,,1853.69287109,227.066162109,261.077911377,,-0.00155101716518,0.7145139575,0.0271159783006,-0.69909375906
1506548366463592414,,88,,1506548366,462471008,0,,,1853.68530273,227.135498047,261.081451416,,-0.0015164911747,0.714524805546,0.027155533433,-0.699081301689
1506548366484898091,,89,,1506548366,482100963,0,,,1853.70422363,227.119384766,261.126800537,,-0.00174786150455,0.714526534081,0.0271748900414,-0.699078142643
1506548366502451424,,90,,1506548366,501121997,0,,,1853.70922852,226.996337891,261.190063477,,-0.00188793241978,0.714536190033,0.0271957889199,-0.699067234993
1506548366523332882,,91,,1506548366,521985054,0,,,1853.68493652,226.889648438,261.206176758,,-0.00190308690071,0.714527070522,0.0271521732211,-0.699078202248
1506548366543947934,,92,,1506548366,542145967,0,,,1853.67871094,226.933105469,261.168365479,,-0.00190363824368,0.714535474777,0.0273434892297,-0.699062108994
1506548366562674289,,93,,1506548366,561479091,0,,,1853.66125488,226.989257812,261.148803711,,-0.00181777775288,0.714518368244,0.027274787426,-0.699082553387
1506548366584909341,,94,,1506548366,583578109,0,,,1853.68981934,226.997558594,261.102142334,,-0.00154665112495,0.714449703693,0.026991635561,-0.699164390564
1506548366604782570,,95,,1506548366,603586912,0,,,1853.69494629,226.952880859,261.11907959,,-0.00149945914745,0.714488327503,0.0269764363766,-0.699125528336
1506548366621054289,,96,,1506548366,619821071,0,,,1853.71838379,226.900390625,261.175384521,,-0.00169079005718,0.714545309544,0.0270312204957,-0.699064791203
1506548366641514184,,97,,1506548366,640259981,0,,,1853.67626953,226.817138672,261.26071167,,-0.00206384062767,0.714627206326,0.0272091776133,-0.698973178864
1506548366661670591,,98,,1506548366,660481929,0,,,1853.62719727,226.859130859,261.20892334,,-0.00203719735146,0.714562892914,0.0274143517017,-0.699030995369
1506548366684846684,,99,,1506548366,679711103,0,,,1853.63183594,226.965332031,261.244567871,,-0.00181946158409,0.714487552643,0.0272091403604,-0.699116706848
1506548366700605330,,100,,1506548366,699425935,0,,,1853.65698242,226.990722656,261.190307617,,-0.0016226619482,0.714478433132,0.0270813554525,-0.699131429195
1506548366720897830,,101,,1506548366,719594001,0,,,1853.71557617,226.985351562,261.13293457,,-0.00138798356056,0.714422464371,0.0268380641937,-0.699198544025
1506548366740694601,,102,,1506548366,739423990,0,,,1853.72521973,226.917480469,261.18347168,,-0.00176206231117,0.714448809624,0.0268836021423,-0.699168801308
1506548366759882205,,103,,1506548366,758744001,0,,,1853.6394043,226.864257812,261.175811768,,-0.00198428332806,0.714535057545,0.0271622091532,-0.699069321156
1506548366779809341,,104,,1506548366,778644084,0,,,1853.63220215,226.922363281,261.158843994,,-0.00185212492943,0.71464407444,0.0271755158901,-0.698957800865
1506548366800005747,,105,,1506548366,798382997,0,,,1853.59875488,226.968261719,261.096801758,,-0.00166448950768,0.714520514011,0.0272764638066,-0.699080526829
1506548366819689393,,106,,1506548366,818408966,0,,,1853.63586426,227.067626953,261.157440186,,-0.00154873728752,0.71459954977,0.0266791209579,-0.699023127556
1506548366838878351,,107,,1506548366,837527036,0,,,1853.71154785,227.044921875,261.210296631,,-0.001600086689,0.714746832848,0.0262334495783,-0.698889493942
1506548366858446164,,108,,1506548366,857570886,0,,,1853.78295898,226.941894531,261.230926514,,-0.00159206986427,0.714525938034,0.0270035713911,-0.699085950851
1506548366879202361,,109,,1506548366,877868890,0,,,1853.72753906,226.891113281,261.258209229,,-0.00190332531929,0.714581429958,0.0272876769304,-0.699017345905
1506548366898557153,,110,,1506548366,897145032,0,,,1853.61572266,226.863769531,261.221221924,,-0.00190345942974,0.71456515789,0.0272916406393,-0.699033856392
1506548366920799445,,111,,1506548366,917463064,0,,,1853.54663086,226.875244141,261.147033691,,-0.00175175070763,0.71454513073,0.0272439941764,-0.699056506157
1506548366938106632,,112,,1506548366,936815023,0,,,1853.58068848,226.843261719,261.098266602,,-0.00155511498451,0.714486539364,0.0270049721003,-0.699126243591
1506548366958501684,,113,,1506548366,957226037,0,,,1853.64550781,226.876220703,261.152557373,,-0.00146296620369,0.714495360851,0.0268325954676,-0.699124038219
1506548366980905799,,114,,1506548366,979686021,0,,,1853.7220459,226.964355469,261.192901611,,-0.00149711966515,0.714504361153,0.0267921686172,-0.699116289616
1506548366997217101,,115,,1506548366,996069908,0,,,1853.74511719,227.08984375,261.228424072,,-0.00175797939301,0.714525103569,0.0271049141884,-0.699082434177
1506548367017384809,,116,,1506548367,16022920,0,,,1853.63061523,227.09375,261.201263428,,-0.00201851129532,0.714549720287,0.027333304286,-0.699047684669
1506548367038186893,,117,,1506548367,36210060,0,,,1853.53430176,227.011474609,261.182159424,,-0.00189860165119,0.714546144009,0.0273404121399,-0.699051320553
1506548367058457361,,118,,1506548367,56684970,0,,,1853.56152344,226.955322266,261.118927002,,-0.00170589983463,0.714529454708,0.0271717235446,-0.699075460434
1506548367077148091,,119,,1506548367,75934886,0,,,1853.63439941,226.916015625,261.079437256,,-0.00152438879013,0.714519619942,0.0268564894795,-0.699098110199
1506548367097144549,,120,,1506548367,95700979,0,,,1853.74975586,226.934326172,261.117858887,,-0.00152830779552,0.714518547058,0.0269022732973,-0.699097454548
1506548367117243976,,121,,1506548367,116096973,0,,,1853.73657227,226.920898438,261.200927734,,-0.00194863975048,0.714578449726,0.0272686183453,-0.699020981789
1506548367137105278,,122,,1506548367,135592937,0,,,1853.65002441,226.883789062,261.248535156,,-0.00204735994339,0.714553236961,0.0274465829134,-0.699039459229
1506548367157195070,,123,,1506548367,155020952,0,,,1853.61425781,226.915527344,261.249847412,,-0.001834243536,0.714500725269,0.0273258164525,-0.699098467827
1506548367178956945,,124,,1506548367,174773931,0,,,1853.65087891,227.006835938,261.189422607,,-0.00147910416126,0.714508354664,0.027053900063,-0.699102163315
1506548367198502674,,125,,1506548367,194550037,0,,,1853.6817627,226.962158203,261.1456604,,-0.00158251821995,0.714562833309,0.0270430147648,-0.699046611786
1506548367249542257,,126,,1506548367,248689889,0,,,1853.69689941,226.935546875,261.133636475,,-0.00187911093235,0.714594483376,0.027194596827,-0.699007630348
1506548367251964549,,127,,1506548367,250722885,0,,,1853.69519043,226.976074219,261.108764648,,-0.00203184783459,0.714611053467,0.0273511707783,-0.698984205723
1506548367253393455,,128,,1506548367,252927064,0,,,1853.65844727,226.995361328,261.152282715,,-0.00196366012096,0.714556396008,0.0273282080889,-0.699041247368
1506548367273646424,,129,,1506548367,272720098,0,,,1853.63671875,227.033935547,261.148956299,,-0.00145840644836,0.714448213577,0.0269417911768,-0.699168086052
1506548367293076268,,130,,1506548367,292630910,0,,,1853.6619873,226.982421875,261.08605957,,-0.0012384057045,0.714440643787,0.0267807915807,-0.699182331562
1506548367313137361,,131,,1506548367,312566995,0,,,1853.62927246,226.863037109,261.146362305,,-0.00156469643116,0.714528739452,0.0269420519471,-0.699085593224
1506548367332705382,,132,,1506548367,332216024,0,,,1853.68591309,226.916259766,261.192810059,,-0.00214979052544,0.71457785368,0.0273081734776,-0.699019491673
1506548367352036007,,133,,1506548367,351638078,0,,,1853.70166016,226.934326172,261.197387695,,-0.0021101385355,0.714596271515,0.0274058431387,-0.698996961117
1506548367372309028,,134,,1506548367,371887922,0,,,1853.6953125,226.966552734,261.214508057,,-0.00180707871914,0.71456682682,0.027174808085,-0.69903677702
1506548367391719705,,135,,1506548367,391329050,0,,,1853.63720703,226.932617188,261.186859131,,-0.00156328082085,0.714597702026,0.0271018892527,-0.699008822441
1506548367411693559,,136,,1506548367,411266088,0,,,1853.5838623,226.777587891,261.160797119,,-0.0013872385025,0.714556932449,0.0269060656428,-0.699058532715
1506548367431694809,,137,,1506548367,431215047,0,,,1853.66479492,226.852050781,261.137969971,,-0.00171707570553,0.714549481869,0.0271235778928,-0.699056923389
1506548367451223455,,138,,1506548367,450654983,0,,,1853.71862793,226.984863281,261.145233154,,-0.00204308331013,0.714578151703,0.0274202078581,-0.699015021324
1506548367471685278,,139,,1506548367,471134901,0,,,1853.72460938,227.04296875,261.186767578,,-0.0020876377821,0.714586734772,0.0273899808526,-0.699007451534
1506548367490797934,,140,,1506548367,490271091,0,,,1853.70690918,227.049804688,261.191864014,,-0.00182896852493,0.714565336704,0.0271951854229,-0.699037671089
1506548367510070955,,141,,1506548367,509633064,0,,,1853.61657715,226.948242188,261.174133301,,-0.00146573781967,0.714484274387,0.0268693640828,-0.69913393259
1506548367530175382,,142,,1506548367,529753923,0,,,1853.57641602,226.849365234,261.152252197,,-0.00136995315552,0.714494585991,0.0267860740423,-0.699126780033
1506548367551023299,,143,,1506548367,550384998,0,,,1853.66625977,226.879882812,261.119842529,,-0.0016558021307,0.714539289474,0.0270365998149,-0.699070751667
1506548367570467413,,144,,1506548367,570025920,0,,,1853.76513672,226.940673828,261.132202148,,-0.00212712585926,0.714568197727,0.0273332670331,-0.699028432369
1506548367591912622,,145,,1506548367,590338945,0,,,1853.69604492,226.952148438,261.230133057,,-0.00220908224583,0.714715301991,0.0270131379366,-0.698890268803
1506548367609516944,,146,,1506548367,609025955,0,,,1853.63061523,226.894287109,261.178131104,,-0.00181326270103,0.714566528797,0.027279317379,-0.699033021927
1506548367630132882,,147,,1506548367,629663944,0,,,1853.58569336,227.005615234,261.158599854,,-0.00143758952618,0.714550495148,0.0270046964288,-0.699061095715
1506548367649092257,,148,,1506548367,648725032,0,,,1853.59729004,227.096679688,261.167724609,,-0.00137823820114,0.714553296566,0.0269127935171,-0.69906181097
1506548367669504861,,149,,1506548367,668216943,0,,,1853.62658691,227.074951172,261.200927734,,-0.00196485221386,0.714644014835,0.0272135064006,-0.698956012726
1506548367688435122,,150,,1506548367,688071966,0,,,1853.6973877,227.015869141,261.118347168,,-0.00208079814911,0.714636802673,0.0274555012584,-0.69895362854
1506548367708501215,,151,,1506548367,708126068,0,,,1853.76806641,226.956054688,261.074371338,,-0.0021038800478,0.714598834515,0.0273482501507,-0.698996663094
1506548367728953299,,152,,1506548367,728554964,0,,,1853.6973877,226.860351562,261.128356934,,-0.00179935991764,0.714589238167,0.0271213948727,-0.699016094208
1506548367747866684,,153,,1506548367,747487068,0,,,1853.60668945,226.822998047,261.187561035,,-0.00154741108418,0.714516282082,0.0270304679871,-0.699094891548
1506548367767520538,,154,,1506548367,767147064,0,,,1853.42138672,226.877197266,261.348114014,,-0.0018053650856,0.714820325375,0.0267163738608,-0.698795318604
1506548367787334132,,155,,1506548367,786950111,0,,,1853.61865234,226.880615234,261.219390869,,-0.00199583172798,0.714493274689,0.0272864922881,-0.6991071105
1506548367811307622,,156,,1506548367,810744047,0,,,1853.64294434,226.875244141,261.204071045,,-0.00254727900028,0.714573323727,0.0276476293802,-0.699009418488
1506548367829614288,,157,,1506548367,827147006,0,,,1853.7130127,226.833496094,261.399353027,,-0.0022504478693,0.714975118637,0.0277980789542,-0.698593616486
1506548367846998559,,158,,1506548367,846647024,0,,,1853.64794922,226.901123047,261.256469727,,-0.00189124047756,0.714502394199,0.027257591486,-0.699099242687
1506548367867255746,,159,,1506548367,866421937,0,,,1853.62255859,226.872314453,261.270446777,,-0.00150366127491,0.714501857758,0.0269835144281,-0.699111402035
1506548367887490382,,160,,1506548367,886832952,0,,,1853.55200195,226.920898438,261.253631592,,-0.0015756636858,0.714522838593,0.0270938798785,-0.699085593224
1506548367907595799,,161,,1506548367,906990051,0,,,1853.60546875,226.990234375,261.084838867,,-0.00188228487968,0.714600205421,0.0272878333926,-0.698998212814
1506548367927089340,,162,,1506548367,926549911,0,,,1853.53930664,226.896728516,261.1222229,,-0.00260600447655,0.714632987976,0.0278779789805,-0.698938965797
1506548367947588611,,163,,1506548367,945795059,0,,,1853.63024902,226.916992188,261.125427246,,-0.00217847526073,0.714605808258,0.0273508727551,-0.698989212513
1506548367966538871,,164,,1506548367,965519905,0,,,1853.61645508,226.869628906,261.243865967,,-0.00194960832596,0.714609384537,0.0272270515561,-0.698991000652
1506548367985790486,,165,,1506548367,985229969,0,,,1853.61523438,226.956787109,261.274414062,,-0.00142425298691,0.714495897293,0.0269507318735,-0.69911891222
1506548368005765174,,166,,1506548368,5285024,0,,,1853.6184082,226.933837891,261.281982422,,-0.00169692933559,0.714496016502,0.0271931141615,-0.699108839035
1506548368024748976,,167,,1506548368,24354934,0,,,1853.62133789,226.943115234,261.207946777,,-0.00222133100033,0.714606463909,0.0277627781034,-0.698972225189
1506548368045180486,,168,,1506548368,44614076,0,,,1853.69250488,226.961669922,261.030456543,,-0.00207412242889,0.714496731758,0.0272234454751,-0.699105978012
1506548368065023819,,169,,1506548368,64440011,0,,,1853.68603516,226.805664062,261.087738037,,-0.00217859447002,0.714500010014,0.0270526334643,-0.69910889864
1506548368084292882,,170,,1506548368,83784103,0,,,1853.65673828,226.810791016,261.178955078,,-0.00170256197453,0.714535474777,0.0269285142422,-0.699078679085
1506548368104479080,,171,,1506548368,103960037,0,,,1853.640625,226.891113281,261.218261719,,-0.00150611996651,0.714495182037,0.026987619698,-0.69911813736
1506548368124184653,,172,,1506548368,123692035,0,,,1853.5246582,226.820556641,261.523376465,,-0.00220359861851,0.714719772339,0.0273497402668,-0.698872566223
1506548368143737726,,173,,1506548368,143270969,0,,,1853.69226074,227.040039062,261.137512207,,-0.00184446573257,0.714578092098,0.0273385420442,-0.699018895626
1506548368163293246,,174,,1506548368,162853956,0,,,1853.75585938,227.106201172,261.027435303,,-0.00206269323826,0.714647173882,0.0274028405547,-0.69894516468
1506548368183306528,,175,,1506548368,182845115,0,,,1853.6817627,226.998291016,261.082550049,,-0.00186309218407,0.71470117569,0.027253344655,-0.698896408081
1506548368203006944,,176,,1506548368,202589035,0,,,1853.58581543,226.914550781,261.139678955,,-0.00177861750126,0.71464407444,0.0272045135498,-0.698956787586
1506548368222983559,,177,,1506548368,222560882,0,,,1853.55395508,226.965332031,261.158508301,,-0.00147262215614,0.714608848095,0.0270976647735,-0.698997735977
1506548368242390121,,178,,1506548368,241976022,0,,,1853.58752441,226.985351562,261.187805176,,-0.00158888101578,0.714590489864,0.0271669253707,-0.699013590813
1506548368262326528,,179,,1506548368,261848926,0,,,1853.39624023,226.889160156,261.333312988,,-0.00210247933865,0.714984416962,0.026775367558,-0.698624372482
1506548368282150850,,180,,1506548368,281758069,0,,,1853.68188477,226.849853516,261.18081665,,-0.00199174880981,0.714544177055,0.0272924378514,-0.699054956436
1506548368302410121,,181,,1506548368,302017927,0,,,1853.71508789,227.018310547,261.047302246,,-0.00193375349045,0.714732646942,0.0267275944352,-0.698884367943
1506548368323279288,,182,,1506548368,322832107,0,,,1853.65771484,226.938476562,261.027770996,,-0.00191070139408,0.714599072933,0.0272207260132,-0.699001908302
1506548368343952413,,183,,1506548368,343502998,0,,,1853.58251953,226.942626953,261.083862305,,-0.00181207060814,0.714556276798,0.0272175893188,-0.69904589653
1506548368361655225,,184,,1506548368,361221075,0,,,1853.63574219,227.0390625,261.204833984,,-0.00143258273602,0.714542686939,0.0270944312215,-0.699065625668
1506548368381471736,,185,,1506548368,381016969,0,,,1853.65258789,227.0390625,261.305084229,,-0.00145977735519,0.71459031105,0.026978880167,-0.699021339417
1506548368401411423,,186,,1506548368,400882005,0,,,1853.67114258,226.893798828,261.237640381,,-0.00179401040077,0.714558362961,0.0270264223218,-0.699051380157
1506548368420861736,,187,,1506548368,420429944,0,,,1853.67150879,226.874023438,261.138031006,,-0.00204007327557,0.714590787888,0.0272658318281,-0.699008285999
1506548368440496475,,188,,1506548368,439986944,0,,,1853.58349609,226.859375,261.130065918,,-0.00219510495663,0.714742541313,0.0269468575716,-0.698865056038
1506548368460002882,,189,,1506548368,459578037,0,,,1853.49609375,226.736572266,261.080169678,,-0.00181849300861,0.714612603188,0.0273523181677,-0.698983132839
1506548368480019705,,190,,1506548368,479635953,0,,,1853.57763672,226.869873047,261.149627686,,-0.0012890547514,0.714633285999,0.0271537303925,-0.698971033096
1506548368499978038,,191,,1506548368,499578952,0,,,1853.67480469,226.981933594,261.172912598,,-0.00130355358124,0.714569330215,0.0269336849451,-0.699044823647
1506548368519574652,,192,,1506548368,519120931,0,,,1853.60388184,227.044677734,261.218658447,,-0.00123217701912,0.714437842369,0.0269510895014,-0.699178695679
1506548368543195746,,193,,1506548368,542824029,0,,,1852.99707031,227.099365234,261.203125,,-0.000235825777054,0.714432239532,0.0288507640362,-0.699109613895
1506548368559555330,,194,,1506548368,559087991,0,,,1851.24072266,226.859130859,261.115234375,,0.00108367204666,0.71424561739,0.0312730669975,-0.699195206165
1506548368579024080,,195,,1506548368,578510046,0,,,1847.95837402,226.7421875,260.958007812,,0.0021146684885,0.71413141489,0.0319196730852,-0.699280381203
1506548368598884913,,196,,1506548368,598455905,0,,,1843.08813477,226.9296875,260.635803223,,0.00263367593288,0.714053571224,0.0307575389743,-0.699410259724
1506548368618374288,,197,,1506548368,617914915,0,,,1836.87097168,227.392578125,260.284698486,,0.00228203833103,0.713964879513,0.029151558876,-0.699570894241
1506548368643443715,,198,,1506548368,642987012,0,,,1829.55700684,227.812255859,260.021881104,,0.00085312128067,0.7139133811,0.0281961336732,-0.699665606022
1506548368658238663,,199,,1506548368,657835006,0,,,1821.25317383,227.932861328,259.830993652,,-0.000277444720268,0.713638782501,0.0284493714571,-0.699936032295
1506548368678055798,,200,,1506548368,677599906,0,,,1811.98999023,228.012695312,259.907745361,,-0.0012726187706,0.713303148746,0.0301577299833,-0.70020544529
1506548368697831111,,201,,1506548368,697417020,0,,,1801.86877441,227.967529297,259.758453369,,-0.00114068388939,0.712869942188,0.0312366485596,-0.700599431992
1506548368717651423,,202,,1506548368,717257022,0,,,1790.94970703,227.809814453,259.48928833,,0.000405490398407,0.712458491325,0.031238257885,-0.701018571854
1506548368743410798,,203,,1506548368,742927074,0,,,1778.40039062,228.098388672,258.816223145,,0.0017381310463,0.712241232395,0.0301479846239,-0.701285004616
1506548368757208246,,204,,1506548368,756802082,0,,,1764.45959473,228.011474609,258.266662598,,0.000864028930664,0.712008953094,0.0301246121526,-0.701523542404
1506548368776740746,,205,,1506548368,776326894,0,,,1748.95788574,227.856689453,257.823699951,,-0.00109846889973,0.7117613554,0.0300388410687,-0.701777935028
1506548368797093975,,206,,1506548368,796432018,0,,,1732.01318359,227.932861328,257.406555176,,-0.00238022208214,0.712006270885,0.0274762585759,-0.701631486416
1506548368816946007,,207,,1506548368,816337108,0,,,1713.99829102,228.053222656,256.73147583,,-0.00233671069145,0.712192177773,0.0249367654324,-0.701537668705
1506548368837124809,,208,,1506548368,836488008,0,,,1696.01879883,227.814208984,255.95513916,,-0.000350043177605,0.712066113949,0.0240603908896,-0.701700150967
1506548368856405173,,209,,1506548368,855778932,0,,,1677.23657227,228.123779297,255.184417725,,0.00123780965805,0.711843430996,0.0235965326428,-0.701940715313
1506548368876451475,,210,,1506548368,875859975,0,,,1657.36120605,228.781738281,254.738128662,,0.0018035620451,0.711920797825,0.0244016647339,-0.701833367348
1506548368896356319,,211,,1506548368,895776033,0,,,1635.78356934,229.238037109,254.354003906,,0.000967502593994,0.711735963821,0.0253412798047,-0.701989173889
1506548368915663506,,212,,1506548368,915146112,0,,,1612.81176758,229.5234375,254.297149658,,-0.00102166831493,0.711511671543,0.024922631681,-0.702231585979
1506548368938484600,,213,,1506548368,938098907,0,,,1588.7331543,229.427001953,254.310760498,,-0.00232717394829,0.710940003395,0.0239322111011,-0.702841520309
1506548368958377517,,214,,1506548368,958022117,0,,,1564.25720215,229.368896484,254.113067627,,-0.00295428931713,0.710661113262,0.0230121836066,-0.703151941299
1506548368975158871,,215,,1506548368,974585056,0,,,1538.65637207,229.102539062,253.505096436,,-0.00196036696434,0.710163235664,0.0227529704571,-0.703666567802
1506548368996001319,,216,,1506548368,995445013,0,,,1512.59484863,228.729003906,253.064453125,,-0.00178498029709,0.710371792316,0.0239384770393,-0.703417181969
1506548369015752100,,217,,1506548369,14472961,0,,,1485.07250977,228.649414062,252.948760986,,-0.00334334373474,0.709988474846,0.0260306373239,-0.703724145889
1506548369035072725,,218,,1506548369,34373998,0,,,1456.99914551,228.728271484,252.911407471,,-0.0026820898056,0.709602534771,0.027542643249,-0.704058766365
1506548369054746215,,219,,1506548369,54070949,0,,,1427.94018555,229.040039062,252.436035156,,-0.00023852288723,0.709056735039,0.0268641784787,-0.704639613628
1506548369074499496,,220,,1506548369,74014902,0,,,1397.61364746,229.366455078,251.66317749,,-0.000604867935181,0.70898348093,0.0252688750625,-0.704772114754
1506548369093848246,,221,,1506548369,93292951,0,,,1365.81091309,229.090576172,250.833099365,,-0.00333732366562,0.708559691906,0.024444334209,-0.705219626427
1506548369113992152,,222,,1506548369,113492965,0,,,1333.19506836,229.033447266,250.360565186,,-0.00684827566147,0.70916903019,0.0233488604426,-0.704618513584
1506548369134386527,,223,,1506548369,133706092,0,,,1300.18395996,229.250488281,250.632446289,,-0.00714446604252,0.70893740654,0.0227818787098,-0.704867303371
1506548369153753090,,224,,1506548369,152627944,0,,,1266.98413086,230.0,250.801696777,,-0.00599314272404,0.709108412266,0.0250040739775,-0.704630553722
1506548369173553402,,225,,1506548369,172727108,0,,,1232.69616699,230.312011719,250.727905273,,-0.00585822761059,0.709255039692,0.0286750718951,-0.704344272614
1506548369193665381,,226,,1506548369,192466020,0,,,1198.00439453,230.52734375,250.527526855,,-0.00568415224552,0.710115015507,0.0306601971388,-0.703394889832
1506548369213198819,,227,,1506548369,212230920,0,,,1161.50732422,230.019042969,250.426635742,,-0.00428658723831,0.709805428982,0.0295663028955,-0.703763961792
1506548369232935225,,228,,1506548369,232348918,0,,,1124.99645996,229.813720703,250.010345459,,-0.00525215268135,0.710341751575,0.0296372175217,-0.703213095665
1506548369253181579,,229,,1506548369,252501010,0,,,1087.17028809,230.556640625,249.219238281,,-0.00772723555565,0.710312783718,0.0309394672513,-0.703163385391
1506548369275654079,,230,,1506548369,275100946,0,,,1049.2590332,231.100341797,248.988922119,,-0.00541530549526,0.712001740932,0.0306101962924,-0.701489448547
1506548369291230642,,231,,1506548369,290797948,0,,,1009.6652832,232.081298828,248.636016846,,-0.00631482899189,0.71223950386,0.0296014770865,-0.701283693314
1506548369311424913,,232,,1506548369,311038017,0,,,970.357299805,231.958496094,248.111633301,,-0.00697781145573,0.712837994099,0.0306428149343,-0.700624287128
1506548369331273298,,233,,1506548369,330794095,0,,,929.886413574,231.416748047,247.216278076,,-0.00801910459995,0.713206470013,0.0320157706738,-0.700176656246
1506548369351765746,,234,,1506548369,350667953,0,,,889.080444336,231.415039062,246.679901123,,-0.00709246098995,0.714711070061,0.0347427278757,-0.698520541191
1506548369370858923,,235,,1506548369,370455026,0,,,846.919433594,231.885253906,245.905792236,,-0.00698241591454,0.714341580868,0.0332150757313,-0.698973715305
1506548369390440381,,236,,1506548369,390060901,0,,,804.079345703,232.4296875,244.756469727,,-0.00727032124996,0.715048551559,0.0300172269344,-0.6983923316
1506548369410331527,,237,,1506548369,409970998,0,,,760.469787598,233.073730469,243.468002319,,-0.00888729095459,0.714763820171,0.0276032984257,-0.698764443398
1506548369429885590,,238,,1506548369,429527997,0,,,716.978759766,233.724853516,243.099105835,,-0.0106214135885,0.71624982357,0.0263591855764,-0.697265207767
1506548369449740485,,239,,1506548369,449425935,0,,,672.60546875,233.949951172,242.149230957,,-0.0149694979191,0.715895056725,0.0245931372046,-0.697614073753
1506548369473831788,,240,,1506548369,469610929,0,,,629.06829834,233.427246094,240.989990234,,-0.0157983005047,0.716630339622,0.0230961069465,-0.696891605854
1506548369490378610,,241,,1506548369,489115953,0,,,586.574951172,232.744140625,238.951187134,,-0.015442147851,0.716832637787,0.023004449904,-0.696694672108
1506548369521058402,,242,,1506548369,520473003,0,,,545.892822266,233.081787109,238.53553772,,-0.0139991790056,0.719109237194,0.02485755831,-0.694311261177
1506548369530949808,,243,,1506548369,529050111,0,,,505.561279297,232.952880859,236.857666016,,-0.0128599852324,0.719788193703,0.0271394997835,-0.69354391098
1506548369548956215,,244,,1506548369,548507928,0,,,465.723083496,232.7421875,235.370574951,,-0.0103414207697,0.72070735693,0.02736672014,-0.69262188673
1506548369569194912,,245,,1506548369,568779945,0,,,425.483673096,233.1484375,233.6849823,,-0.0106205046177,0.72129547596,0.0279502570629,-0.691981911659
1506548369591441058,,246,,1506548369,590903997,0,,,385.233825684,234.028808594,232.785400391,,-0.014874368906,0.722278296947,0.0295460708439,-0.690811097622
1506548369607770017,,247,,1506548369,607422113,0,,,344.564208984,233.863769531,230.71546936,,-0.0163710713387,0.723111927509,0.0268570892513,-0.690014481544
1506548369627802933,,248,,1506548369,627357959,0,,,304.684417725,233.721435547,228.959747314,,-0.0144687741995,0.724750220776,0.0241601988673,-0.688436090946
1506548369648970590,,249,,1506548369,648586988,0,,,265.31628418,233.943603516,226.988021851,,-0.0136593282223,0.723941087723,0.0240294113755,-0.68930798769
1506548369668343246,,250,,1506548369,667805910,0,,,226.811004639,234.332275391,225.899047852,,-0.0127236396074,0.724986195564,0.0271399468184,-0.688110947609
1506548369687631527,,251,,1506548369,687133073,0,,,188.713897705,233.769287109,224.08795166,,-0.0115372538567,0.724288165569,0.0272100381553,-0.688863694668
1506548369707094444,,252,,1506548369,706710100,0,,,150.893737793,233.392333984,222.852035522,,-0.0105895102024,0.724596142769,0.0273041315377,-0.688551425934
1506548369726949548,,253,,1506548369,726316928,0,,,113.697845459,234.092041016,221.562530518,,-0.0112375319004,0.722509205341,0.027844209224,-0.690708994865
1506548369749247725,,254,,1506548369,747112989,0,,,76.4564819336,235.054931641,220.583480835,,-0.0117548555136,0.722108602524,0.0296790637076,-0.691042780876
1506548369767041162,,255,,1506548369,766542911,0,,,39.1321105957,235.135742188,218.780456543,,-0.0108872205019,0.721626639366,0.0259780660272,-0.691709160805
1506548369786144339,,256,,1506548369,785671949,0,,,2.16943359375,235.052001953,217.540435791,,-0.012069106102,0.720430374146,0.0239968523383,-0.69300699234
1506548369811197777,,257,,1506548369,805993080,0,,,-33.7842712402,234.888427734,216.163330078,,-0.0112555772066,0.719112336636,0.0229371413589,-0.694424033165
1506548369825871110,,258,,1506548369,825498104,0,,,-69.1191711426,235.130371094,215.651062012,,-0.0105725824833,0.718623101711,0.0260005146265,-0.694833278656
1506548369845810017,,259,,1506548369,845407962,0,,,-104.646636963,235.136230469,214.582046509,,-0.00987358391285,0.718326449394,0.0266133472323,-0.695126891136
1506548369865492308,,260,,1506548369,865108966,0,,,-139.438598633,234.507080078,213.961456299,,-0.0098325163126,0.717072308064,0.0261911824346,-0.696437120438
1506548369885892100,,261,,1506548369,885253906,0,,,-174.063018799,234.608398438,212.84942627,,-0.0109569728374,0.715710282326,0.0245330482721,-0.697880446911
1506548369906522725,,262,,1506548369,905047893,0,,,-208.093475342,235.263916016,212.621063232,,-0.0101326555014,0.715220808983,0.0265243723989,-0.698321700096
1506548369930363194,,263,,1506548369,926738023,0,,,-241.922424316,235.99609375,211.760559082,,-0.0108665674925,0.714256942272,0.0253482684493,-0.699340105057
1506548369953713402,,264,,1506548369,945290088,0,,,-275.445922852,236.326171875,211.272094727,,-0.012377217412,0.714721083641,0.0243501663208,-0.698876023293
1506548369966569808,,265,,1506548369,965377092,0,,,-309.068023682,235.368896484,210.317626953,,-0.0126717239618,0.714242517948,0.0230902209878,-0.699402570724
1506548369985673662,,266,,1506548369,984782934,0,,,-342.285949707,234.546875,209.670806885,,-0.00909230113029,0.715247452259,0.0209696739912,-0.698497533798
1506548370005963662,,267,,1506548370,5167007,0,,,-375.026367188,234.644287109,208.940063477,,-0.00822275876999,0.71425229311,0.0220662355423,-0.69949221611
1506548370025779339,,268,,1506548370,25360107,0,,,-406.951477051,235.523681641,208.486709595,,-0.00877587497234,0.715039670467,0.0236662104726,-0.69862818718
1506548370043393402,,269,,1506548370,42983055,0,,,-439.084106445,235.400146484,207.323486328,,-0.0100959688425,0.714624643326,0.0231349021196,-0.699052631855
1506548370065453662,,270,,1506548370,64989089,0,,,-471.410644531,234.797119141,206.933502197,,-0.00934298336506,0.715807378292,0.0222571492195,-0.697880506516
1506548370084385225,,271,,1506548370,83873033,0,,,-503.487182617,234.564941406,205.947036743,,-0.00739949941635,0.714928209782,0.0191361904144,-0.698896884918
1506548370103068923,,272,,1506548370,102663993,0,,,-533.787475586,235.08203125,205.246002197,,-0.0079680532217,0.714768111706,0.0179329812527,-0.699086248875
1506548370122760954,,273,,1506548370,122383117,0,,,-563.625183105,235.1015625,204.567199707,,-0.00748531520367,0.713407516479,0.0169210284948,-0.700505137444
1506548370142478454,,274,,1506548370,142141103,0,,,-592.116210938,234.973144531,204.699523926,,-0.00689099729061,0.711097061634,0.0170805230737,-0.702852725983
1506548370162366319,,275,,1506548370,162015914,0,,,-619.916381836,234.980224609,205.220626831,,-0.00557620823383,0.707790076733,0.0169482976198,-0.706197559834
1506548370182959548,,276,,1506548370,181684970,0,,,-646.204467773,235.002685547,206.371765137,,-0.0070626437664,0.705496191978,0.0186250656843,-0.708433747292
1506548370201909548,,277,,1506548370,201539039,0,,,-671.947631836,234.815673828,207.715896606,,-0.00804464519024,0.702183544636,0.0218475610018,-0.71161532402
1506548370222369079,,278,,1506548370,221961975,0,,,-696.449768066,234.900634766,209.000030518,,-0.0062355697155,0.69864565134,0.0223265662789,-0.715092301369
1506548370241406735,,279,,1506548370,240958929,0,,,-720.116455078,235.243896484,209.80430603,,-0.00405025482178,0.695706725121,0.0209907069802,-0.718007802963
1506548370261385850,,280,,1506548370,260982036,0,,,-742.372070312,235.877685547,211.434906006,,-0.00481401383877,0.692533493042,0.0186905562878,-0.721127569675
1506548370281193506,,281,,1506548370,280755996,0,,,-764.173828125,236.275634766,213.126693726,,-0.00755648314953,0.688003838062,0.0177198126912,-0.725451409817
1506548370300776006,,282,,1506548370,300437927,0,,,-784.719970703,236.317871094,214.926483154,,-0.00623771548271,0.685014247894,0.0180509015918,-0.728279411793
1506548370325692881,,283,,1506548370,322488069,0,,,-804.081848145,236.509765625,215.990570068,,-0.00326161086559,0.68011122942,0.0192375406623,-0.732849240303
1506548370342015329,,284,,1506548370,341645956,0,,,-822.078430176,236.529296875,217.919113159,,-0.00245214998722,0.677133977413,0.0213401317596,-0.735546171665
1506548370360579496,,285,,1506548370,360217094,0,,,-839.517028809,236.785644531,219.684677124,,-0.00367939472198,0.672381639481,0.0226035043597,-0.739850401878
1506548370386208193,,286,,1506548370,385781049,0,,,-855.958984375,236.740722656,221.667068481,,-0.00313527882099,0.669475793839,0.0222599953413,-0.742493867874
1506548370400938766,,287,,1506548370,400572061,0,,,-871.594970703,236.789550781,222.782913208,,-0.00238686800003,0.664918124676,0.0209954530001,-0.746617257595
1506548370420078298,,288,,1506548370,419540882,0,,,-885.835327148,236.754638672,224.449676514,,-0.00454512238503,0.661421298981,0.0215538069606,-0.749691188335
1506548370439154912,,289,,1506548370,438704013,0,,,-899.83380127,236.439941406,225.111419678,,-0.00378239154816,0.658002138138,0.021383985877,-0.752702951431
1506548370465996318,,290,,1506548370,465595960,0,,,-912.137084961,236.589599609,226.493881226,,-0.00283887982368,0.655501961708,0.0224884152412,-0.754853367805
1506548370478604912,,291,,1506548370,478293895,0,,,-923.935974121,237.198486328,228.453979492,,-0.00445851683617,0.651420176029,0.0252036526799,-0.758285403252
1506548370503344495,,292,,1506548370,503000974,0,,,-933.98449707,238.111328125,230.273849487,,-0.00802803039551,0.648666024208,0.0278688818216,-0.760520517826
1506548370519014860,,293,,1506548370,518197059,0,,,-943.536743164,238.450195312,231.2578125,,-0.00973533093929,0.645981013775,0.0287689268589,-0.762749135494
1506548370539356058,,294,,1506548370,538300991,0,,,-952.186401367,237.737548828,231.990203857,,-0.00487224757671,0.644149839878,0.0267881825566,-0.764414668083
1506548370563767412,,295,,1506548370,562657117,0,,,-959.711914062,237.585693359,232.260910034,,-0.00252087414265,0.642490983009,0.0277625024319,-0.765786170959
1506548370580514704,,296,,1506548370,579566001,0,,,-966.71685791,237.347412109,232.842697144,,-0.00241510570049,0.642368257046,0.0284588262439,-0.765863776207
1506548370599121318,,297,,1506548370,598134040,0,,,-973.508422852,237.429199219,233.777450562,,-0.00222317874432,0.643339216709,0.027976565063,-0.765066623688
1506548370619256839,,298,,1506548370,617913961,0,,,-980.416870117,237.211181641,235.637939453,,0.000249594449997,0.644353687763,0.0277517214417,-0.764223873615
1506548370639253089,,299,,1506548370,637805938,0,,,-987.302856445,237.906982422,237.360748291,,-0.00182281434536,0.643610656261,0.0304872095585,-0.764743566513
1506548370680948870,,300,,1506548370,679636955,0,,,-993.370605469,238.413085938,239.464248657,,-0.00504331290722,0.644845664501,0.0330843254924,-0.763579845428
1506548370696627256,,301,,1506548370,695445060,0,,,-999.967895508,238.240722656,240.742431641,,-0.00607658922672,0.644756734371,0.0309465304017,-0.763737082481
1506548370700876370,,302,,1506548370,699528932,0,,,-1006.09338379,237.987548828,242.49647522,,-0.00504928827286,0.645537376404,0.0319173112512,-0.763044834137
1506548370718625120,,303,,1506548370,717220067,0,,,-1011.99108887,237.774169922,242.817855835,,-0.00215700268745,0.644391238689,0.0320075973868,-0.764022886753
1506548370741348089,,304,,1506548370,736972093,0,,,-1017.45751953,238.293212891,243.385269165,,-0.00382409989834,0.644631743431,0.0333868637681,-0.763754427433
1506548370769734287,,305,,1506548370,769115924,0,,,-1023.65234375,238.013916016,243.910125732,,-0.00378088653088,0.644711256027,0.0305998548865,-0.763804256916
1506548370776047412,,306,,1506548370,775469064,0,,,-1029.10290527,237.883544922,244.629302979,,-0.00335720181465,0.644490301609,0.0285427644849,-0.764072299004
1506548370797142985,,307,,1506548370,795917987,0,,,-1033.64868164,238.560302734,245.042724609,,-0.00293682515621,0.644250333309,0.0295220911503,-0.764239192009
1506548370815746006,,308,,1506548370,815202951,0,,,-1037.28796387,238.73046875,245.400482178,,-0.00244572758675,0.644504606724,0.0298959463835,-0.764011919498
1506548370835460172,,309,,1506548370,834991931,0,,,-1041.578125,238.471923828,246.486068726,,-0.00227797031403,0.644754648209,0.0295521467924,-0.763814806938
1506548370855055797,,310,,1506548370,854594945,0,,,-1045.60998535,237.917480469,247.917755127,,-0.00150039792061,0.644674003124,0.0306708738208,-0.763840615749
1506548370874655485,,311,,1506548370,874209880,0,,,-1049.87890625,237.410888672,248.937927246,,-0.00161215662956,0.644246995449,0.0318887904286,-0.764150798321
1506548370894776839,,312,,1506548370,894295930,0,,,-1053.60852051,237.355957031,249.759979248,,-0.00271148979664,0.644736170769,0.0318354144692,-0.763737201691
1506548370914731214,,313,,1506548370,914216995,0,,,-1057.50415039,237.479736328,250.067428589,,-0.00377607345581,0.644886612892,0.0308905765414,-0.763644456863
1506548370939918193,,314,,1506548370,939537048,0,,,-1060.51123047,237.712402344,250.138290405,,-0.00328868627548,0.644925534725,0.0304601639509,-0.763631105423
1506548370958461266,,315,,1506548370,958095073,0,,,-1062.80725098,237.839355469,250.066650391,,-0.00237740576267,0.644905805588,0.0303323343396,-0.763656377792
1506548370973948870,,316,,1506548370,973479032,0,,,-1064.83996582,237.640625,250.249267578,,-0.00220310688019,0.644967317581,0.0308065265417,-0.763585925102
1506548370993840537,,317,,1506548370,993465900,0,,,-1066.75866699,237.356689453,250.366882324,,-0.00205750763416,0.64498847723,0.0314440876245,-0.763542413712
1506548371014095849,,318,,1506548371,13657093,0,,,-1068.37561035,237.21484375,250.683547974,,-0.00169016420841,0.64499861002,0.03165794909,-0.76352596283
1506548371033213245,,319,,1506548371,32768011,0,,,-1069.64624023,237.515136719,250.936981201,,-0.00204880535603,0.644840359688,0.0315937772393,-0.763661444187
1506548371052729391,,320,,1506548371,52289009,0,,,-1070.47741699,237.861816406,251.159576416,,-0.00288893282413,0.64504468441,0.0312881618738,-0.763498723507
1506548371073010485,,321,,1506548371,72441101,0,,,-1070.93688965,237.987548828,251.219238281,,-0.00320321321487,0.645245611668,0.0307530239224,-0.763349413872
1506548371094678193,,322,,1506548371,92317104,0,,,-1071.04577637,237.967041016,251.201538086,,-0.00308114290237,0.645376682281,0.0312714204192,-0.763218045235
1506548371112434183,,323,,1506548371,111816883,0,,,-1070.70385742,237.785400391,251.054382324,,-0.00278186798096,0.645399332047,0.0321017280221,-0.763165473938
1506548371133988245,,324,,1506548371,132436037,0,,,-1069.99121094,237.634521484,250.888961792,,-0.00275683403015,0.64591884613,0.0328321158886,-0.762694895267
1506548371152365016,,325,,1506548371,151817083,0,,,-1069.28137207,237.533447266,250.543823242,,-0.00290033221245,0.646863520145,0.0332597047091,-0.761874735355
1506548371173815016,,326,,1506548371,171406030,0,,,-1068.60717773,237.614990234,250.076629639,,-0.00320079922676,0.648222327232,0.0334328263998,-0.76071023941
1506548371193371266,,327,,1506548371,192147016,0,,,-1067.83496094,237.705810547,249.627380371,,-0.0039641559124,0.649872422218,0.0340124443173,-0.759271621704
1506548371214345433,,328,,1506548371,213943958,0,,,-1067.03051758,237.752929688,249.091537476,,-0.00496239960194,0.651883363724,0.0350212231278,-0.757493913174
1506548371230648714,,329,,1506548371,230263948,0,,,-1066.37023926,237.705810547,248.391845703,,-0.00522457063198,0.654144048691,0.0357147231698,-0.755508303642
1506548371250891110,,330,,1506548371,250461101,0,,,-1065.82849121,237.625732422,247.608886719,,-0.00480227172375,0.656234443188,0.0360646694899,-0.753679513931
1506548371271912620,,331,,1506548371,271481037,0,,,-1065.11865234,237.549560547,246.864395142,,-0.00376139581203,0.65770483017,0.0358867794275,-0.752411007881
1506548371292595381,,332,,1506548371,292169094,0,,,-1064.40661621,237.750732422,246.522460938,,-0.00392606854439,0.658256590366,0.0364848449826,-0.751898765564
1506548371313437568,,333,,1506548371,313014030,0,,,-1063.9510498,237.865722656,246.376739502,,-0.00381565093994,0.658325314522,0.0362456291914,-0.75185072422
1506548371330407412,,334,,1506548371,329794883,0,,,-1063.85473633,237.891357422,246.394989014,,-0.00369329750538,0.657849371433,0.0357593595982,-0.752291083336
1506548371350061995,,335,,1506548371,349596023,0,,,-1064.01586914,237.740966797,246.737945557,,-0.00429697334766,0.6570764184,0.0359145924449,-0.752955794334
1506548371376295589,,336,,1506548371,372656106,0,,,-1064.21264648,237.560302734,247.237503052,,-0.00527131557465,0.656566739082,0.0364804193377,-0.753366887569
1506548371390194651,,337,,1506548371,389472961,0,,,-1064.27111816,237.459228516,247.534820557,,-0.00577710568905,0.656597495079,0.0367362201214,-0.753323912621
1506548371413439547,,338,,1506548371,411066055,0,,,-1064.09875488,237.553955078,247.688919067,,-0.00569455325603,0.65691369772,0.0367173328996,-0.753049790859
1506548371429032933,,339,,1506548371,428600072,0,,,-1063.90454102,237.697021484,247.67048645,,-0.00560028851032,0.657236278057,0.0368986576796,-0.752760112286
1506548371448532776,,340,,1506548371,448112010,0,,,-1063.95397949,237.710693359,247.41885376,,-0.00504377484322,0.657370626926,0.036634914577,-0.75265955925
1506548371468530797,,341,,1506548371,468122959,0,,,-1064.1751709,237.666503906,247.103500366,,-0.00470675528049,0.657243132591,0.0363129749894,-0.752788722515
1506548371488533558,,342,,1506548371,488109111,0,,,-1064.66906738,237.475830078,246.792404175,,-0.00436772406101,0.656896173954,0.0357200652361,-0.753121852875
1506548371508162308,,343,,1506548371,507716894,0,,,-1065.02612305,237.456787109,246.805648804,,-0.00408820807934,0.656440317631,0.0351654589176,-0.753546893597
1506548371527865693,,344,,1506548371,527503013,0,,,-1065.1418457,237.603027344,247.042678833,,-0.00346438586712,0.655443668365,0.0343445837498,-0.75445497036
1506548371547810641,,345,,1506548371,547372102,0,,,-1065.07128906,237.743652344,247.583953857,,-0.0025427043438,0.653551876545,0.0332099720836,-0.756148576736
1506548371568007568,,346,,1506548371,567539930,0,,,-1065.21801758,237.662353516,248.358947754,,-0.00209859013557,0.651066541672,0.0325280204415,-0.758320569992
1506548371587463818,,347,,1506548371,587030887,0,,,-1065.73095703,237.442626953,249.211517334,,-0.00238755345345,0.648560166359,0.0324390232563,-0.760468184948
1506548371607631318,,348,,1506548371,607002973,0,,,-1066.26379395,237.283691406,249.964050293,,-0.00268076360226,0.646371245384,0.0327256247401,-0.762316286564
1506548371627588193,,349,,1506548371,626943111,0,,,-1066.62463379,237.263183594,250.564239502,,-0.00280323624611,0.644908368587,0.0331437438726,-0.763535797596
1506548371664535849,,350,,1506548371,663777112,0,,,-1066.59887695,237.523925781,251.001678467,,-0.00291378796101,0.644467413425,0.0336937755346,-0.763883531094
1506548371676473922,,351,,1506548371,675600051,0,,,-1066.47839355,237.713134766,251.031219482,,-0.00275465846062,0.645147681236,0.0335768982768,-0.763314962387
1506548371687337516,,352,,1506548371,686532974,0,,,-1066.53149414,237.694824219,250.562957764,,-0.00217409431934,0.646285414696,0.032645739615,-0.762394189835
1506548371710716058,,353,,1506548371,710032939,0,,,-1066.78283691,237.476318359,250.06690979,,-0.0019682943821,0.646754562855,0.0319715291262,-0.762025356293
1506548371734905693,,354,,1506548371,734066009,0,,,-1067.12329102,237.284423828,249.673110962,,-0.00188048183918,0.646482229233,0.0317860767245,-0.762264311314
1506548371747121526,,355,,1506548371,746473073,0,,,-1067.25598145,237.257324219,249.509292603,,-0.00165379047394,0.645924448967,0.0316303297877,-0.762744069099
1506548371765727307,,356,,1506548371,765167951,0,,,-1067.07263184,237.397460938,249.546401978,,-0.0013440400362,0.645579099655,0.0314501598477,-0.763044416904
1506548371785218557,,357,,1506548371,784607887,0,,,-1066.56896973,237.596679688,249.756774902,,-0.00151476264,0.645740270615,0.0316941738129,-0.76289755106
1506548371805139130,,358,,1506548371,804668903,0,,,-1066.07543945,237.633056641,250.007293701,,-0.00171980261803,0.646192550659,0.0319257006049,-0.762504577637
1506548371825555432,,359,,1506548371,824769973,0,,,-1065.90722656,237.595214844,250.185348511,,-0.00219401717186,0.646470308304,0.0326186940074,-0.762238502502
1506548371845927880,,360,,1506548371,844348907,0,,,-1066.0177002,237.373779297,250.277633667,,-0.00263836979866,0.646495163441,0.0332666859031,-0.762187957764
1506548371864564130,,361,,1506548371,864051103,0,,,-1066.28662109,237.307617188,250.238006592,,-0.00227570533752,0.646628201008,0.0341876149178,-0.762035489082
1506548371884834182,,362,,1506548371,883846998,0,,,-1066.91699219,237.303222656,250.014923096,,-0.000398471951485,0.64708930254,0.0349998623133,-0.761610388756
1506548371904351318,,363,,1506548371,903549909,0,,,-1068.36901855,237.498291016,249.938476562,,0.00117433071136,0.647354185581,0.0351923257113,-0.76137560606
1506548371926414078,,364,,1506548371,925944089,0,,,-1070.68225098,237.626953125,250.090209961,,0.000812098383904,0.647687554359,0.0341959744692,-0.761137962341
1506548371943599130,,365,,1506548371,942914962,0,,,-1073.82873535,237.742919922,250.438720703,,-0.00108605623245,0.648085057735,0.0333153754473,-0.760838150978
1506548371963433245,,366,,1506548371,962968111,0,,,-1077.57373047,237.819580078,250.945861816,,-0.00217604637146,0.648594260216,0.0334245860577,-0.760397076607
1506548371983155745,,367,,1506548371,982757091,0,,,-1081.62585449,237.909423828,251.641876221,,-0.00169640779495,0.64914727211,0.0352959781885,-0.759841620922
1506548372003012151,,368,,1506548372,2589941,0,,,-1086.10913086,238.039306641,252.481689453,,-0.00101305544376,0.64999973774,0.0377533435822,-0.75899541378
1506548372023445328,,369,,1506548372,22742986,0,,,-1091.43737793,238.207275391,253.156494141,,-0.000230342149734,0.650879204273,0.0387166962028,-0.758193433285
1506548372043681578,,370,,1506548372,42819023,0,,,-1098.14331055,238.430908203,253.743362427,,0.000200465321541,0.651899635792,0.0381282866001,-0.757346093655
1506548372064291995,,371,,1506548372,63076019,0,,,-1106.23754883,238.685546875,254.314666748,,-0.000806763768196,0.652755856514,0.0371492430568,-0.756656527519
1506548372084392255,,372,,1506548372,83161115,0,,,-1115.42675781,238.956542969,254.920394897,,-0.00172939896584,0.653893053532,0.0358393788338,-0.755735754967
1506548372103215432,,373,,1506548372,102030992,0,,,-1125.20605469,239.114013672,255.681060791,,-0.00267861783504,0.655055701733,0.0356732010841,-0.754733383656
1506548372127284391,,374,,1506548372,122500896,0,,,-1135.30444336,239.55859375,256.658599854,,-0.00270894169807,0.656328678131,0.0359629094601,-0.753612756729
1506548372141223766,,375,,1506548372,140739917,0,,,-1145.74182129,239.840087891,257.653320312,,-0.00223794579506,0.657719612122,0.0367125198245,-0.752364456654
1506548372161014443,,376,,1506548372,160567045,0,,,-1157.0065918,239.851806641,258.404846191,,-0.00189431011677,0.658985495567,0.0380832478404,-0.751188635826
