rosbagTimestamp,header,seq,stamp,secs,nsecs,frame_id,pose,position,x,y,z,orientation,x,y,z,w
1508259132444455798,,1,,1508259132,441334962,0,,,4228.40527344,248.772216797,285.134185791,,-0.00569415092468,0.573878884315,-0.0232282280922,-0.818590819836
1508259132461064027,,2,,1508259132,460134029,0,,,4230.90429688,242.706787109,283.522735596,,-0.0168249607086,0.580638766289,0.00113455951214,-0.81398665905
1508259132481194027,,3,,1508259132,480060100,0,,,4237.17382812,239.576660156,282.852081299,,-0.0050653219223,0.576648294926,0.0139341726899,-0.816857874393
1508259132500949548,,4,,1508259132,499898910,0,,,4245.97851562,235.627685547,283.832122803,,-0.00942730903625,0.576498985291,0.0189502239227,-0.816823601723
1508259132522339131,,5,,1508259132,519768953,0,,,4245.23974609,233.774658203,283.123321533,,0.0113669931889,0.602721273899,0.0404049158096,-0.796847224236
1508259132541615486,,6,,1508259132,539870023,0,,,4248.68017578,231.515380859,284.124176025,,0.0139233469963,0.602275133133,0.0443053469062,-0.796936631203
1508259132560202934,,7,,1508259132,559221982,0,,,4245.96875,229.363525391,281.366668701,,-0.0348052680492,0.577578723431,0.0218053981662,-0.815301120281
1508259132579950850,,8,,1508259132,578886032,0,,,4248.22216797,221.365478516,298.636932373,,0.0126875191927,0.627941846848,0.0468786582351,-0.776743531227
1508259132599900590,,9,,1508259132,598929882,0,,,4263.29541016,213.217041016,284.504974365,,0.0318409055471,0.640872955322,0.0921187996864,-0.761434316635
1508259132619548454,,10,,1508259132,618644952,0,,,4270.109375,208.031982422,276.928131104,,0.0230611115694,0.628315448761,0.119527302682,-0.768375515938
1508259132639529600,,11,,1508259132,638593912,0,,,4262.87548828,206.080566406,277.777130127,,0.0148919373751,0.617021203041,0.137407183647,-0.774714291096
1508259132660998090,,12,,1508259132,659497976,0,,,4268.08300781,208.346923828,280.026031494,,0.021241992712,0.624909937382,0.114286191761,-0.771994113922
1508259132680063558,,13,,1508259132,678314924,0,,,4280.53417969,205.242431641,276.973052979,,0.0131991803646,0.641832232475,0.11020385474,-0.758770346642
1508259132698934913,,14,,1508259132,698138952,0,,,4276.70410156,204.356933594,274.835540771,,0.0161724239588,0.639199674129,0.127129793167,-0.758287668228
1508259132719300329,,15,,1508259132,717873096,0,,,4271.734375,203.643310547,273.148101807,,0.00612369179726,0.640079557896,0.143787056208,-0.75470918417
1508259132748591475,,16,,1508259132,747354984,0,,,4268.00488281,202.192626953,281.523712158,,-0.0137665271759,0.608169794083,0.0914659127593,-0.78839969635
1508259132778036736,,17,,1508259132,771565914,0,,,4267.01513672,206.744873047,285.378326416,,-0.0362793505192,0.631097078323,0.0203133299947,-0.774588704109
1508259132781531006,,18,,1508259132,780057907,0,,,4284.02539062,203.094726562,283.520843506,,-0.0514570623636,0.635542213917,0.0369521677494,-0.769462704659
1508259132800102673,,19,,1508259132,798619985,0,,,4285.55224609,193.301757812,285.20614624,,-0.0897139310837,0.634271621704,0.0326312482357,-0.767193675041
1508259132819011215,,20,,1508259132,818120002,0,,,4291.5,194.065429688,285.624481201,,-0.0716315209866,0.596871852875,0.0932595953345,-0.793672204018
1508259132842510433,,21,,1508259132,837867021,0,,,4282.62646484,200.205810547,286.40145874,,-0.00666405260563,0.620857477188,0.0609533712268,-0.78152179718
1508259132861306996,,22,,1508259132,860177993,0,,,4267.67089844,205.307861328,284.904266357,,-0.0141391158104,0.628495693207,0.0705382376909,-0.774478912354
1508259132877429183,,23,,1508259132,876007080,0,,,4249.89599609,214.103027344,291.733551025,,-0.0205526053905,0.631970286369,0.0814967304468,-0.770421564579
1508259132910948923,,24,,1508259132,904678106,0,,,4245.58203125,222.186767578,285.82119751,,0.0185938477516,0.640182316303,0.125774174929,-0.757629036903
1508259132924129496,,25,,1508259132,922924995,0,,,4247.046875,217.321533203,278.250579834,,0.00298710167408,0.697989225388,0.0495956838131,-0.714382410049
1508259132937208506,,26,,1508259132,936146020,0,,,4245.03515625,216.4140625,281.599700928,,-0.00236234068871,0.707513570786,0.0146623775363,-0.706543624401
1508259132957489288,,27,,1508259132,956068038,0,,,4249.08984375,213.466796875,280.097076416,,0.00273466110229,0.70435321331,0.00840921700001,-0.709794580936
1508259132977340381,,28,,1508259132,976047039,0,,,4249.95996094,215.250976562,281.178497314,,-0.00165408849716,0.695570588112,0.0331574231386,-0.717690348625
1508259133000427256,,29,,1508259132,999207019,0,,,4248.75341797,214.376953125,282.830352783,,-0.0110917389393,0.690429091454,0.0433450192213,-0.722015142441
1508259133016537829,,30,,1508259133,15160083,0,,,4246.12353516,215.756347656,283.884918213,,-0.00417380034924,0.697598874569,0.0442984849215,-0.715105652809
1508259133036955642,,31,,1508259133,35542011,0,,,4273.26708984,200.784423828,289.148345947,,-0.0340830087662,0.626455843449,0.0451579838991,-0.777400910854
1508259133056413194,,32,,1508259133,54936885,0,,,4270.79101562,199.631591797,286.878692627,,-0.0682427585125,0.642043828964,0.0258370488882,-0.763187408447
1508259133075995485,,33,,1508259133,74803113,0,,,4282.16601562,199.948242188,284.98147583,,-0.0648251771927,0.621420025826,0.0579811930656,-0.778635382652
1508259133096186371,,34,,1508259133,94698905,0,,,4290.48095703,194.868896484,285.2628479,,-0.0809217393398,0.593219518661,0.063573718071,-0.798436462879
1508259133116577256,,35,,1508259133,115204095,0,,,4294.19482422,199.164306641,283.507537842,,-0.0286010205746,0.575313687325,0.0312152951956,-0.816836416721
1508259133136788037,,36,,1508259133,135262966,0,,,4281.74951172,202.962646484,280.36239624,,-0.0451022237539,0.577467024326,0.0553518980742,-0.813285768032
1508259133156290746,,37,,1508259133,154957056,0,,,4276.86279297,201.767822266,276.305084229,,-0.0537742525339,0.606048822403,0.0363832786679,-0.79277330637
1508259133175209860,,38,,1508259133,174026966,0,,,4289.51318359,197.046386719,286.513214111,,-0.0281807631254,0.631898403168,0.0448207333684,-0.773240685463
1508259133197386527,,39,,1508259133,196387052,0,,,4291.00488281,198.784423828,291.989105225,,0.0059280693531,0.619173586369,0.037242308259,-0.784348130226
1508259133214735381,,40,,1508259133,213656902,0,,,4280.40771484,197.194580078,288.4659729,,-0.0121811777353,0.607522845268,0.069615803659,-0.791151762009
1508259133234467829,,41,,1508259133,233454942,0,,,4277.30029297,197.579345703,282.394989014,,-0.0226880013943,0.626105904579,0.0631699189544,-0.776843726635
1508259133254364912,,42,,1508259133,253066062,0,,,4284.5546875,199.135253906,285.859039307,,-0.0276194363832,0.628266513348,0.0734652131796,-0.774029135704
1508259133278583037,,43,,1508259133,277396917,0,,,4274.26220703,198.877929688,287.855621338,,-0.0199059098959,0.613956272602,0.0922521278262,-0.783677816391
1508259133294715069,,44,,1508259133,293688058,0,,,4279.35058594,195.596679688,287.485565186,,-0.0566228032112,0.618881165981,0.0659337043762,-0.780661642551
1508259133313257777,,45,,1508259133,311539888,0,,,4289.04638672,192.335449219,289.582305908,,-0.083544164896,0.597036659718,0.0709630474448,-0.794689774513
1508259133333252308,,46,,1508259133,331693887,0,,,4281.38134766,193.271484375,284.686187744,,-0.0699556916952,0.579160571098,0.0754550546408,-0.808693885803
1508259133352543402,,47,,1508259133,351229906,0,,,4275.03076172,194.619384766,290.94821167,,-0.0651020854712,0.613153874874,0.102052569389,-0.780633985996
1508259133376501631,,48,,1508259133,370899915,0,,,4271.20751953,198.651123047,288.625213623,,-0.0321787893772,0.612636744976,0.0922923460603,-0.784297645092
1508259133395803767,,49,,1508259133,394118070,0,,,4271.63867188,202.926513672,284.761444092,,-0.0286960601807,0.608136296272,0.0766709148884,-0.789600074291
1508259133411976944,,50,,1508259133,410522937,0,,,4271.45410156,204.279541016,287.021820068,,-0.02047111094,0.631445467472,0.0817312672734,-0.77082914114
1508259133431546579,,51,,1508259133,430244922,0,,,4287.09570312,197.455078125,286.139678955,,-0.0646006017923,0.629135608673,0.0198631286621,-0.774351775646
1508259133451440069,,52,,1508259133,450174093,0,,,4275.77880859,200.749755859,282.79800415,,-0.0738732814789,0.646312534809,-0.0231827646494,-0.75913465023
1508259133471562777,,53,,1508259133,470088958,0,,,4270.75439453,207.184814453,282.113800049,,-0.0372495502234,0.648220539093,0.0228637680411,-0.760197222233
1508259133491030485,,54,,1508259133,489690065,0,,,4272.65429688,199.614013672,283.226654053,,0.00953242182732,0.627956688404,0.0973355546594,-0.772078573704
1508259133510837360,,55,,1508259133,509555101,0,,,4272.14208984,201.082275391,279.857818604,,-0.00128525495529,0.655943512917,0.0778614282608,-0.750782251358
1508259133530613350,,56,,1508259133,529314994,0,,,4283.21679688,199.970703125,282.662628174,,-0.0106292068958,0.625476002693,0.103142932057,-0.773322820663
1508259133551045850,,57,,1508259133,549245119,0,,,4278.50683594,202.87109375,277.613922119,,-0.00269216299057,0.645644366741,0.127361446619,-0.752937734127
1508259133571102673,,58,,1508259133,569596052,0,,,4273.29248047,205.452636719,281.527008057,,-0.00495037436485,0.633420705795,0.148663654923,-0.759376645088
1508259133590058975,,59,,1508259133,588896036,0,,,4259.32714844,207.902832031,276.232696533,,-0.00354884564877,0.627446353436,0.145917311311,-0.764857172966
1508259133609766631,,60,,1508259133,608468055,0,,,4264.70800781,206.172607422,274.516204834,,0.00739814341068,0.639090776443,0.157209515572,-0.752856850624
1508259133630032308,,61,,1508259133,628664970,0,,,4276.56542969,198.279541016,278.218719482,,-0.0442587137222,0.595572471619,0.0673992559314,-0.799244642258
1508259133650537881,,62,,1508259133,648916006,0,,,4294.20361328,185.139648438,288.750030518,,-0.0490934848785,0.657247364521,-0.00697024166584,-0.752041935921
1508259133673720537,,63,,1508259133,668437004,0,,,4305.32128906,177.724609375,294.18258667,,-0.0502283573151,0.632318854332,0.0265702605247,-0.772621512413
1508259133690065693,,64,,1508259133,688713073,0,,,4300.56396484,186.720214844,290.170501709,,-0.0579048246145,0.618895173073,0.0796510800719,-0.779276192188
1508259133711579860,,65,,1508259133,710670948,0,,,4291.15087891,191.467041016,285.002532959,,-0.0747650116682,0.625817537308,0.0896727740765,-0.771181821823
1508259133729228662,,66,,1508259133,728035926,0,,,4282.15039062,197.667724609,285.998016357,,-0.101708158851,0.607905507088,0.0931667909026,-0.781937539577
1508259133750029339,,67,,1508259133,747746944,0,,,4294.03759766,190.856445312,287.240753174,,-0.0940705835819,0.604001879692,0.0762486383319,-0.787729978561
1508259133768123298,,68,,1508259133,767267942,0,,,4290.44335938,194.959716797,287.502227783,,-0.0687663257122,0.613780856133,0.0607595145702,-0.784125208855
1508259133787520173,,69,,1508259133,786685943,0,,,4279.54101562,203.044433594,285.774932861,,-0.0530978888273,0.625665128231,0.0598716363311,-0.77597630024
1508259133807274652,,70,,1508259133,806334972,0,,,4262.81103516,206.994628906,283.549041748,,-0.0422711372375,0.604604542255,0.0968169793487,-0.789488971233
1508259133828452933,,71,,1508259133,827090978,0,,,4259.03027344,209.179931641,285.008209229,,-0.0319598168135,0.601760268211,0.0832173451781,-0.793686330318
1508259133847626943,,72,,1508259133,846442937,0,,,4262.80957031,205.67578125,285.314483643,,-0.0416332930326,0.603782474995,0.0851806178689,-0.791490793228
1508259133867719391,,73,,1508259133,866180896,0,,,4267.46777344,203.441162109,279.091033936,,-0.0463233590126,0.66128963232,0.0173106268048,-0.748498737812
1508259133887635589,,74,,1508259133,886301040,0,,,4291.07324219,197.797119141,284.972747803,,-0.062334433198,0.618093371391,0.0335155799985,-0.782912194729
1508259133907479287,,75,,1508259133,905782938,0,,,4306.453125,193.074707031,290.185150146,,-0.0637344866991,0.610383033752,0.0677464455366,-0.786626219749
1508259133926390954,,76,,1508259133,925137996,0,,,4305.60253906,187.634521484,290.016082764,,-0.0815779715776,0.607998371124,0.0961425080895,-0.783862054348
1508259133946654756,,77,,1508259133,945369005,0,,,4310.63623047,184.652099609,290.2918396,,-0.0720734894276,0.597631454468,0.077631726861,-0.79474234581
1508259133966608923,,78,,1508259133,965035915,0,,,4321.75390625,182.364501953,289.900299072,,-0.0565955340862,0.58108484745,0.050305724144,-0.81031280756
1508259133987111162,,79,,1508259133,985975980,0,,,4329.07324219,180.930419922,289.040435791,,-0.0605616867542,0.57976269722,0.0358865261078,-0.811738669872
1508259134006191995,,80,,1508259134,5040884,0,,,4328.71533203,182.349853516,290.22769165,,-0.0651213377714,0.572310805321,0.0436926335096,-0.816278457642
1508259134025838454,,81,,1508259134,24694919,0,,,4301.18212891,194.837158203,285.763946533,,-0.0179606825113,0.655685484409,0.0805816799402,-0.750506877899
1508259134045457933,,82,,1508259134,44275045,0,,,4290.68017578,192.721435547,284.988922119,,-0.0410791039467,0.650729417801,0.0125453621149,-0.758093953133
1508259134067889704,,83,,1508259134,65567016,0,,,4283.24853516,203.228027344,284.385955811,,-0.0388484448195,0.629478216171,0.00394465774298,-0.776036322117
1508259134086954912,,84,,1508259134,84731101,0,,,4280.04003906,204.538330078,281.822601318,,-0.0240267217159,0.614080131054,0.0485028252006,-0.78738540411
1508259134104549131,,85,,1508259134,103411912,0,,,4283.69824219,208.175048828,279.923431396,,0.014301687479,0.629693627357,0.0967893153429,-0.770657718182
1508259134124320329,,86,,1508259134,123089075,0,,,4282.38720703,204.368408203,272.240875244,,0.0218161642551,0.670025169849,0.1128834337,-0.733380973339
1508259134143969912,,87,,1508259134,142769098,0,,,4272.21240234,204.744384766,276.364837646,,-0.00546665489674,0.712644219398,0.0251102298498,-0.701054871082
1508259134172300693,,88,,1508259134,171130895,0,,,4286.33984375,191.227294922,295.186920166,,-0.0560022443533,0.603690326214,0.0696365013719,-0.792194724083
1508259134190882672,,89,,1508259134,189774990,0,,,4299.21533203,183.364501953,292.661407471,,-0.0596336275339,0.621460080147,0.0671876519918,-0.778278231621
1508259134207132777,,90,,1508259134,202522039,0,,,4302.42626953,183.939453125,288.962860107,,-0.0507313609123,0.634959757328,0.0699854940176,-0.767694234848
1508259134222539079,,91,,1508259134,221625089,0,,,4295.66796875,198.797119141,281.314422607,,-0.0445056706667,0.629992842674,0.0212413445115,-0.775033593178
1508259134243572672,,92,,1508259134,242223024,0,,,4286.265625,209.318847656,277.533416748,,-0.000118494033813,0.624271810055,0.0814722031355,-0.776947200298
1508259134262473245,,93,,1508259134,261298894,0,,,4281.71777344,209.898193359,274.144989014,,0.0369479954243,0.68094933033,0.149490326643,-0.715957760811
1508259134282337464,,94,,1508259134,281186103,0,,,4281.59863281,202.821289062,278.589813232,,-0.00484608113766,0.68627512455,0.0396067872643,-0.726246714592
1508259134302887464,,95,,1508259134,301320075,0,,,4289.25292969,195.840576172,290.16494751,,-0.0248630940914,0.621894001961,0.023532897234,-0.782352805138
1508259134323605849,,96,,1508259134,321343898,0,,,4292.62011719,198.238525391,292.571380615,,-0.00619624555111,0.613566160202,0.0358676016331,-0.788803935051
1508259134344537412,,97,,1508259134,343108892,0,,,4290.828125,194.575439453,282.464263916,,-0.00577884912491,0.639295637608,0.0960700809956,-0.76291435957
1508259134362273974,,98,,1508259134,360975980,0,,,4277.10742188,198.469970703,277.215545654,,0.00261087715626,0.645913779736,0.0764916390181,-0.759564042091
1508259134381057099,,99,,1508259134,380028009,0,,,4277.69384766,202.172119141,282.18637085,,0.00326678156853,0.634590446949,0.0866731703281,-0.767966151237
1508259134403554495,,100,,1508259134,399718999,0,,,4285.10644531,197.718994141,289.13369751,,-0.011948749423,0.611677229404,0.061552092433,-0.788618683815
1508259134420905745,,101,,1508259134,419821023,0,,,4289.51660156,197.175537109,283.526947021,,0.00446769595146,0.630039215088,0.0440924838185,-0.775297641754
1508259134440903558,,102,,1508259134,439630031,0,,,4293.23095703,195.386230469,281.869110107,,-0.00722241401672,0.613040089607,0.0274740159512,-0.789540827274
1508259134462453297,,103,,1508259134,460108995,0,,,4301.33300781,196.697021484,284.352325439,,-0.0202905237675,0.607168853283,0.0291220992804,-0.793779611588
1508259134481481266,,104,,1508259134,479620933,0,,,4293.17675781,202.775878906,277.993438721,,-0.0210919976234,0.591519773006,0.0274782180786,-0.805546045303
1508259134500584027,,105,,1508259134,499229907,0,,,4278.06591797,207.126708984,276.894744873,,-0.035820543766,0.640993237495,-0.0156344696879,-0.766550779343
1508259134520898089,,106,,1508259134,519323110,0,,,4264.359375,213.326416016,279.644866943,,-0.0211906582117,0.627816796303,0.0381700322032,-0.777135789394
1508259134541035797,,107,,1508259134,539027929,0,,,4283.99072266,197.605957031,284.115447998,,-0.037659779191,0.598432719707,0.0427233800292,-0.799146294594
1508259134560502099,,108,,1508259134,558892011,0,,,4289.38769531,196.758056641,288.081207275,,-0.0195818394423,0.644087433815,0.0635732337832,-0.762053966522
1508259134580662151,,109,,1508259134,579155921,0,,,4280.37744141,202.885253906,283.969696045,,-0.00349605083466,0.665097355843,0.0514191314578,-0.744976043701
1508259134600431579,,110,,1508259134,599288940,0,,,4282.54492188,201.109619141,281.510894775,,0.00364892184734,0.636638641357,0.0946160852909,-0.765327215195
1508259134619488870,,111,,1508259134,618451118,0,,,4286.35644531,201.196289062,278.20803833,,0.0198315829039,0.64721673727,0.108338020742,-0.754307746887
1508259134639259443,,112,,1508259134,638037919,0,,,4285.81689453,192.292236328,286.527008057,,-0.0299855768681,0.612406492233,0.0617548376322,-0.787556648254
1508259134659502724,,113,,1508259134,658071994,0,,,4293.64648438,195.980712891,285.215423584,,-0.0319997370243,0.608318924904,0.0454413890839,-0.791744410992
1508259134678706266,,114,,1508259134,677992105,0,,,4309.08154297,192.901123047,287.525543213,,-0.0383638441563,0.62515437603,0.0174929276109,-0.779361307621
1508259134698634391,,115,,1508259134,697406053,0,,,4303.72412109,196.163085938,284.542816162,,-0.0477960556746,0.618475139141,0.0204619690776,-0.784082531929
1508259134717181995,,116,,1508259134,716262102,0,,,4294.875,199.703857422,283.623321533,,-0.0377875417471,0.620073020458,0.0176951736212,-0.783433675766
1508259134737200016,,117,,1508259134,736273050,0,,,4286.015625,202.888916016,282.136444092,,-0.020388007164,0.623242378235,0.0331077799201,-0.781061530113
1508259134761692464,,118,,1508259134,757540941,0,,,4278.671875,205.055664062,277.907928467,,-0.0270338356495,0.607624769211,0.0589999333024,-0.791568279266
1508259134778172516,,119,,1508259134,776576995,0,,,4277.49462891,203.307373047,277.626739502,,-0.0265166163445,0.606076598167,0.0408021956682,-0.793916463852
1508259134798011162,,120,,1508259134,796286106,0,,,4277.49853516,200.478271484,291.121551514,,-0.0284984707832,0.621942043304,0.0510465204716,-0.780877768993
1508259134818029026,,121,,1508259134,816241025,0,,,4281.86621094,199.131835938,288.642608643,,-0.00205805897713,0.606435835361,0.0754054412246,-0.791546106339
1508259134838348766,,122,,1508259134,836133003,0,,,4276.35595703,198.212402344,278.562652588,,0.00939612090588,0.638901233673,0.103447638452,-0.762243747711
1508259134859167256,,123,,1508259134,856669902,0,,,4273.96044922,197.895996094,280.945587158,,-0.00327859818935,0.635172009468,0.0721850544214,-0.768983125687
1508259134878193453,,124,,1508259134,876395940,0,,,4285.02050781,198.398925781,282.998199463,,-0.0144070386887,0.616226911545,0.0675736442208,-0.784532189369
1508259134897902672,,125,,1508259134,895561933,0,,,4285.68994141,196.856689453,284.553131104,,-0.010677754879,0.644880473614,0.0644351765513,-0.761487483978
1508259134917861995,,126,,1508259134,915791034,0,,,4278.42138672,196.591796875,281.897125244,,0.00122074782848,0.636311233044,0.0578872710466,-0.769256472588
1508259134937928558,,127,,1508259134,935343027,0,,,4274.265625,196.411865234,283.042022705,,-0.0151869058609,0.645452857018,0.0416894108057,-0.762510240078
1508259134956959235,,128,,1508259134,955477952,0,,,4277.04101562,199.702392578,286.843231201,,-0.0352073758841,0.607414245605,0.0777455866337,-0.78978729248
1508259134977263141,,129,,1508259134,975459098,0,,,4276.84521484,196.389404297,285.117584229,,-0.0516475737095,0.61198580265,0.0538692548871,-0.787339746952
1508259134996102620,,130,,1508259134,994617938,0,,,4264.53125,206.173339844,280.078094482,,-0.0486317425966,0.655563116074,0.0045673251152,-0.75355899334
1508259135016194547,,131,,1508259135,15038967,0,,,4255.4140625,211.872558594,294.978546143,,0.000901445746422,0.63632029295,0.0858053639531,-0.76663762331
1508259135037076578,,132,,1508259135,35645961,0,,,4273.09082031,208.825439453,285.085906982,,0.0257115364075,0.648112535477,0.112942576408,-0.752683877945
1508259135056516214,,133,,1508259135,55119991,0,,,4277.94726562,197.775146484,283.958404541,,-0.0235345363617,0.625250577927,0.0855317115784,-0.775365710258
1508259135086063714,,134,,1508259135,83123922,0,,,4279.40527344,190.823486328,282.109283447,,-0.0190318375826,0.614579916,0.0466432496905,-0.787244319916
1508259135100104078,,135,,1508259135,99226951,0,,,4283.24072266,199.206787109,281.320526123,,-0.028882458806,0.601943612099,0.0356202721596,-0.79722070694
1508259135118327203,,136,,1508259135,116489887,0,,,4270.36181641,208.763427734,284.606719971,,-0.0229270011187,0.617448747158,0.00261017680168,-0.786272644997
1508259135134433974,,137,,1508259135,133738994,0,,,4263.44189453,210.515136719,282.922576904,,-0.0318892896175,0.613960266113,0.0548765659332,-0.786781013012
1508259135152202151,,138,,1508259135,151400089,0,,,4256.30273438,209.744140625,288.266937256,,-0.0184831470251,0.648783922195,0.0699801519513,-0.757522583008
1508259135172042724,,139,,1508259135,171283960,0,,,4271.43115234,202.786865234,286.222686768,,0.0232067704201,0.627584695816,0.0716698244214,-0.774894952774
1508259135194494807,,140,,1508259135,191915035,0,,,4267.94677734,204.860839844,283.814178467,,0.0175156593323,0.621563673019,0.0924116298556,-0.777696490288
1508259135217342620,,141,,1508259135,215276002,0,,,4264.23388672,205.416748047,282.00869751,,-0.0131699591875,0.625097572803,0.0915496125817,-0.775047361851
1508259135232758193,,142,,1508259135,231465101,0,,,4265.44189453,210.886230469,280.541412354,,0.013189047575,0.65777772665,0.126479536295,-0.742399811745
1508259135252540485,,143,,1508259135,251329898,0,,,4274.73779297,201.557861328,296.864959717,,-0.0364028960466,0.618641853333,0.054873265326,-0.782908678055
1508259135272081214,,144,,1508259135,270869016,0,,,4295.65625,190.741210938,289.814666748,,-0.0441057235003,0.621048212051,0.0526032298803,-0.780760288239
1508259135291900901,,145,,1508259135,290707111,0,,,4298.59179688,189.970947266,284.482574463,,-0.0276294350624,0.648779213428,0.0500824600458,-0.758824050426
1508259135311919860,,146,,1508259135,310539960,0,,,4296.31689453,191.430908203,281.841339111,,-0.0272468626499,0.599701583385,0.0648961141706,-0.797122478485
1508259135331690693,,147,,1508259135,330133914,0,,,4276.76416016,202.257324219,284.037689209,,-0.0341277718544,0.578592598438,0.0555528253317,-0.813006579876
1508259135351290901,,148,,1508259135,350054979,0,,,4257.00585938,211.676269531,283.727142334,,-0.0444219708443,0.597113192081,0.0754220709205,-0.797366917133
1508259135376153453,,149,,1508259135,374964952,0,,,4250.93896484,215.182861328,283.800018311,,-0.0253766328096,0.632594227791,0.0750817433,-0.770417690277
1508259135391757412,,150,,1508259135,390377044,0,,,4253.57324219,214.588378906,286.707611084,,-0.0191263705492,0.618462920189,0.0373870208859,-0.784690856934
1508259135411190641,,151,,1508259135,410008907,0,,,4269.93505859,204.501708984,283.570709229,,-0.0148546099663,0.609205126762,0.011207215488,-0.792794406414
1508259135431761943,,152,,1508259135,430380105,0,,,4280.52148438,202.269287109,288.497711182,,-0.0317040234804,0.626067280769,0.0315284729004,-0.778486073017
1508259135457446214,,153,,1508259135,456073999,0,,,4281.28076172,203.418701172,291.39175415,,-0.0109876096249,0.630460619926,0.0515081360936,-0.774432420731
1508259135471971422,,154,,1508259135,470751047,0,,,4271.56396484,197.961669922,288.589019775,,-0.0112891495228,0.622282505035,0.0833144783974,-0.778264522552
1508259135491625537,,155,,1508259135,490125894,0,,,4259.22216797,201.564941406,287.484466553,,-0.0160994678736,0.638226687908,0.0754476040602,-0.765973269939
1508259135514702932,,156,,1508259135,510045051,0,,,4277.71923828,196.067626953,290.024017334,,-0.0266346633434,0.608455717564,0.0605468526483,-0.790826320648
1508259135529857880,,157,,1508259135,528537988,0,,,4281.85449219,197.689208984,286.814422607,,-0.030633226037,0.633230984211,0.0400584340096,-0.772318184376
1508259135551185745,,158,,1508259135,549918889,0,,,4277.01269531,198.358154297,284.400970459,,-0.0249314904213,0.62661242485,0.0550127699971,-0.776986956596
1508259135576052307,,159,,1508259135,574935913,0,,,4276.98193359,202.492675781,286.77041626,,-0.0394373685122,0.635626018047,0.026861295104,-0.77052116394
1508259135590000849,,160,,1508259135,588520050,0,,,4279.95019531,200.759033203,286.380950928,,-0.0312569886446,0.612246334553,0.0568425580859,-0.788001537323
1508259135618728401,,161,,1508259135,617135047,0,,,4278.02978516,198.538818359,283.207611084,,-0.0337243080139,0.616436362267,0.0457707867026,-0.785349667072
1508259135633491995,,162,,1508259135,631411075,0,,,4277.08349609,197.861572266,284.977325439,,-0.0230571180582,0.656529724598,0.0375377237797,-0.753012537956
1508259135655343505,,163,,1508259135,653944969,0,,,4278.52539062,198.780517578,291.527313232,,-0.0165187865496,0.646932065487,0.0579706728458,-0.760161459446
1508259135668337932,,164,,1508259135,667635917,0,,,4279.29541016,201.527832031,292.073883057,,-0.0166808217764,0.635866940022,0.0685951337218,-0.768563449383
1508259135693539859,,165,,1508259135,692029953,0,,,4284.13623047,194.037841797,289.472686768,,-0.0403074026108,0.641896605492,0.0337479114532,-0.764986991882
1508259135707209078,,166,,1508259135,706290006,0,,,4298.58007812,184.136962891,287.906585693,,-0.0736900120974,0.622608065605,0.0215111672878,-0.778759360313
1508259135727198661,,167,,1508259135,726138114,0,,,4316.11230469,181.620849609,286.159576416,,-0.0803546607494,0.608771145344,0.0455313175917,-0.787951529026
1508259135747142724,,168,,1508259135,746048927,0,,,4314.19433594,183.293945312,288.339752197,,-0.0847551673651,0.601473212242,0.0667651370168,-0.79157358408
1508259135767222203,,169,,1508259135,765949964,0,,,4303.78125,185.767333984,287.617767334,,-0.0714849829674,0.618084132671,0.0585831403732,-0.780659914017
1508259135787516943,,170,,1508259135,786020040,0,,,4293.88183594,189.486572266,288.060028076,,-0.0697268694639,0.626128733158,0.0571639090776,-0.774488985538
1508259135812534911,,171,,1508259135,811510086,0,,,4288.88037109,199.095458984,282.738006592,,0.00541573762894,0.636520028114,0.109840787947,-0.763379275799
1508259135831364859,,172,,1508259135,828226089,0,,,4283.06201172,201.897705078,279.607025146,,0.0245567411184,0.658679664135,0.12844131887,-0.740972876549
1508259135845744599,,173,,1508259135,844497919,0,,,4273.42089844,201.706787109,277.943023682,,-0.010921344161,0.660609662533,0.0785285234451,-0.746531307697
1508259135870194391,,174,,1508259135,868345975,0,,,4274.94970703,202.181640625,279.608062744,,-0.0380143970251,0.618461072445,0.0628976300359,-0.782371282578
1508259135884623088,,175,,1508259135,884017944,0,,,4268.13769531,207.716064453,280.205780029,,-0.0385758876801,0.610894083977,0.0509232133627,-0.789130568504
1508259135904085693,,176,,1508259135,903593063,0,,,4258.06982422,211.623535156,284.423309326,,-0.0441855341196,0.602959871292,0.0948856770992,-0.790875315666
1508259135925102880,,177,,1508259135,924109935,0,,,4253.51904297,206.354736328,290.990814209,,-0.0179463624954,0.62904715538,0.0987987592816,-0.770854353905
1508259135943662984,,178,,1508259135,943336963,0,,,4252.12109375,209.822021484,295.538604736,,0.0071666687727,0.614522755146,0.0667109712958,-0.786040723324
1508259135963050328,,179,,1508259135,962677001,0,,,4263.71582031,209.140869141,282.087799072,,0.00250767171383,0.635043978691,0.0642777010798,-0.769792914391
1508259135982911682,,180,,1508259135,982558965,0,,,4273.05322266,199.510742188,279.125396729,,-0.0507266521454,0.630168437958,0.0452104732394,-0.77347946167
1508259136002657568,,181,,1508259136,2320051,0,,,4285.59326172,197.234619141,284.067230225,,-0.045971930027,0.635069847107,0.029372997582,-0.770525813103
1508259136022708141,,182,,1508259136,22336006,0,,,4286.11572266,197.489746094,277.810760498,,-0.0324328243732,0.613850474358,0.0480633974075,-0.787290155888
1508259136043369755,,183,,1508259136,43041944,0,,,4299.35644531,188.001708984,288.145721436,,-0.0619245320559,0.619250178337,0.0378222614527,-0.781833827496
1508259136063402359,,184,,1508259136,62823057,0,,,4293.56103516,192.524902344,292.500396729,,-0.084005638957,0.595377862453,0.0882303416729,-0.794156014919
1508259136082910484,,185,,1508259136,82531929,0,,,4279.61621094,187.426025391,296.459747314,,-0.0649715811014,0.606060087681,0.139424920082,-0.780404090881
1508259136101547255,,186,,1508259136,101191043,0,,,4278.49609375,196.868652344,288.346343994,,-0.00990669429302,0.633518338203,0.161410421133,-0.756639301777
1508259136121673245,,187,,1508259136,121294975,0,,,4263.02734375,210.068603516,279.503082275,,0.0112866014242,0.649229645729,0.206618607044,-0.731903135777
1508259136141282411,,188,,1508259136,140938043,0,,,4234.21435547,211.430908203,272.505218506,,0.0071152150631,0.649986982346,0.1902230829,-0.735718369484
1508259136165518245,,189,,1508259136,164300918,0,,,4227.53271484,208.924072266,277.4347229,,0.0066561549902,0.641099095345,0.176914900541,-0.746758818626
1508259136187638245,,190,,1508259136,187160015,0,,,4220.1015625,202.229003906,276.364776611,,0.0154554545879,0.620347321033,0.155720993876,-0.768557965755
1508259136200771786,,191,,1508259136,200278997,0,,,4215.71435547,203.021728516,278.726715088,,0.00297863781452,0.63017308712,0.159276425838,-0.75993680954
1508259136220662515,,192,,1508259136,220120906,0,,,4211.05273438,203.883056641,281.643096924,,0.00385665893555,0.631321430206,0.166243031621,-0.757483780384
1508259136240165380,,193,,1508259136,239762067,0,,,4212.98144531,199.813232422,282.930877686,,-0.00670276582241,0.632752776146,0.195374518633,-0.749271452427
1508259136260070693,,194,,1508259136,259632110,0,,,4192.21386719,198.781738281,275.921478271,,0.00973118841648,0.633635401726,0.155142724514,-0.75785368681
1508259136280058453,,195,,1508259136,279531955,0,,,4186.53417969,203.608642578,282.30557251,,0.013863325119,0.645792126656,0.107959724963,-0.755714893341
1508259136299516213,,196,,1508259136,299146890,0,,,4177.21972656,199.96875,291.982147217,,-0.0194612592459,0.630543172359,0.0480648130178,-0.774420022964
1508259136319343401,,197,,1508259136,318969964,0,,,4152.76416016,202.925048828,292.986602783,,-0.0309107601643,0.616161942482,0.0655914917588,-0.784274697304
1508259136339949859,,198,,1508259136,339481115,0,,,4138.29980469,196.677978516,288.371124268,,-0.0326087921858,0.657843470573,0.0751909390092,-0.748682141304
1508259136359259234,,199,,1508259136,358850002,0,,,4120.82617188,200.838378906,286.338226318,,-0.00662261247635,0.630276024342,0.102785855532,-0.769508481026
1508259136378725640,,200,,1508259136,378278017,0,,,4091.4921875,210.469482422,285.136260986,,0.0251951515675,0.618770778179,0.105605736375,-0.778032958508
1508259136398460328,,201,,1508259136,398092985,0,,,4057.2734375,216.529785156,285.203338623,,0.024406760931,0.635461390018,0.114364936948,-0.763225913048
1508259136418207620,,202,,1508259136,417793989,0,,,4026.84130859,222.770263672,289.001190186,,0.034817174077,0.636734247208,0.10141595453,-0.763591527939
1508259136438193401,,203,,1508259136,437746047,0,,,4021.296875,216.104736328,286.229034424,,0.0245368331671,0.634547948837,0.107624441385,-0.764960050583
1508259136458196682,,204,,1508259136,457689046,0,,,4030.90332031,201.826904297,281.838348389,,0.00411757826805,0.638106644154,0.124895051122,-0.759739458561
1508259136478880276,,205,,1508259136,478482961,0,,,4022.12402344,195.800537109,282.308135986,,-0.0114467889071,0.640763819218,0.109341852367,-0.759825766087
1508259136497500067,,206,,1508259136,497123956,0,,,4005.06103516,192.697753906,281.6199646,,-0.0180261731148,0.636643886566,0.0606592223048,-0.768557071686
1508259136517122463,,207,,1508259136,516763925,0,,,3989.66259766,198.519042969,281.56741333,,-0.00746241211891,0.677270650864,0.0414069741964,-0.734529852867
1508259136538974234,,208,,1508259136,538362026,0,,,3965.46728516,201.332519531,284.240020752,,-0.0128062069416,0.675062358379,0.0333961993456,-0.736893117428
1508259136557299390,,209,,1508259136,556677103,0,,,3953.06298828,199.085449219,289.038482666,,-0.023250490427,0.644082009792,0.0566546842456,-0.762501239777
1508259136579005224,,210,,1508259136,577706098,0,,,3941.06494141,199.866210938,280.741668701,,-0.00402250885963,0.631187438965,0.116117544472,-0.766878604889
1508259136599855953,,211,,1508259136,598364114,0,,,3926.36865234,201.250244141,282.169525146,,0.00610353052616,0.648693025112,0.108141303062,-0.7533031106
1508259136621405901,,212,,1508259136,620635986,0,,,3914.75732422,189.019287109,293.352813721,,-0.0443636626005,0.602976560593,0.0959168896079,-0.790728271008
1508259136639071265,,213,,1508259136,637521982,0,,,3898.62841797,193.3046875,292.49899292,,-0.045158624649,0.613114714622,0.1162135005,-0.780093312263
1508259136658886057,,214,,1508259136,656240940,0,,,3902.09423828,183.451904297,295.595489502,,-0.0467789620161,0.603754639626,0.0785614401102,-0.791909217834
1508259136675894755,,215,,1508259136,675375938,0,,,3883.64501953,192.269042969,292.036956787,,-0.0131096541882,0.594376087189,0.0588901564479,-0.801920950413
1508259136697351422,,216,,1508259136,696888923,0,,,3870.86035156,193.804931641,296.265594482,,-0.0386606901884,0.603095114231,0.0669555515051,-0.79391336441
1508259136715162255,,217,,1508259136,714781999,0,,,3855.7734375,193.659179688,292.213897705,,-0.0400791615248,0.602769732475,0.0831081196666,-0.792562484741
1508259136735072932,,218,,1508259136,734606027,0,,,3842.46826172,192.701416016,296.203338623,,-0.0373645573854,0.611772418022,0.0641335397959,-0.787543833256
1508259136754846942,,219,,1508259136,754368066,0,,,3824.86474609,191.266113281,291.952606201,,-0.0185022354126,0.59454703331,0.0782305821776,-0.800032317638
1508259136774589286,,220,,1508259136,774179935,0,,,3816.94042969,189.282470703,297.445770264,,-0.05841755867,0.600097835064,0.0883104205132,-0.792887926102
1508259136797378453,,221,,1508259136,793899059,0,,,3805.62646484,192.328369141,293.654815674,,-0.0398739725351,0.590258300304,0.100661203265,-0.799920320511
1508259136814289963,,222,,1508259136,813848972,0,,,3790.29541016,196.890869141,294.953155518,,-0.0257160365582,0.611732184887,0.0704058036208,-0.787505924702
1508259136833852880,,223,,1508259136,833493947,0,,,3772.07226562,195.188720703,294.683868408,,-0.0134005844593,0.597024857998,0.0638687387109,-0.799564003944
1508259136853764859,,224,,1508259136,853362083,0,,,3757.30908203,199.951660156,296.909942627,,-0.025632455945,0.596398890018,0.0789139792323,-0.798388361931
1508259136873512203,,225,,1508259136,873159885,0,,,3747.44042969,203.422363281,298.688079834,,-0.024896517396,0.614065945148,0.0573732182384,-0.786772847176
1508259136893270276,,226,,1508259136,892858982,0,,,3737.06005859,201.886230469,298.157867432,,-0.037798166275,0.61635863781,0.0596645027399,-0.784291625023
1508259136914510015,,227,,1508259136,912925004,0,,,3728.62646484,201.541992188,297.188018799,,-0.0240267664194,0.588598608971,0.0647269040346,-0.805471777916
1508259136934316265,,228,,1508259136,933928012,0,,,3724.15283203,199.283447266,293.531707764,,-0.0234476029873,0.583505690098,0.0626435801387,-0.809349656105
1508259136954623609,,229,,1508259136,954181909,0,,,3710.94677734,200.064208984,295.160980225,,-0.00711241364479,0.591224193573,0.0587019473314,-0.804336667061
1508259136972412463,,230,,1508259136,971967935,0,,,3697.97167969,200.412353516,295.744598389,,-0.0193543285131,0.597509562969,0.0802266970277,-0.797603487968
1508259136992106786,,231,,1508259136,991750955,0,,,3702.70751953,202.147949219,296.055877686,,-0.0241446048021,0.597426533699,0.0837276354432,-0.797175228596
1508259137012089338,,232,,1508259137,11599063,0,,,3696.5390625,202.057861328,298.88394165,,-0.0178079903126,0.592633605003,0.0642168298364,-0.802710771561
1508259137032103921,,233,,1508259137,31503915,0,,,3679.43945312,198.436767578,290.34085083,,0.00629781186581,0.617139518261,0.0736876726151,-0.783370435238
1508259137051615119,,234,,1508259137,51177978,0,,,3666.24316406,196.769775391,290.238555908,,0.0138662457466,0.585701465607,0.056413538754,-0.808442413807
1508259137071594390,,235,,1508259137,71050882,0,,,3666.52294922,199.516113281,295.175018311,,-0.0118658542633,0.579638719559,0.0761613100767,-0.81121981144
1508259137095900796,,236,,1508259137,95316886,0,,,3658.35107422,205.102050781,299.678985596,,-0.0140023082495,0.599249064922,0.0683366730809,-0.797517776489
1508259137111804755,,237,,1508259137,111205101,0,,,3649.22607422,204.476806641,293.151947021,,0.00267075002193,0.612750530243,0.0950086042285,-0.784539997578
1508259137131482411,,238,,1508259137,130886077,0,,,3645.08544922,202.642822266,296.096282959,,-0.00412110984325,0.598637700081,0.0896378830075,-0.795977950096
1508259137153137984,,239,,1508259137,152615070,0,,,3640.72363281,201.174072266,293.960113525,,0.000728353857994,0.59478867054,0.0935182347894,-0.798423647881
1508259137170827307,,240,,1508259137,170264959,0,,,3628.29150391,199.94140625,295.21975708,,-0.0153640210629,0.583975791931,0.0735392421484,-0.808287262917
1508259137191040588,,241,,1508259137,190680027,0,,,3623.52685547,205.085693359,294.560211182,,-0.0142011195421,0.622894108295,0.0662117674947,-0.779369831085
1508259137210031161,,242,,1508259137,209650993,0,,,3621.48779297,204.779052734,293.381988525,,-0.00896428525448,0.609063982964,0.0901328101754,-0.787932038307
1508259137231432619,,243,,1508259137,230950117,0,,,3621.78466797,205.128662109,296.286834717,,-0.00778412818909,0.61067545414,0.0595484301448,-0.789600372314
1508259137249884963,,244,,1508259137,249310016,0,,,3610.13623047,200.416992188,294.641448975,,-0.0102191567421,0.586599588394,0.0612396001816,-0.807493805885
1508259137271983036,,245,,1508259137,270893096,0,,,3605.26904297,204.522949219,292.585174561,,-0.00846953690052,0.613477945328,0.0795452818274,-0.785649895668
1508259137290249078,,246,,1508259137,289669036,0,,,3606.36181641,204.537353516,292.600982666,,-0.0120654553175,0.617255091667,0.0803276374936,-0.782558679581
1508259137309143348,,247,,1508259137,308655977,0,,,3603.69580078,204.550537109,297.076629639,,-0.0117644071579,0.61505907774,0.0626803785563,-0.785897672176
1508259137329485223,,248,,1508259137,329098939,0,,,3597.82373047,201.279541016,294.122406006,,-0.00951471924782,0.591090619564,0.0526403561234,-0.804829418659
1508259137353938296,,249,,1508259137,350418090,0,,,3596.79980469,202.432128906,292.544036865,,-0.0104324966669,0.606329321861,0.0640290677547,-0.792563021183
1508259137373012671,,250,,1508259137,371774911,0,,,3595.27539062,204.109130859,294.912567139,,-0.00182062387466,0.610980153084,0.0444153994322,-0.790396690369
1508259137389009546,,251,,1508259137,388277053,0,,,3593.56787109,200.391845703,292.095306396,,0.0067475438118,0.599523484707,0.0508894771338,-0.798709154129
1508259137409641317,,252,,1508259137,409035921,0,,,3589.67041016,203.248046875,293.502105713,,-0.0024551153183,0.595263540745,0.0689848288894,-0.800560116768
1508259137427852723,,253,,1508259137,427278041,0,,,3589.43701172,205.340332031,292.502288818,,-0.0109926909208,0.600335240364,0.0703145042062,-0.796575546265
1508259137447873505,,254,,1508259137,447434902,0,,,3588.87548828,207.700683594,297.620819092,,-0.011099383235,0.617867350578,0.0605494007468,-0.783868849277
1508259137470295536,,255,,1508259137,468101978,0,,,3589.53710938,202.238037109,293.454864502,,-0.000544518232346,0.600322008133,0.0663935095072,-0.79699754715
1508259137487891109,,256,,1508259137,486848115,0,,,3585.93701172,203.315185547,296.488800049,,-0.0044139623642,0.589313864708,0.0765595510602,-0.80425632
1508259137509040380,,257,,1508259137,507503032,0,,,3583.42333984,206.680908203,293.39553833,,0.00428047776222,0.599206984043,0.061668343842,-0.79820394516
1508259137527223244,,258,,1508259137,526865005,0,,,3577.23095703,204.9921875,293.806915283,,0.0219629257917,0.616431057453,0.0591798499227,-0.784874558449
1508259137546595848,,259,,1508259137,546255111,0,,,3582.37207031,197.461425781,298.745147705,,0.0126976370811,0.588325917721,0.0500786602497,-0.806971907616
1508259137568504025,,260,,1508259137,568098068,0,,,3581.46435547,199.419921875,295.582061768,,0.0049704015255,0.588700413704,0.087451942265,-0.803591489792
1508259137587273400,,261,,1508259137,586859941,0,,,3569.90087891,202.389648438,294.264556885,,0.0101933479309,0.607819616795,0.0809322521091,-0.789874315262
1508259137607892307,,262,,1508259137,607459068,0,,,3558.49658203,204.609130859,293.035430908,,0.0187374949455,0.599207878113,0.0624427869916,-0.79793459177
1508259137625775952,,263,,1508259137,625411033,0,,,3556.09277344,203.74609375,296.401947021,,0.017160743475,0.590835511684,0.0644710212946,-0.804028749466
1508259137652490744,,264,,1508259137,651750087,0,,,3542.125,206.256103516,299.967193604,,0.00862318277359,0.578043222427,0.0682271048427,-0.813103079796
1508259137671104338,,265,,1508259137,667287111,0,,,3527.14990234,206.138183594,296.94241333,,0.0172219723463,0.601412296295,0.0734410956502,-0.795369803905
1508259137685282046,,266,,1508259137,684695005,0,,,3521.43261719,202.15625,299.886077881,,0.0122172832489,0.590414166451,0.0808285027742,-0.802950024605
1508259137704758765,,267,,1508259137,704346895,0,,,3520.07373047,201.604980469,301.849151611,,0.0180460810661,0.575465798378,0.0924271941185,-0.812385797501
1508259137724726942,,268,,1508259137,724183082,0,,,3512.32324219,203.895507812,314.712493896,,-0.00355279445648,0.590718686581,0.0883117690682,-0.802022278309
1508259137745713765,,269,,1508259137,745332956,0,,,3496.90917969,204.290771484,315.352325439,,-0.00673301517963,0.607984006405,0.0889967754483,-0.788916766644
1508259137765525744,,270,,1508259137,765053033,0,,,3488.55175781,203.385742188,321.475067139,,-0.000463366508484,0.596131443977,0.0687846392393,-0.799934864044
1508259137785449754,,271,,1508259137,785101890,0,,,3478.5078125,205.898681641,325.843048096,,-0.0163783431053,0.577407896519,0.0643572434783,-0.813750565052
1508259137803710119,,272,,1508259137,803318023,0,,,3451.97070312,218.571533203,331.241485596,,-0.0256204307079,0.553277909756,0.0260055214167,-0.832196474075
1508259137823694806,,273,,1508259137,823334932,0,,,3444.06933594,214.956054688,332.540618896,,-0.0308382809162,0.570022642612,0.0300635918975,-0.820499420166
1508259137843554077,,274,,1508259137,843086004,0,,,3431.19335938,218.615966797,334.777496338,,-0.0266810059547,0.543914437294,0.0277426168323,-0.838257431984
1508259137863532723,,275,,1508259137,863003015,0,,,3429.28271484,215.226074219,351.608917236,,0.0140762627125,0.560312986374,-0.0136813521385,-0.828048348427
1508259137883544702,,276,,1508259137,883028984,0,,,3414.33740234,212.824462891,358.365325928,,-0.00138401985168,0.545090377331,0.00935605913401,-0.838324010372
1508259137902871786,,277,,1508259137,902427911,0,,,3393.61181641,211.310791016,358.777679443,,-0.0109792053699,0.54712831974,0.0247340276837,-0.836611270905
1508259137922837359,,278,,1508259137,922420978,0,,,3380.20068359,215.065673828,364.892120361,,-0.011359423399,0.530491888523,0.0238988995552,-0.847276985645
1508259137942552463,,279,,1508259137,942004919,0,,,3367.57519531,218.938720703,371.320892334,,-0.00285291671753,0.501907706261,0.00399170815945,-0.864907324314
1508259137962677202,,280,,1508259137,962074041,0,,,3349.42431641,216.156005859,380.734466553,,-0.0102662444115,0.503402769566,0.0337257683277,-0.863332390785
1508259137981984650,,281,,1508259137,981484889,0,,,3332.27099609,217.771240234,383.937225342,,-0.0118040442467,0.496273100376,0.0280567482114,-0.867632567883
1508259138005353192,,282,,1508259138,4635095,0,,,3317.92724609,216.408447266,394.73928833,,-0.00304070115089,0.500340461731,0.0139012932777,-0.8657117486
1508259138021648765,,283,,1508259138,20965099,0,,,3297.49169922,215.722900391,403.812408447,,-0.0129455327988,0.483175516129,0.014847882092,-0.875301837921
1508259138043850431,,284,,1508259138,43298006,0,,,3278.88378906,218.867919922,418.517608643,,-0.0134745538235,0.45786395669,-0.0112017840147,-0.888849556446
1508259138060913244,,285,,1508259138,60508966,0,,,3261.65820312,217.881835938,426.453155518,,-0.00816449522972,0.469663858414,-0.00834663212299,-0.88276797533
1508259138082649233,,286,,1508259138,82052946,0,,,3244.77246094,220.828369141,444.644958496,,-0.0144631564617,0.470702648163,-0.00681640207767,-0.882147014141
1508259138101870067,,287,,1508259138,101394891,0,,,3224.64306641,223.391601562,455.290466309,,-0.0112674832344,0.435849010944,-0.0145259127021,-0.899831950665
1508259138120498452,,288,,1508259138,120112895,0,,,3206.39892578,223.4375,476.320404053,,-0.0180038511753,0.423217177391,0.0124204158783,-0.90576428175
1508259138140457567,,289,,1508259138,140094041,0,,,3180.38330078,220.343505859,485.51184082,,-0.00966036319733,0.439438015223,0.0012656673789,-0.898220062256
1508259138161371838,,290,,1508259138,160864114,0,,,3152.82958984,218.980224609,500.392425537,,-0.00513479113579,0.43680024147,0.0053763538599,-0.899527728558
1508259138187935536,,291,,1508259138,187098979,0,,,3135.15869141,218.281982422,514.464904785,,-0.011248677969,0.412940114737,0.00594682991505,-0.910669267178
1508259138199771942,,292,,1508259138,199366092,0,,,3113.83886719,218.268554688,534.414611816,,-0.0161128342152,0.381792426109,0.018089145422,-0.92393052578
1508259138219344181,,293,,1508259138,218941926,0,,,3085.39257812,217.528564453,549.920898438,,-0.0161758065224,0.414272874594,0.00475269556046,-0.909996509552
1508259138242803244,,294,,1508259138,242242097,0,,,3058.3515625,214.706787109,567.724731445,,-0.0131151676178,0.403152704239,0.0275120362639,-0.914624989033
1508259138260364963,,295,,1508259138,259850978,0,,,3039.74853516,218.504882812,585.027038574,,-0.00764721632004,0.392447292805,0.0100656300783,-0.919687569141
1508259138279943140,,296,,1508259138,279541969,0,,,3013.90039062,215.098876953,608.147216797,,-0.0254814326763,0.363765746355,0.0399365797639,-0.930285036564
1508259138298733921,,297,,1508259138,298299074,0,,,2982.33691406,214.961425781,617.463745117,,-0.0183820128441,0.393523454666,0.0341784209013,-0.918495059013
1508259138320082306,,298,,1508259138,319689035,0,,,2957.68945312,214.335693359,638.393005371,,-0.0237276852131,0.398580789566,0.0247091576457,-0.916493177414
1508259138339215640,,299,,1508259138,338803052,0,,,2934.43505859,216.677246094,658.594238281,,-0.0167055428028,0.399272859097,0.0213978514075,-0.916430175304
1508259138360050015,,300,,1508259138,357875108,0,,,2911.59082031,217.323486328,676.503173828,,-0.0158002078533,0.393721818924,0.0190459117293,-0.918896377087
1508259138378178088,,301,,1508259138,377582073,0,,,2881.82958984,216.696044922,686.567504883,,-0.0162677764893,0.425908923149,0.0270323902369,-0.904215812683
1508259138397911733,,302,,1508259138,397283077,0,,,2860.37597656,215.490722656,701.259887695,,-0.0182207524776,0.423579454422,0.0293912440538,-0.905198633671
1508259138420047463,,303,,1508259138,419495105,0,,,2839.43505859,213.232421875,715.113525391,,-0.0169616341591,0.420463383198,0.0404589176178,-0.906248271465
1508259138438174598,,304,,1508259138,437789916,0,,,2811.49609375,216.25,732.811279297,,-0.0153656005859,0.43001884222,0.0323177650571,-0.902110397816
1508259138458889442,,305,,1508259138,456394910,0,,,2784.97216797,217.054931641,741.958862305,,-0.0185404419899,0.459373921156,0.0227063596249,-0.88775908947
1508259138476692983,,306,,1508259138,476253986,0,,,2760.84570312,217.346923828,753.572998047,,-0.0191949903965,0.46783387661,0.0311112105846,-0.88306003809
1508259138496456369,,307,,1508259138,496038913,0,,,2738.35742188,217.776123047,764.513183594,,-0.0109041035175,0.473451793194,0.0291048064828,-0.880271196365
1508259138516300119,,308,,1508259138,515861988,0,,,2711.56933594,219.325683594,774.829345703,,-0.0177575051785,0.474497020245,0.020002387464,-0.879850685596
1508259138536336473,,309,,1508259138,535881042,0,,,2683.35253906,216.766357422,778.316772461,,-0.0208891928196,0.510456323624,0.00935924053192,-0.85959893465
1508259138557175796,,310,,1508259138,555798053,0,,,2655.97265625,215.795166016,787.291259766,,-0.014757424593,0.516354501247,0.0232999175787,-0.855930626392
1508259138575593296,,311,,1508259138,575156927,0,,,2629.84545898,215.651611328,797.048950195,,-0.011189520359,0.520792484283,0.0152124762535,-0.85347443819
1508259138595761629,,312,,1508259138,595312118,0,,,2600.44848633,217.333496094,806.645019531,,-0.0163801014423,0.516331017017,0.028465077281,-0.855759203434
1508259138615262462,,313,,1508259138,614849090,0,,,2570.34960938,219.708984375,810.047241211,,-0.0188185572624,0.552160918713,0.0463023558259,-0.832238018513
1508259138634911837,,314,,1508259138,634499073,0,,,2538.66552734,219.301757812,817.377197266,,-0.0120517611504,0.565419197083,0.034676104784,-0.823986411095
1508259138654719806,,315,,1508259138,654313087,0,,,2508.53955078,218.838623047,823.252685547,,-0.0135500729084,0.553213238716,0.031500890851,-0.832333564758
1508259138674452462,,316,,1508259138,674084901,0,,,2473.00878906,218.795410156,830.060424805,,-0.0133404433727,0.560497164726,0.0199414715171,-0.82780867815
1508259138695337775,,317,,1508259138,694494962,0,,,2440.29492188,219.594970703,830.781494141,,-0.00757020711899,0.594700753689,0.0181832537055,-0.803705811501
1508259138714268660,,318,,1508259138,713860988,0,,,2404.32128906,219.423339844,837.694335938,,-0.00319376587868,0.609762966633,0.0152709111571,-0.792430281639
1508259138735084389,,319,,1508259138,734724998,0,,,2370.05078125,220.965820312,843.349243164,,-0.00795194506645,0.617125272751,0.0254571959376,-0.786412715912
1508259138754930223,,320,,1508259138,754550933,0,,,2335.61914062,224.824951172,849.483886719,,-0.0160428732634,0.613025069237,0.0393326804042,-0.788920640945
1508259138773823452,,321,,1508259138,773426055,0,,,2298.54394531,222.775146484,848.991455078,,-0.0124339908361,0.644424319267,0.0283321961761,-0.764041900635
1508259138793336785,,322,,1508259138,792931079,0,,,2257.26757812,222.727294922,854.372314453,,-0.00791673362255,0.657377779484,0.0243003070354,-0.75312769413
1508259138813055327,,323,,1508259138,812660932,0,,,2219.57543945,220.213134766,861.348999023,,-0.0131969451904,0.649728000164,0.0155264809728,-0.759893655777
1508259138834421317,,324,,1508259138,833746910,0,,,2180.84716797,223.301025391,864.89453125,,-0.015693128109,0.635134637356,0.0131222531199,-0.772130429745
1508259138854419233,,325,,1508259138,852816104,0,,,2139.43359375,223.999755859,861.948120117,,-0.0036907941103,0.659553468227,0.003771468997,-0.751639008522
1508259138873648556,,326,,1508259138,873245000,0,,,2096.99072266,223.248291016,866.017089844,,-0.0114774852991,0.659423589706,0.00669759511948,-0.751654088497
1508259138893130900,,327,,1508259138,892692089,0,,,2060.20141602,224.141845703,872.600097656,,-0.00481462478638,0.64482241869,0.00702561438084,-0.764284968376
1508259138912040014,,328,,1508259138,911581039,0,,,2021.27954102,222.209228516,879.137207031,,-0.0144538581371,0.620405077934,0.0134171396494,-0.784033596516
1508259138932759025,,329,,1508259138,932353019,0,,,1978.36083984,223.348632812,875.548583984,,-0.0125579237938,0.642995834351,0.00203061848879,-0.765763998032
1508259138952445014,,330,,1508259138,952003955,0,,,1938.02331543,223.854736328,879.505737305,,-0.00610555708408,0.638589084148,-0.00227509438992,-0.769520282745
1508259138971303556,,331,,1508259138,970937013,0,,,1903.98754883,223.325683594,884.760131836,,-0.00658060610294,0.62196791172,0.0153913795948,-0.782863676548
1508259138993052723,,332,,1508259138,992608070,0,,,1863.48339844,225.568359375,892.797241211,,-0.00303146243095,0.603194653988,0.0103418305516,-0.797521233559
1508259139010873973,,333,,1508259139,10523080,0,,,1823.73339844,225.186523438,891.978271484,,0.00258089601994,0.622707366943,0.0127388462424,-0.782346785069
1508259139034091316,,334,,1508259139,32219886,0,,,1788.28051758,224.012695312,900.28515625,,0.00392180681229,0.603091835976,0.0121278762817,-0.797569930553
1508259139053519910,,335,,1508259139,52124977,0,,,1756.81945801,222.727294922,910.544189453,,0.00895282626152,0.584753870964,0.0230297595263,-0.810834348202
1508259139070477983,,336,,1508259139,70039987,0,,,1721.76635742,219.248046875,924.391723633,,-0.00241875648499,0.549173653126,0.0278493538499,-0.835240542889
1508259139090142306,,337,,1508259139,89793920,0,,,1684.56738281,223.077880859,928.444702148,,-0.0035237967968,0.571313142776,0.00634428858757,-0.82070016861
1508259139111118712,,338,,1508259139,110699892,0,,,1650.46142578,225.166503906,941.014892578,,-0.00016525387764,0.560883164406,0.00570272654295,-0.827875316143
1508259139130908556,,339,,1508259139,130475997,0,,,1618.48132324,224.66796875,954.908325195,,0.0051374733448,0.536038458347,0.00655582547188,-0.844152390957
1508259139151377150,,340,,1508259139,150768041,0,,,1584.37768555,225.969482422,970.164306641,,-5.43296337128e-05,0.513935923576,0.0104825347662,-0.857764482498
1508259139170181681,,341,,1508259139,169852972,0,,,1553.27355957,223.531738281,977.162719727,,-0.00447133183479,0.523786008358,-0.00164268910885,-0.851836621761
1508259139193997879,,342,,1508259139,193609952,0,,,1523.11474609,224.554443359,992.079223633,,0.0017674267292,0.510224401951,-0.00433564931154,-0.86002856493
1508259139208915483,,343,,1508259139,208507061,0,,,1494.79467773,224.532470703,1010.10058594,,0.00233754515648,0.488705068827,-0.0151193961501,-0.872314929962
1508259139228665327,,344,,1508259139,228235006,0,,,1465.65405273,224.996337891,1027.60217285,,-0.00241881608963,0.464176058769,-0.00777874141932,-0.885705649853
1508259139250027358,,345,,1508259139,249672889,0,,,1436.00634766,223.873535156,1039.75036621,,-0.0088192820549,0.470786094666,-0.00566497445107,-0.882185220718
1508259139270197618,,346,,1508259139,269563913,0,,,1407.5559082,225.149658203,1058.99584961,,-0.0045713186264,0.458246022463,-0.00229480117559,-0.888810694218
1508259139293901941,,347,,1508259139,293286085,0,,,1384.04089355,225.666748047,1077.54663086,,-0.000927299261093,0.437111586332,-0.00480314344168,-0.89939391613
1508259139309383191,,348,,1508259139,309029102,0,,,1358.47912598,225.455078125,1097.90063477,,-0.00768145918846,0.410811990499,-0.00772219151258,-0.911655008793
1508259139327624493,,349,,1508259139,327193975,0,,,1330.86291504,225.108398438,1112.59094238,,-0.00515994429588,0.42448630929,-0.00804550200701,-0.905383944511
1508259139352527045,,350,,1508259139,351975917,0,,,1305.48950195,226.062255859,1134.72045898,,0.00500571727753,0.418664932251,-0.0122055113316,-0.908044934273
1508259139367367983,,351,,1508259139,366975069,0,,,1284.60205078,226.189941406,1152.53857422,,0.000130832195282,0.401788592339,-0.0137044340372,-0.915629804134
1508259139387041004,,352,,1508259139,386621952,0,,,1259.72753906,224.840087891,1175.14147949,,-0.00208127498627,0.383739352226,-0.014025837183,-0.923332750797
1508259139408035743,,353,,1508259139,407660007,0,,,1232.26245117,225.959716797,1189.63024902,,-0.0024995803833,0.401147693396,-0.00740621984005,-0.915980100632
1508259139426608920,,354,,1508259139,426233053,0,,,1207.96398926,225.885742188,1209.26940918,,-0.00599020719528,0.401390314102,-0.00141270458698,-0.915886282921
1508259139446443191,,355,,1508259139,446005105,0,,,1186.09790039,224.778808594,1226.56030273,,-0.00403332710266,0.392115980387,0.00685977935791,-0.919881403446
1508259139467672462,,356,,1508259139,467180967,0,,,1160.88525391,223.756835938,1246.86120605,,-0.00469496846199,0.38134804368,0.00838699936867,-0.924381613731
1508259139486343816,,357,,1508259139,485774040,0,,,1132.78857422,224.547851562,1260.96948242,,-0.00453367829323,0.411678731441,0.00551819801331,-0.911301076412
1508259139507078191,,358,,1508259139,506643056,0,,,1109.31237793,224.776611328,1278.27258301,,-0.0103779137135,0.415659427643,0.0101701021194,-0.909404158592
1508259139527720327,,359,,1508259139,527340888,0,,,1090.68713379,223.149658203,1294.00524902,,-0.0133887529373,0.409478008747,0.010248079896,-0.912164151669
1508259139545522358,,360,,1508259139,544894933,0,,,1065.58300781,224.274658203,1313.72399902,,-0.0134525597095,0.400678515434,0.0144148916006,-0.916006624699
1508259139565060535,,361,,1508259139,564690113,0,,,1035.65893555,223.809326172,1324.33605957,,-0.0174433588982,0.436334311962,0.0039271786809,-0.899607002735
1508259139585025118,,362,,1508259139,584544897,0,,,1010.30053711,223.007568359,1336.24743652,,-0.0202549695969,0.44973307848,0.00599214434624,-0.892913103104
1508259139606810847,,363,,1508259139,606400966,0,,,990.822021484,222.840087891,1350.8963623,,-0.0162230730057,0.443009406328,0.00874182581902,-0.896327495575
1508259139624415952,,364,,1508259139,624037981,0,,,964.627075195,220.544433594,1366.49072266,,-0.0201436877251,0.44819432497,0.0277251526713,-0.893278956413
1508259139650670118,,365,,1508259139,650300979,0,,,935.413513184,221.855957031,1371.54833984,,-0.0230218470097,0.490697741508,0.0205456614494,-0.87078332901
1508259139665702410,,366,,1508259139,664927005,0,,,912.37902832,221.387939453,1382.60131836,,-0.02466827631,0.49576613307,0.0113454014063,-0.86803150177
1508259139685182410,,367,,1508259139,684597015,0,,,891.358154297,222.709716797,1392.42565918,,-0.0142849385738,0.496797770262,0.0169081911445,-0.867583990097
1508259139704877879,,368,,1508259139,704514980,0,,,863.238098145,221.354003906,1404.25085449,,-0.0136738419533,0.50436937809,0.0131510049105,-0.86327958107
1508259139723434962,,369,,1508259139,723001003,0,,,836.194702148,221.985839844,1402.29394531,,-0.0165812969208,0.539290070534,0.0173334553838,-0.841778278351
1508259139743333868,,370,,1508259139,742944002,0,,,814.872009277,223.228027344,1412.74841309,,-0.0180477499962,0.534187078476,0.0162377953529,-0.845017552376
1508259139763008608,,371,,1508259139,762590885,0,,,792.28527832,220.123046875,1421.73583984,,-0.0177191495895,0.531562745571,0.02406578511,-0.846491456032
1508259139784142774,,372,,1508259139,783704996,0,,,765.683105469,219.685791016,1427.95568848,,-0.0252434909344,0.535639047623,0.0309784933925,-0.843501031399
1508259139805443347,,373,,1508259139,805051088,0,,,740.247619629,218.885009766,1425.07568359,,-0.0205176472664,0.568565011024,0.0288701280951,-0.821875452995
1508259139825574545,,374,,1508259139,823230981,0,,,714.988891602,221.078125,1424.64025879,,-0.0188447833061,0.583290457726,0.0195309221745,-0.811810016632
1508259139842119649,,375,,1508259139,841726064,0,,,691.50402832,224.362548828,1426.33850098,,-0.0102168917656,0.590372920036,0.0146974250674,-0.806932151318
1508259139863263399,,376,,1508259139,862816095,0,,,665.274414062,225.383300781,1425.16687012,,-0.016789406538,0.595536053181,0.0141749754548,-0.80302798748
1508259139883979441,,377,,1508259139,882620096,0,,,642.30065918,224.469970703,1420.38647461,,-0.025809019804,0.624839425087,0.0127454400063,-0.780222535133
1508259139903470222,,378,,1508259139,902776956,0,,,618.418701172,224.187988281,1419.91027832,,-0.0190220922232,0.631907343864,0.0189742445946,-0.774578094482
1508259139924076837,,379,,1508259139,923543930,0,,,596.036560059,222.872802734,1420.3927002,,-0.0257549136877,0.63848567009,0.0261916667223,-0.768756628036
