rosbagTimestamp,header,seq,stamp,secs,nsecs,frame_id,pose,position,x,y,z,orientation,x,y,z,w
1508194504594656523,,1,,1508194504,593137979,0,,,1918.94055176,227.995849609,-1012.7298584,,-0.00520005822182,0.665510237217,0.0238780751824,-0.745988547802
1508194504607156418,,2,,1508194504,605874061,0,,,1919.11853027,228.468261719,-1012.89807129,,-0.00458990037441,0.665532231331,0.0239571258426,-0.745970368385
1508194504627201627,,3,,1508194504,625570058,0,,,1919.41174316,228.723876953,-1012.78149414,,-0.00443072617054,0.665534555912,0.0242080762982,-0.74596118927
1508194504648581054,,4,,1508194504,645775079,0,,,1919.47619629,228.735839844,-1012.68457031,,-0.00438879430294,0.665628790855,0.0241446569562,-0.745879411697
1508194504666834908,,5,,1508194504,665288925,0,,,1919.43212891,227.714599609,-1012.08325195,,-0.00460313260555,0.667116343975,0.0296057239175,-0.744350731373
1508194504687150429,,6,,1508194504,685173988,0,,,1919.0723877,227.951904297,-1012.61743164,,-0.00523883104324,0.665439605713,0.0238978117704,-0.746050655842
1508194504706728970,,7,,1508194504,704998016,0,,,1918.89367676,227.870849609,-1012.76538086,,-0.00473077595234,0.665595531464,0.0243091285229,-0.745901584625
1508194504726815377,,8,,1508194504,725086927,0,,,1919.02880859,228.247314453,-1012.8223877,,-0.00465442240238,0.665585756302,0.0243368446827,-0.745909869671
1508194504746918918,,9,,1508194504,744538068,0,,,1919.33764648,228.671386719,-1012.76708984,,-0.00468118488789,0.665775120258,0.0245116055012,-0.745735108852
1508194504766748189,,10,,1508194504,764403104,0,,,1919.46520996,228.605712891,-1012.80517578,,-0.00459569692612,0.665584027767,0.0246182978153,-0.745902597904
1508194504786628137,,11,,1508194504,784216880,0,,,1919.23059082,228.293701172,-1012.73852539,,-0.00453418493271,0.665775179863,0.0243225470185,-0.745742082596
1508194504805807772,,12,,1508194504,804070949,0,,,1918.93737793,228.004882812,-1012.76916504,,-0.00478787720203,0.6656422019,0.0241613462567,-0.745864391327
1508194504825355585,,13,,1508194504,823771953,0,,,1918.88061523,228.002197266,-1012.68688965,,-0.00482086837292,0.665651798248,0.0242737755179,-0.745851993561
1508194504851665325,,14,,1508194504,845539093,0,,,1919.09155273,228.297363281,-1012.63110352,,-0.00464941561222,0.665698051453,0.024689681828,-0.745798051357
1508194504865493970,,15,,1508194504,863414049,0,,,1919.31799316,228.657226562,-1012.76501465,,-0.00436583161354,0.665657758713,0.0246241241693,-0.745838105679
1508194504884130637,,16,,1508194504,882750034,0,,,1919.40759277,228.622802734,-1012.85595703,,-0.00437659025192,0.665557444096,0.0244263187051,-0.745933949947
1508194504904732720,,17,,1508194504,902640104,0,,,1919.17541504,228.231933594,-1012.85046387,,-0.00456988811493,0.665717542171,0.0241385549307,-0.74579924345
1508194504924491158,,18,,1508194504,922804117,0,,,1918.93383789,227.858886719,-1012.81970215,,-0.00492079555988,0.665768742561,0.0242551490664,-0.745747566223
1508194504948789647,,19,,1508194504,942459106,0,,,1918.90783691,227.934082031,-1012.86437988,,-0.00460360944271,0.665725708008,0.0241195932031,-0.745792508125
1508194504973171627,,20,,1508194504,963701009,0,,,1919.18310547,228.364013672,-1012.8182373,,-0.00476297736168,0.665735006332,0.0245429128408,-0.745769262314
1508194504984671418,,21,,1508194504,982239007,0,,,1919.39172363,228.644775391,-1012.81970215,,-0.00450523197651,0.665621995926,0.024775378406,-0.745864033699
1508194505005207981,,22,,1508194505,2804040,0,,,1919.31201172,228.570556641,-1012.76599121,,-0.00431852042675,0.665768504143,0.0245667770505,-0.745741248131
1508194505024052252,,23,,1508194505,22206068,0,,,1918.72399902,227.840332031,-1012.93847656,,-0.00584544241428,0.665667712688,0.0264894217253,-0.745755016804
1508194505044130481,,24,,1508194505,42650938,0,,,1919.01745605,228.059082031,-1012.62353516,,-0.0047382414341,0.665823400021,0.0240111872554,-0.745707809925
1508194505062998397,,25,,1508194505,61256885,0,,,1918.98022461,227.943603516,-1012.70349121,,-0.00467337667942,0.665711462498,0.0245927870274,-0.745789349079
1508194505082867564,,26,,1508194505,81263065,0,,,1919.09924316,228.233398438,-1012.79797363,,-0.00462181866169,0.665749669075,0.024532340467,-0.745757341385
1508194505102751991,,27,,1508194505,101440906,0,,,1919.28088379,228.48828125,-1012.88964844,,-0.00435030460358,0.665661692619,0.0246382132173,-0.745834112167
1508194505127307824,,28,,1508194505,121591091,0,,,1919.3170166,228.488769531,-1012.96630859,,-0.00455269217491,0.665740847588,0.0244485810399,-0.745768487453
1508194505142346470,,29,,1508194505,140387058,0,,,1919.16174316,228.223632812,-1012.89685059,,-0.00442411005497,0.665851831436,0.0243736356497,-0.745672702789
1508194505162059908,,30,,1508194505,160332918,0,,,1918.98950195,228.032714844,-1012.8536377,,-0.0046573728323,0.665779769421,0.0242526307702,-0.745739579201
1508194505182771783,,31,,1508194505,180741071,0,,,1918.96459961,228.071289062,-1012.76428223,,-0.00465062260628,0.665734350681,0.0242998823524,-0.745778560638
1508194505206444335,,32,,1508194505,199590921,0,,,1919.09020996,228.163330078,-1012.61755371,,-0.00469146668911,0.665813565254,0.0248159840703,-0.745690643787
1508194505225585481,,33,,1508194505,219538927,0,,,1919.2220459,228.380615234,-1012.73010254,,-0.00459699332714,0.665789961815,0.0250454843044,-0.745704591274
1508194505241831835,,34,,1508194505,239259004,0,,,1919.24597168,228.49609375,-1012.79382324,,-0.00441774725914,0.665792107582,0.0248735174537,-0.74570953846
1508194505260936001,,35,,1508194505,259231090,0,,,1919.16503906,228.187744141,-1012.90869141,,-0.00464826822281,0.665769219398,0.0248545408249,-0.745729207993
1508194505280944595,,36,,1508194505,279377937,0,,,1918.94702148,227.862548828,-1012.85095215,,-0.00471046566963,0.665903508663,0.0245774686337,-0.745618104935
1508194505305953033,,37,,1508194505,304168939,0,,,1919.11535645,227.723632812,-1012.66027832,,-0.00364799797535,0.666414439678,0.0242804139853,-0.745177209377
1508194505320279126,,38,,1508194505,318469047,0,,,1919.1151123,228.201171875,-1012.86206055,,-0.00458462536335,0.665761768818,0.0246383473277,-0.745743393898
1508194505339953241,,39,,1508194505,338293075,0,,,1919.22351074,228.410400391,-1012.83886719,,-0.00447767972946,0.665842652321,0.0250950008631,-0.745656430721
1508194505359482720,,40,,1508194505,358025074,0,,,1919.11828613,228.358886719,-1012.92224121,,-0.00444793701172,0.66585791111,0.024947963655,-0.745648026466
1508194505379800220,,41,,1508194505,378390073,0,,,1919.07824707,228.137695312,-1012.82885742,,-0.00456818938255,0.665741205215,0.0246444270015,-0.745761573315
1508194505399569491,,42,,1508194505,397815942,0,,,1919.07458496,227.983886719,-1012.75732422,,-0.00459149479866,0.665901303291,0.0243379995227,-0.745628595352
1508194505419601418,,43,,1508194505,417771100,0,,,1919.05578613,228.070556641,-1012.71862793,,-0.00444236397743,0.665951669216,0.0245610773563,-0.745577216148
1508194505439000324,,44,,1508194505,437278032,0,,,1917.96643066,227.248046875,-1013.60742188,,-0.0070204436779,0.665407538414,0.0306042805314,-0.745819509029
1508194505458348814,,45,,1508194505,457036018,0,,,1919.06591797,228.31640625,-1012.86950684,,-0.00471936166286,0.665766060352,0.0251464694738,-0.745721817017
1508194505478838866,,46,,1508194505,477315902,0,,,1919.16662598,228.288085938,-1012.85827637,,-0.0042142868042,0.665828645229,0.0248362869024,-0.74567937851
1508194505498552356,,47,,1508194505,496851921,0,,,1919.11083984,228.094482422,-1012.87304688,,-0.00434167683125,0.665946185589,0.0249445363879,-0.745570003986
1508194505518217876,,48,,1508194505,516518115,0,,,1919.12854004,228.060058594,-1012.828125,,-0.00466479361057,0.665969133377,0.0248012170196,-0.745552301407
1508194505538791418,,49,,1508194505,536659955,0,,,1919.11230469,228.125732422,-1012.83056641,,-0.00464688241482,0.665898382664,0.0244866162539,-0.745626091957
1508194505563195533,,50,,1508194505,561618089,0,,,1919.05212402,228.052978516,-1012.75793457,,-0.00449511408806,0.6658847332,0.0248858854175,-0.745625853539
1508194505579243345,,51,,1508194505,576841115,0,,,1919.0447998,228.184082031,-1012.73022461,,-0.00442996621132,0.665934681892,0.0247092917562,-0.745587587357
1508194505599016835,,52,,1508194505,597121000,0,,,1919.16833496,228.354980469,-1012.75012207,,-0.00435227155685,0.665914595127,0.0248165354133,-0.745602369308
1508194505618941626,,53,,1508194505,617142915,0,,,1919.29284668,228.304443359,-1012.84863281,,-0.0044706761837,0.665856480598,0.0250688195229,-0.745645046234
1508194505638745220,,54,,1508194505,636821031,0,,,1919.13122559,228.060546875,-1012.82434082,,-0.00426560640335,0.666019022465,0.0246460661292,-0.745515167713
1508194505658459022,,55,,1508194505,656774997,0,,,1918.98474121,227.834716797,-1012.91040039,,-0.00458726286888,0.665906250477,0.0246149227023,-0.745615124702
1508194505676273605,,56,,1508194505,675043106,0,,,1918.93798828,227.859130859,-1012.91650391,,-0.00441314280033,0.665896117687,0.0245934873819,-0.745625972748
1508194505696705949,,57,,1508194505,694818973,0,,,1919.09362793,228.168701172,-1012.82714844,,-0.00450792908669,0.665952444077,0.025250390172,-0.745553195477
1508194505716420949,,58,,1508194505,714606046,0,,,1918.79016113,228.209228516,-1013.10571289,,-0.00493082404137,0.665966868401,0.0271033197641,-0.745472490788
1508194505737055168,,59,,1508194505,733937978,0,,,1919.23950195,228.427734375,-1012.74987793,,-0.004335090518,0.665866196156,0.0251765921712,-0.745633721352
1508194505755412512,,60,,1508194505,753959894,0,,,1919.14099121,228.050537109,-1012.74609375,,-0.00453862547874,0.66604745388,0.0248330757022,-0.745481967926
1508194505786079960,,61,,1508194505,784477949,0,,,1918.85058594,227.699707031,-1012.73449707,,-0.00466769933701,0.66607683897,0.024540796876,-0.745464682579
1508194505795466678,,62,,1508194505,793446063,0,,,1918.88269043,227.836181641,-1012.86535645,,-0.00450174510479,0.665921330452,0.0245531201363,-0.745604157448
1508194505815221939,,63,,1508194505,813456058,0,,,1919.10498047,228.22265625,-1012.91589355,,-0.004285171628,0.6659309268,0.0251294150949,-0.745577573776
1508194505835940012,,64,,1508194505,833651065,0,,,1919.3638916,228.4296875,-1012.82409668,,-0.00456373393536,0.66600048542,0.0255588963628,-0.745499253273
1508194505860476157,,65,,1508194505,853667974,0,,,1919.30224609,228.253662109,-1012.90551758,,-0.00423502922058,0.666040956974,0.0251658707857,-0.745478391647
1508194505874864647,,66,,1508194505,872518062,0,,,1919.07104492,227.8515625,-1012.94494629,,-0.00455665588379,0.665857374668,0.0248852521181,-0.745650053024
1508194505894490272,,67,,1508194505,892878055,0,,,1918.82592773,227.608154297,-1012.88415527,,-0.00463825464249,0.666035175323,0.024598158896,-0.745500266552
1508194505914559595,,68,,1508194505,912142992,0,,,1918.85119629,227.924560547,-1012.75512695,,-0.00436134636402,0.666220188141,0.0247113481164,-0.745332717896
1508194505939407303,,69,,1508194505,932601928,0,,,1918.86242676,228.159912109,-1012.89709473,,-0.00521415472031,0.666129648685,0.0262078568339,-0.745357275009
1508194505953754855,,70,,1508194505,951742887,0,,,1919.31518555,228.454101562,-1012.71508789,,-0.00406111776829,0.666001737118,0.0251497030258,-0.745514988899
1508194505973595064,,71,,1508194505,971699953,0,,,1919.27734375,228.211181641,-1012.77770996,,-0.00430144369602,0.665995597839,0.0251456201077,-0.745519340038
1508194505992984751,,72,,1508194505,991220951,0,,,1918.94995117,227.803955078,-1012.85522461,,-0.00441987812519,0.666183233261,0.0250585749745,-0.745353937149
1508194506013308137,,73,,1508194506,11605978,0,,,1918.93566895,227.546875,-1012.69519043,,-0.00415880978107,0.666439890862,0.0248224362731,-0.745133936405
1508194506033023814,,74,,1508194506,31047105,0,,,1918.96032715,227.631835938,-1012.7677002,,-0.00495001673698,0.666110813618,0.0260922759771,-0.745379805565
1508194506052381209,,75,,1508194506,50827026,0,,,1919.15356445,228.196533203,-1012.86535645,,-0.00436964631081,0.66603076458,0.025002412498,-0.745492339134
1508194506072164387,,76,,1508194506,70554971,0,,,1919.29431152,228.366699219,-1012.86706543,,-0.00421525537968,0.665985584259,0.0250922068954,-0.745530426502
1508194506091851209,,77,,1508194506,90224027,0,,,1919.14562988,228.288085938,-1012.87121582,,-0.0041875243187,0.666058063507,0.0251216590405,-0.745464920998
1508194506112140428,,78,,1508194506,110480070,0,,,1919.0246582,227.967773438,-1012.88696289,,-0.00441859662533,0.666069567204,0.0251200795174,-0.745453417301
1508194506135591366,,79,,1508194506,129858016,0,,,1918.93286133,227.697998047,-1012.80432129,,-0.00436663627625,0.666183233261,0.0251372084022,-0.745351612568
1508194506151487980,,80,,1508194506,149923086,0,,,1918.93481445,227.700439453,-1012.8260498,,-0.00431907176971,0.666057765484,0.0247903987765,-0.74547547102
1508194506171581782,,81,,1508194506,169743061,0,,,1919.12658691,228.017578125,-1012.79675293,,-0.00433230400085,0.666084051132,0.0253266394138,-0.745433866978
1508194506191284543,,82,,1508194506,189171075,0,,,1919.27038574,228.266845703,-1012.78137207,,-0.00419808924198,0.666140079498,0.0257433727384,-0.745370328426
1508194506211040012,,83,,1508194506,209230899,0,,,1919.15698242,228.241943359,-1012.96533203,,-0.0039926469326,0.666114747524,0.0255949869752,-0.745399236679
1508194506230352720,,84,,1508194506,229038000,0,,,1918.98168945,227.916748047,-1013.0324707,,-0.00430972874165,0.666007101536,0.0255302488804,-0.745495975018
1508194506250349334,,85,,1508194506,248780965,0,,,1918.86352539,227.580322266,-1013.0098877,,-0.00428318977356,0.666199505329,0.0247604623437,-0.745350122452
1508194506271427876,,86,,1508194506,269860029,0,,,1918.9041748,227.603515625,-1012.88903809,,-0.00458811223507,0.666215777397,0.0249886512756,-0.74532610178
1508194506289538761,,87,,1508194506,288235902,0,,,1919.08520508,228.063964844,-1012.7911377,,-0.00425882637501,0.666228532791,0.0249370858073,-0.745318412781
1508194506309902095,,88,,1508194506,308324098,0,,,1919.22644043,228.464111328,-1012.75524902,,-0.00412246584892,0.66612303257,0.0253805294633,-0.745398521423
1508194506329784022,,89,,1508194506,327946901,0,,,1919.15026855,228.443847656,-1012.83813477,,-0.00431171059608,0.666137576103,0.0258028656244,-0.745369970798
1508194506349460011,,90,,1508194506,347945928,0,,,1918.90991211,227.877929688,-1012.9005127,,-0.00412277877331,0.666225790977,0.0253369212151,-0.745308160782
1508194506373330845,,91,,1508194506,367813110,0,,,1918.80822754,227.534912109,-1012.98278809,,-0.00455501675606,0.666177272797,0.0251561999321,-0.745355069637
1508194506389004699,,92,,1508194506,387020111,0,,,1918.16845703,227.009277344,-1013.55236816,,-0.005954682827,0.665845811367,0.0283378437161,-0.745527267456
1508194506412355376,,93,,1508194506,406852960,0,,,1919.09423828,228.019775391,-1012.85852051,,-0.00420612096786,0.666201293468,0.0253466293216,-0.745329260826
1508194506429241157,,94,,1508194506,426711082,0,,,1919.13684082,228.367919922,-1012.85498047,,-0.00402638316154,0.666218876839,0.0253945812583,-0.745312929153
1508194506449154491,,95,,1508194506,446525096,0,,,1919.16467285,228.365966797,-1012.82629395,,-0.00396791100502,0.666228652,0.0255316868424,-0.745299696922
1508194506468147772,,96,,1508194506,466361999,0,,,1919.04077148,227.891357422,-1012.75231934,,-0.00449220836163,0.666345477104,0.0254692807794,-0.74519443512
1508194506487829386,,97,,1508194506,486188888,0,,,1918.9342041,227.546630859,-1012.82043457,,-0.00430768728256,0.666338145733,0.0249704495072,-0.745218932629
1508194506507108293,,98,,1508194506,505806922,0,,,1918.9420166,227.607421875,-1012.88586426,,-0.00429432094097,0.6662799716,0.0250365063548,-0.745268940926
1508194506527557511,,99,,1508194506,525964975,0,,,1919.04602051,227.915283203,-1012.88244629,,-0.00428603589535,0.666301190853,0.0252292826772,-0.745243430138
1508194506547176001,,100,,1508194506,545655012,0,,,1919.15930176,228.220947266,-1012.82653809,,-0.00423274934292,0.666309714317,0.025648906827,-0.745221912861
1508194506567126001,,101,,1508194506,565200090,0,,,1919.07421875,228.159423828,-1012.94616699,,-0.00377312302589,0.666239261627,0.0256399512291,-0.745287597179
1508194506586971261,,102,,1508194506,585279941,0,,,1918.99987793,227.966064453,-1012.93884277,,-0.0042310655117,0.666212975979,0.0253721922636,-0.745317697525
1508194506606926053,,103,,1508194506,605212926,0,,,1918.91271973,227.620605469,-1012.95678711,,-0.00430345535278,0.666191399097,0.0251142531633,-0.74534535408
1508194506626237980,,104,,1508194506,624571084,0,,,1918.80517578,227.633056641,-1012.91711426,,-0.00423689186573,0.666332960129,0.0250231027603,-0.745222270489
1508194506646369491,,105,,1508194506,644570112,0,,,1918.91064453,228.01171875,-1012.96447754,,-0.00405912101269,0.666275858879,0.025025755167,-0.74527412653
1508194506666013605,,106,,1508194506,664227962,0,,,1919.05432129,228.282958984,-1012.85461426,,-0.00414516031742,0.666385889053,0.0254920646548,-0.745159506798
1508194506687422459,,107,,1508194506,684464931,0,,,1919.16247559,228.258544922,-1012.81359863,,-0.0041346102953,0.666413128376,0.0257969126105,-0.745124816895
1508194506705812303,,108,,1508194506,704099893,0,,,1919.02441406,227.922363281,-1012.94763184,,-0.00414949655533,0.666355252266,0.025602966547,-0.745183289051
1508194506729625532,,109,,1508194506,724746942,0,,,1918.9206543,227.509765625,-1013.015625,,-0.00417578220367,0.666194081306,0.0254212021828,-0.745333313942
1508194506745169438,,110,,1508194506,743395090,0,,,1918.84851074,227.429443359,-1012.9909668,,-0.00414830446243,0.66632515192,0.0251104384661,-0.745226860046
1508194506765160949,,111,,1508194506,763169050,0,,,1918.85217285,227.680908203,-1012.94104004,,-0.00411446392536,0.666385531425,0.0254446566105,-0.74516171217
1508194506786316678,,112,,1508194506,783231973,0,,,1919.03601074,228.178955078,-1012.95544434,,-0.00412744283676,0.666349947453,0.025250017643,-0.745200157166
1508194506808720115,,113,,1508194506,803003072,0,,,1919.12524414,228.278320312,-1012.93395996,,-0.00387768447399,0.666251540184,0.0255547314882,-0.745278954506
1508194506824406782,,114,,1508194506,822742938,0,,,1919.07861328,228.066650391,-1012.83972168,,-0.00415161252022,0.666452169418,0.025248721242,-0.745108604431
1508194506844012043,,115,,1508194506,842514038,0,,,1918.88537598,227.688476562,-1012.8605957,,-0.00405620038509,0.666382193565,0.0253681540489,-0.745167613029
1508194506864525793,,116,,1508194506,862185001,0,,,1918.81567383,227.631347656,-1012.88793945,,-0.00415745377541,0.666357338428,0.025274656713,-0.745192408562
1508194506886896053,,117,,1508194506,884342908,0,,,1918.9185791,227.774658203,-1012.96386719,,-0.00423559546471,0.666376829147,0.0253317803144,-0.745172739029
1508194506904701313,,118,,1508194506,902518987,0,,,1919.02966309,227.921875,-1013.00744629,,-0.00396382808685,0.666315376759,0.0257356315851,-0.745215237141
1508194506923376834,,119,,1508194506,921598911,0,,,1919.10009766,228.112792969,-1013.07824707,,-0.0038366317749,0.66627150774,0.0253930389881,-0.745266973972
1508194506943181678,,120,,1508194506,941612958,0,,,1919.06091309,228.038085938,-1013.00134277,,-0.00386369228363,0.66637378931,0.0253849998116,-0.745175600052
1508194506964293970,,121,,1508194506,961468935,0,,,1918.83117676,227.666503906,-1012.98510742,,-0.00410723686218,0.666351497173,0.025413185358,-0.745193243027
1508194506983432147,,122,,1508194506,981704950,0,,,1918.66149902,227.46875,-1012.94116211,,-0.0038091391325,0.666269004345,0.0253087431192,-0.745272099972
1508194507002697199,,123,,1508194507,796079,0,,,1918.82678223,227.685302734,-1012.92004395,,-0.00392462313175,0.666283071041,0.025280430913,-0.745259940624
1508194507022289178,,124,,1508194507,20689964,0,,,1919.10986328,228.079833984,-1012.88220215,,-0.00388646125793,0.66629588604,0.0253581181169,-0.745246052742
1508194507041910324,,125,,1508194507,40385961,0,,,1919.2421875,228.281005859,-1012.85217285,,-0.00396575033665,0.666444957256,0.0259109959006,-0.745093286037
1508194507062035220,,126,,1508194507,60381889,0,,,1918.96875,227.976806641,-1013.0300293,,-0.00386369228363,0.666397869587,0.0257555544376,-0.745141267776
1508194507083697980,,127,,1508194507,80715894,0,,,1918.71398926,227.584716797,-1013.10681152,,-0.00418993830681,0.666354000568,0.0256476104259,-0.745182514191
1508194507101580688,,128,,1508194507,99672079,0,,,1918.76135254,227.350830078,-1013.06945801,,-0.00409914553165,0.666418015957,0.0254396051168,-0.745132923126
1508194507124175897,,129,,1508194507,120090007,0,,,1918.90527344,227.562744141,-1012.96960449,,-0.00408095121384,0.666545152664,0.0253917872906,-0.745020866394
1508194507140861522,,130,,1508194507,139139890,0,,,1919.09069824,228.033935547,-1012.99157715,,-0.00386470556259,0.666405856609,0.0254838317633,-0.745143532753
1508194507161062772,,131,,1508194507,159043073,0,,,1919.11181641,228.283935547,-1012.9654541,,-0.00374181568623,0.666355729103,0.0257062390447,-0.745181381702
1508194507181002928,,132,,1508194507,179197072,0,,,1918.9588623,228.030029297,-1012.84863281,,-0.00412847101688,0.66649711132,0.0260903537273,-0.745039463043
1508194507200580949,,133,,1508194507,198582887,0,,,1918.734375,227.639648438,-1012.92883301,,-0.00386486947536,0.666476309299,0.0254573002458,-0.745081424713
1508194507220584178,,134,,1508194507,218492031,0,,,1918.74572754,227.508300781,-1012.98400879,,-0.00413751602173,0.666329324245,0.0253884196281,-0.745213806629
1508194507240033084,,135,,1508194507,238173961,0,,,1918.94396973,227.717041016,-1012.96435547,,-0.0040176063776,0.666500747204,0.0254100039601,-0.745060384274
1508194507260543813,,136,,1508194507,258521080,0,,,1919.01538086,227.973388672,-1012.89306641,,-0.00389967858791,0.666643440723,0.0255634859204,-0.744928002357
1508194507285166782,,137,,1508194507,278556108,0,,,1918.47009277,227.367919922,-1012.25427246,,-0.00381220877171,0.669412255287,0.0313761532307,-0.742218494415
1508194507299351261,,138,,1508194507,297661066,0,,,1918.9263916,227.904296875,-1013.03649902,,-0.00391884148121,0.666292369366,0.0257240086794,-0.745236456394
1508194507319453397,,139,,1508194507,317603111,0,,,1918.89282227,227.720947266,-1013.08239746,,-0.00417922437191,0.666400372982,0.0254645720124,-0.745147407055
1508194507339329282,,140,,1508194507,337366104,0,,,1918.85705566,227.513916016,-1013.01269531,,-0.00384725630283,0.666499257088,0.0255292207003,-0.745058476925
1508194507358915063,,141,,1508194507,357182025,0,,,1918.86694336,227.682617188,-1012.97180176,,-0.00391909480095,0.66651725769,0.0253751724958,-0.745047211647
1508194507379029490,,142,,1508194507,377007007,0,,,1918.90270996,227.949951172,-1012.9498291,,-0.00413438677788,0.66649222374,0.0256251841784,-0.745059907436
1508194507400794751,,143,,1508194507,398823022,0,,,1918.94970703,227.994384766,-1012.96350098,,-0.00364169478416,0.666402220726,0.0260059088469,-0.745129942894
1508194507418020688,,144,,1508194507,416534900,0,,,1919.0032959,227.984619141,-1013.04846191,,-0.00380915403366,0.666425168514,0.0257362127304,-0.745117783546
1508194507443541209,,145,,1508194507,441951990,0,,,1918.96740723,227.744873047,-1013.04907227,,-0.00401362776756,0.666481792927,0.0258204638958,-0.745063185692
1508194507463588709,,146,,1508194507,461975097,0,,,1918.88562012,227.446533203,-1013.1003418,,-0.00401666760445,0.666490197182,0.0255540162325,-0.745064795017
1508194507479036209,,147,,1508194507,477256059,0,,,1918.77978516,227.394287109,-1012.97912598,,-0.00391775369644,0.666662633419,0.0256752744317,-0.744906961918
1508194507501782407,,148,,1508194507,497427940,0,,,1918.76416016,227.710693359,-1012.99975586,,-0.00384563207626,0.666506528854,0.02573145926,-0.745045006275
1508194507518279907,,149,,1508194507,515691995,0,,,1918.88586426,227.96875,-1012.96386719,,-0.0038390904665,0.666525781155,0.0260133370757,-0.745018005371
1508194507542884803,,150,,1508194507,541193962,0,,,1918.97473145,227.98046875,-1012.91296387,,-0.00385595858097,0.666575491428,0.0260742902756,-0.744971394539
1508194507561186626,,151,,1508194507,555340051,0,,,1918.93103027,227.822998047,-1013.03295898,,-0.00377689301968,0.666529655457,0.0258821025491,-0.745019555092
1508194507584026365,,152,,1508194507,577478885,0,,,1918.85253906,227.641845703,-1013.08740234,,-0.0038438886404,0.66642832756,0.0257475152612,-0.745114505291
1508194507610255219,,153,,1508194507,604461908,0,,,1918.79187012,227.616210938,-1013.11535645,,-0.00386762619019,0.666561901569,0.0255099609494,-0.745003044605
1508194507616234959,,154,,1508194507,614419937,0,,,1918.77197266,227.699951172,-1013.0682373,,-0.00372363626957,0.666619777679,0.0257500633597,-0.744943797588
1508194507640867719,,155,,1508194507,634068965,0,,,1918.85742188,227.788574219,-1013.13146973,,-0.00361369550228,0.666516959667,0.0255585536361,-0.745042741299
1508194507660856834,,156,,1508194507,659282922,0,,,1918.94213867,227.741455078,-1013.05310059,,-0.00378054380417,0.666532218456,0.0257187709212,-0.745022892952
1508194507680300115,,157,,1508194507,673851013,0,,,1918.94360352,227.699951172,-1013.01599121,,-0.00383207201958,0.666538238525,0.0256966128945,-0.745018005371
1508194507696549542,,158,,1508194507,693423986,0,,,1918.79125977,227.621826172,-1012.94348145,,-0.00366301834583,0.666648566723,0.0257423967123,-0.744918525219
1508194507718481782,,159,,1508194507,716763019,0,,,1918.77709961,227.734130859,-1012.97399902,,-0.00370320677757,0.666587531567,0.0256956070662,-0.74497461319
1508194507735771417,,160,,1508194507,733711957,0,,,1918.87268066,227.845458984,-1012.99157715,,-0.0039079785347,0.666602730751,0.0257048904896,-0.744959592819
1508194507755435740,,161,,1508194507,752808094,0,,,1918.91650391,227.799560547,-1013.02001953,,-0.00380231440067,0.666525006294,0.0260333865881,-0.74501812458
1508194507775199021,,162,,1508194507,773102998,0,,,1918.81750488,227.776367188,-1013.1204834,,-0.0037477016449,0.666556417942,0.0255502462387,-0.745007157326
1508194507794199959,,163,,1508194507,792431116,0,,,1918.78820801,227.679199219,-1013.15612793,,-0.00381292402744,0.666557073593,0.0257979556918,-0.744997620583
1508194507814696625,,164,,1508194507,812779903,0,,,1918.78295898,227.678710938,-1013.14147949,,-0.00373503565788,0.666578769684,0.0258012190461,-0.744978487492
1508194507837715219,,165,,1508194507,832109928,0,,,1918.84143066,227.704589844,-1013.04711914,,-0.00359684228897,0.666730225086,0.0257172212005,-0.744846582413
1508194507854103396,,166,,1508194507,852324008,0,,,1918.91577148,227.170898438,-1012.61791992,,-0.00337979197502,0.667704820633,0.0298959538341,-0.743817925453
1508194507873447928,,167,,1508194507,871766090,0,,,1918.92858887,227.752685547,-1012.98693848,,-0.00399059057236,0.666473150253,0.025677241385,-0.74507600069
1508194507893777198,,168,,1508194507,891174077,0,,,1918.76733398,227.557373047,-1012.98608398,,-0.00383850932121,0.66663312912,0.0258374810219,-0.744928121567
1508194507918492875,,169,,1508194507,911695003,0,,,1918.67236328,227.517578125,-1013.05871582,,-0.00369998812675,0.666598021984,0.0258909016848,-0.744958341122
1508194507933156886,,170,,1508194507,930767059,0,,,1918.81213379,227.755126953,-1013.00878906,,-0.00372523069382,0.666624903679,0.0258159041405,-0.744936823845
1508194507952248136,,171,,1508194507,950581073,0,,,1919.06079102,227.786376953,-1013.01501465,,-0.00373467803001,0.666567385197,0.0258499756455,-0.74498707056
1508194507972848657,,172,,1508194507,970458984,0,,,1918.93310547,227.709716797,-1013.03210449,,-0.00366528332233,0.666700959206,0.0257156267762,-0.744872510433
1508194507994557875,,173,,1508194507,990396022,0,,,1918.74023438,227.481201172,-1013.17358398,,-0.00363680720329,0.666606366634,0.0256162583828,-0.744960725307
1508194508019049959,,174,,1508194508,12342929,0,,,1918.64001465,227.390380859,-1013.16052246,,-0.00376158952713,0.666623532772,0.0258952081203,-0.744935154915
1508194508031813396,,175,,1508194508,29735088,0,,,1918.75,227.455566406,-1012.9942627,,-0.00385181605816,0.666705369949,0.0262913331389,-0.744847595692
1508194508051474698,,176,,1508194508,49815893,0,,,1918.90393066,227.78125,-1013.00708008,,-0.00360225141048,0.666713178158,0.0261434465647,-0.74484705925
1508194508071102563,,177,,1508194508,69503068,0,,,1919.04223633,227.953369141,-1012.95825195,,-0.00344574451447,0.666490375996,0.0260427892208,-0.745050668716
1508194508091798240,,178,,1508194508,89260101,0,,,1918.84057617,227.731201172,-1012.9588623,,-0.00372263789177,0.666692852974,0.0256786346436,-0.744880795479
1508194508110522927,,179,,1508194508,108933925,0,,,1918.55688477,227.454833984,-1013.02856445,,-0.00374867022038,0.666747450829,0.0257525146008,-0.744829177856
1508194508130579177,,180,,1508194508,129009962,0,,,1918.56811523,227.499023438,-1013.19702148,,-0.00354731082916,0.666611552238,0.0255217552185,-0.744959831238
1508194508149994282,,181,,1508194508,148473024,0,,,1918.81274414,227.62890625,-1013.17468262,,-0.00367438793182,0.666598677635,0.0260915309191,-0.744950950146
1508194508170178084,,182,,1508194508,168597936,0,,,1918.98840332,227.772460938,-1013.13439941,,-0.00358738005161,0.666624367237,0.0260890424252,-0.744928479195
1508194508191091313,,183,,1508194508,188834905,0,,,1918.93847656,227.697265625,-1013.11730957,,-0.00329148769379,0.666734099388,0.0260171592236,-0.744834065437
1508194508215239282,,184,,1508194508,209047079,0,,,1918.81433105,227.6640625,-1013.02429199,,-0.00360582768917,0.666805803776,0.0255912616849,-0.744783163071
1508194508228912094,,185,,1508194508,227368116,0,,,1918.6932373,227.439453125,-1012.99963379,,-0.00376519560814,0.666721940041,0.0257098525763,-0.744853377342
1508194508248508448,,186,,1508194508,247145891,0,,,1918.66259766,227.397705078,-1013.0123291,,-0.00365030765533,0.666679620743,0.02614518255,-0.744876742363
1508194508270160792,,187,,1508194508,267564058,0,,,1918.80639648,227.699951172,-1012.99304199,,-0.00363585352898,0.666707575321,0.0259445756674,-0.74485886097
1508194508289615063,,188,,1508194508,287683010,0,,,1918.99560547,227.845214844,-1013.02600098,,-0.00351873040199,0.666682898998,0.0258800983429,-0.744883716106
1508194508308706104,,189,,1508194508,306860923,0,,,1918.96606445,227.733398438,-1013.04821777,,-0.0037342607975,0.666705965996,0.0261388197541,-0.744853019714
1508194508329753761,,190,,1508194508,327567100,0,,,1918.77734375,227.508300781,-1013.09179688,,-0.00346505641937,0.666809678078,0.0258404091001,-0.744771897793
1508194508349852198,,191,,1508194508,347356081,0,,,1918.65380859,227.437988281,-1013.18591309,,-0.00357022881508,0.666714668274,0.0257291719317,-0.744860291481
1508194508370554490,,192,,1508194508,367580890,0,,,1918.69335938,227.473876953,-1013.16601562,,-0.00359964370728,0.666668176651,0.0259456858039,-0.744894146919
1508194508396723292,,193,,1508194508,394557952,0,,,1918.81018066,227.60546875,-1013.02478027,,-0.00370232760906,0.666744351387,0.026326097548,-0.744812190533
1508194508408314282,,194,,1508194508,406641006,0,,,1918.79455566,227.763427734,-1013.02209473,,-0.00339756906033,0.666828036308,0.0263120085001,-0.744739234447
1508194508427836052,,195,,1508194508,425904989,0,,,1918.87609863,227.793701172,-1013.01647949,,-0.00347508490086,0.666704654694,0.0260830074549,-0.744857311249
1508194508446829594,,196,,1508194508,445317029,0,,,1918.7923584,227.566650391,-1013.02087402,,-0.00372840464115,0.666788220406,0.026042625308,-0.744782805443
1508194508464615011,,197,,1508194508,464106082,0,,,1918.6171875,227.368652344,-1013.00915527,,-0.00365819036961,0.666794300079,0.0258334651589,-0.74478495121
1508194508484491573,,198,,1508194508,483840942,0,,,1917.9465332,226.768310547,-1013.63317871,,-0.00536479055882,0.666718125343,0.0295567959547,-0.744704306126
1508194508503990219,,199,,1508194508,503520965,0,,,1918.86706543,227.658935547,-1013.17077637,,-0.00344948470592,0.666686892509,0.0261053591967,-0.744872570038
1508194508524154386,,200,,1508194508,523655891,0,,,1919.0255127,227.830566406,-1013.03271484,,-0.00345554947853,0.666985809803,0.0261602550745,-0.744603037834
1508194508543576469,,201,,1508194508,543100118,0,,,1918.84216309,227.630126953,-1013.12243652,,-0.00335942208767,0.666842281818,0.0262974053621,-0.744727253914
1508194508563250271,,202,,1508194508,562824010,0,,,1918.77490234,227.374023438,-1013.08325195,,-0.0036042034626,0.666612267494,0.0261636227369,-0.744936466217
1508194508583093031,,203,,1508194508,582648992,0,,,1918.66906738,227.265136719,-1012.9876709,,-0.00390847027302,0.666788518429,0.0256973132491,-0.744793593884
1508194508602825636,,204,,1508194508,602408885,0,,,1918.62512207,227.350830078,-1012.98718262,,-0.00338043272495,0.666854679585,0.0259204655886,-0.744729220867
1508194508624081469,,205,,1508194508,623657941,0,,,1918.73791504,227.713867188,-1013.08691406,,-0.00349278748035,0.666768729687,0.0261391997337,-0.744798004627
1508194508642480011,,206,,1508194508,642014026,0,,,1918.93688965,227.846191406,-1013.05566406,,-0.00330123305321,0.666775882244,0.0263620615005,-0.744784474373
1508194508662177094,,207,,1508194508,661772966,0,,,1918.88049316,227.658203125,-1013.11035156,,-0.00355227291584,0.666795790195,0.0262500345707,-0.744769513607
1508194508682134333,,208,,1508194508,681648015,0,,,1918.67773438,227.374755859,-1013.12451172,,-0.0034099817276,0.666861653328,0.0260590240359,-0.744717895985
1508194508701826573,,209,,1508194508,701392889,0,,,1918.56323242,227.278320312,-1013.15368652,,-0.00369796156883,0.666803479195,0.0258212313056,-0.744776964188
1508194508721799438,,210,,1508194508,721312999,0,,,1918.67431641,227.458740234,-1013.23132324,,-0.00352551043034,0.666777312756,0.0260345190763,-0.744793832302
1508194508741735792,,211,,1508194508,741214990,0,,,1918.79309082,227.667236328,-1013.14562988,,-0.00337491929531,0.66674810648,0.026543147862,-0.744802713394
1508194508761389594,,212,,1508194508,760869979,0,,,1918.9095459,227.816162109,-1013.08898926,,-0.00348369777203,0.66674131155,0.0263871625066,-0.744813799858
1508194508781721781,,213,,1508194508,781183004,0,,,1918.8972168,227.71875,-1012.95471191,,-0.00348716974258,0.666812419891,0.0263613834977,-0.744751036167
1508194508800896625,,214,,1508194508,800415992,0,,,1918.74414062,227.373291016,-1013.00634766,,-0.0036935955286,0.666821777821,0.0261737853289,-0.744748234749
1508194508820860011,,215,,1508194508,820281982,0,,,1918.54797363,227.097167969,-1012.99816895,,-0.00350630283356,0.666963577271,0.0260827019811,-0.744625449181
1508194508840383031,,216,,1508194508,839951992,0,,,1918.4465332,226.883544922,-1012.6953125,,-0.00349728763103,0.667888581753,0.0283683314919,-0.743712186813
1508194508860264490,,217,,1508194508,859791040,0,,,1918.93859863,227.271484375,-1012.92346191,,-0.0040178745985,0.667181193829,0.0282991379499,-0.744346797466
1508194508880104281,,218,,1508194508,879657983,0,,,1919.07421875,227.796142578,-1013.22521973,,-0.00333476066589,0.666778206825,0.0264426469803,-0.744779467583
1508194508899608083,,219,,1508194508,899260997,0,,,1918.89685059,227.612548828,-1013.25366211,,-0.0032706707716,0.66688644886,0.0266421884298,-0.744675695896
1508194508919567771,,220,,1508194508,919126033,0,,,1918.66748047,227.268798828,-1013.20654297,,-0.00347462296486,0.666732668877,0.0264720395207,-0.74481844902
1508194508939355063,,221,,1508194508,938898086,0,,,1918.58544922,227.204833984,-1013.09130859,,-0.00344474613667,0.666901826859,0.0260182842612,-0.744683265686
1508194508960271521,,222,,1508194508,959871053,0,,,1918.59265137,227.402099609,-1013.00878906,,-0.00333864986897,0.666926503181,0.0262217819691,-0.744654476643
1508194508978904646,,223,,1508194508,978492975,0,,,1918.66589355,227.650390625,-1013.09423828,,-0.0038498789072,0.6670165658,0.0269436985254,-0.744545519352
1508194508999677198,,224,,1508194508,999280929,0,,,1918.99707031,227.869384766,-1013.08630371,,-0.00334946811199,0.666832685471,0.0266076698899,-0.744724750519
1508194509019911573,,225,,1508194509,19462108,0,,,1918.94018555,227.628417969,-1013.05651855,,-0.00363402068615,0.66702991724,0.0267546996474,-0.744541525841
1508194509038232510,,226,,1508194509,37837028,0,,,1918.66564941,227.191650391,-1013.12609863,,-0.00338186323643,0.666979491711,0.0266164764762,-0.744592785835
1508194509057983552,,227,,1508194509,57576894,0,,,1918.23022461,226.708496094,-1013.34179688,,-0.00461852550507,0.666897654533,0.0280598551035,-0.744606435299
1508194509077858292,,228,,1508194509,77476978,0,,,1918.73254395,227.352783203,-1013.08947754,,-0.00331696867943,0.667008280754,0.0260160192847,-0.74458861351
1508194509101296104,,229,,1508194509,100897073,0,,,1918.88195801,227.576660156,-1013.09619141,,-0.00325328111649,0.666951179504,0.0266858935356,-0.74461632967
1508194509118070740,,230,,1508194509,117331027,0,,,1918.87097168,227.797119141,-1013.07702637,,-0.00359366834164,0.667082309723,0.0265562906861,-0.744501888752
1508194509139101469,,231,,1508194509,138396978,0,,,1918.91748047,227.695068359,-1013.05603027,,-0.00343717634678,0.667007446289,0.0266407355666,-0.744566679001
1508194509159182562,,232,,1508194509,157563924,0,,,1918.74121094,227.371337891,-1013.10388184,,-0.00354947149754,0.666897952557,0.0267101973295,-0.744661688805
1508194509180378448,,233,,1508194509,177944898,0,,,1918.60998535,227.141357422,-1013.0871582,,-0.00322042405605,0.66702324152,0.0262732580304,-0.744566559792
1508194509198401312,,234,,1508194509,197187900,0,,,1918.59667969,227.263671875,-1013.1685791,,-0.00338228046894,0.666953086853,0.0263189524412,-0.744626998901
1508194509218696000,,235,,1508194509,217365980,0,,,1918.74951172,227.538818359,-1013.19592285,,-0.0032649487257,0.666948020458,0.0263263806701,-0.744631886482
1508194509240183969,,236,,1508194509,238984107,0,,,1918.95153809,227.705810547,-1013.15270996,,-0.00321908295155,0.666927397251,0.026768244803,-0.744634747505
1508194509258226885,,237,,1508194509,256736993,0,,,1918.91894531,227.737792969,-1013.15270996,,-0.00295677781105,0.667063951492,0.0267619118094,-0.744513750076
1508194509277809125,,238,,1508194509,276536941,0,,,1918.65075684,227.404541016,-1013.13427734,,-0.00339105725288,0.66691672802,0.0265540853143,-0.744651257992
1508194509297968917,,239,,1508194509,296315908,0,,,1918.51416016,227.082763672,-1013.13879395,,-0.00343796610832,0.666948795319,0.0264009907842,-0.744627714157
1508194509317783396,,240,,1508194509,316188097,0,,,1918.4420166,227.045166016,-1013.03491211,,-0.00350162386894,0.66706776619,0.0264443084598,-0.744519352913
1508194509338092979,,241,,1508194509,336658954,0,,,1918.6953125,227.458496094,-1013.13830566,,-0.00319021940231,0.666940689087,0.0263676345348,-0.7446372509
1508194509361576052,,242,,1508194509,357064962,0,,,1918.9699707,227.839355469,-1013.14611816,,-0.00311087071896,0.667014122009,0.0269489958882,-0.744550943375
1508194509377732667,,243,,1508194509,375976085,0,,,1918.97473145,227.804443359,-1013.10070801,,-0.0031506717205,0.667095720768,0.0268938019872,-0.744479835033
1508194509404039594,,244,,1508194509,402501106,0,,,1918.63989258,227.379394531,-1013.2298584,,-0.00318305194378,0.667117297649,0.0266837477684,-0.7444678545
1508194509417852198,,245,,1508194509,416703939,0,,,1918.43225098,226.966796875,-1013.22558594,,-0.00340972840786,0.66689324379,0.0264308452606,-0.744676589966
1508194509437487458,,246,,1508194509,436403989,0,,,1918.45397949,226.998046875,-1013.19897461,,-0.00335277616978,0.667006611824,0.0263415426016,-0.744578480721
1508194509457429333,,247,,1508194509,456202983,0,,,1918.68212891,227.474609375,-1013.14343262,,-0.00304487347603,0.667066156864,0.0266016572714,-0.74451726675
1508194509477565114,,248,,1508194509,476326942,0,,,1918.92712402,227.892822266,-1013.1751709,,-0.00306324660778,0.666972994804,0.0264997258782,-0.744604229927
1508194509496958187,,249,,1508194509,494599103,0,,,1919.00720215,227.803955078,-1013.05895996,,-0.00301615893841,0.667012631893,0.0269614458084,-0.744552314281
1508194509516784333,,250,,1508194509,514977931,0,,,1918.68444824,227.284179688,-1013.0994873,,-0.00330413877964,0.667045772076,0.0265881121159,-0.744534790516
1508194509535251416,,251,,1508194509,533394098,0,,,1918.42089844,226.879638672,-1013.12548828,,-0.00328736007214,0.667115390301,0.0266121849418,-0.744471669197
1508194509560158083,,252,,1508194509,553782939,0,,,1918.4465332,226.966308594,-1013.17419434,,-0.00330030918121,0.667054772377,0.0265465676785,-0.744528234005
1508194509576264489,,253,,1508194509,573802947,0,,,1918.71826172,227.401123047,-1013.19152832,,-0.00337468087673,0.667035460472,0.0267650708556,-0.744537353516
1508194509594993604,,254,,1508194509,593142032,0,,,1918.91479492,227.73828125,-1013.12536621,,-0.00311361253262,0.667093813419,0.027083478868,-0.744474649429
1508194509613964594,,255,,1508194509,612804889,0,,,1918.88208008,227.755371094,-1013.1730957,,-0.00321678817272,0.667117595673,0.0267673134804,-0.74446451664
1508194509633434177,,256,,1508194509,632380008,0,,,1918.75976562,227.458251953,-1013.21850586,,-0.00328555703163,0.666991949081,0.0269203707576,-0.744571149349
1508194509658094385,,257,,1508194509,654067039,0,,,1918.48681641,227.187744141,-1013.21838379,,-0.00342445075512,0.667029798031,0.0266399532557,-0.744546711445
1508194509680530583,,258,,1508194509,679733037,0,,,1918.38098145,227.052001953,-1013.17443848,,-0.00299252569675,0.667117834091,0.0265219807625,-0.744473934174
1508194509692412406,,259,,1508194509,691468000,0,,,1918.37646484,227.256591797,-1013.18835449,,-0.00242926180363,0.667033970356,0.0269807800651,-0.744534611702
1508194509712294125,,260,,1508194509,711158037,0,,,1918.10070801,227.477294922,-1013.15124512,,-0.00185370445251,0.666927158833,0.0277714729309,-0.744602799416
1508194509733683708,,261,,1508194509,731834888,0,,,1917.09509277,227.440673828,-1012.98925781,,-0.00204865634441,0.666788458824,0.028152525425,-0.744712233543
1508194509756333864,,262,,1508194509,754066944,0,,,1915.48156738,227.250488281,-1012.94799805,,-0.00245968997478,0.6665173769,0.0272721499205,-0.744986414909
1508194509774860583,,263,,1508194509,773416996,0,,,1913.89331055,227.132324219,-1012.79296875,,-0.00308333337307,0.666063845158,0.0265977233648,-0.745413959026
1508194509791572875,,264,,1508194509,790505886,0,,,1912.5748291,227.112792969,-1012.7310791,,-0.00256088376045,0.665460348129,0.0260381549597,-0.745974600315
1508194509813819281,,265,,1508194509,812813997,0,,,1911.39660645,227.406494141,-1012.54675293,,-0.00188580155373,0.664700508118,0.0260819420218,-0.746652126312
1508194509837435218,,266,,1508194509,834419965,0,,,1910.09411621,227.422851562,-1011.81005859,,-0.00143307447433,0.664862811565,0.0290989354253,-0.746397018433
1508194509852081468,,267,,1508194509,850452899,0,,,1909.21179199,227.690185547,-1012.35559082,,-0.00248542428017,0.661627829075,0.0290990695357,-0.749263465405
1508194509872630166,,268,,1508194509,870111942,0,,,1907.88171387,228.079345703,-1011.75793457,,-0.00144828855991,0.660566568375,0.028076864779,-0.750240921974
1508194509891446312,,269,,1508194509,889750003,0,,,1906.11999512,227.839355469,-1011.03186035,,-0.000511437654495,0.659418404102,0.0264118984342,-0.751311779022
1508194509910747041,,270,,1508194509,909601926,0,,,1904.46972656,227.692626953,-1010.46875,,-0.000241577625275,0.657444298267,0.0253414139152,-0.753076672554
1508194509931862510,,271,,1508194509,929903030,0,,,1902.97094727,227.868164062,-1009.89379883,,-0.000383913516998,0.655822634697,0.0252482965589,-0.754492640495
1508194509951075062,,272,,1508194509,949537992,0,,,1901.81005859,228.426025391,-1009.33154297,,0.000360459089279,0.654437422752,0.025624871254,-0.755681753159
1508194509978162875,,273,,1508194509,976427078,0,,,1900.57092285,228.825683594,-1008.95422363,,0.000838071107864,0.653281629086,0.0266560912132,-0.756645083427
1508194509990279750,,274,,1508194509,988636970,0,,,1898.79333496,228.734863281,-1008.45019531,,0.00141823291779,0.652139186859,0.0264514237642,-0.757636368275
1508194510009417979,,275,,1508194510,8394956,0,,,1895.91821289,227.606933594,-1008.63549805,,-0.000698626041412,0.650450229645,0.0296439528465,-0.758969843388
1508194510029761625,,276,,1508194510,28431892,0,,,1894.14550781,228.102539062,-1007.28942871,,0.000512152910233,0.649669826031,0.0258346199989,-0.759777188301
1508194510049295948,,277,,1508194510,47998905,0,,,1892.16271973,228.477539062,-1006.74450684,,0.000508487224579,0.648679614067,0.0257153660059,-0.760626852512
1508194510070528031,,278,,1508194510,68892955,0,,,1890.27441406,228.942626953,-1006.26965332,,0.000952482223511,0.647557318211,0.0261090025306,-0.761568725109
1508194510089390166,,279,,1508194510,87604045,0,,,1888.18310547,229.160400391,-1005.76501465,,0.00145740807056,0.646290957928,0.0264222919941,-0.762632012367
1508194510108767302,,280,,1508194510,107495069,0,,,1885.71582031,229.069824219,-1005.2454834,,0.00127969682217,0.645021796227,0.0262375995517,-0.763712465763
1508194510129885687,,281,,1508194510,127671003,0,,,1883.12573242,228.877685547,-1004.52062988,,0.000533163547516,0.643879890442,0.0261740088463,-0.76467859745
1508194510149838395,,282,,1508194510,148185968,0,,,1880.45544434,228.771240234,-1003.64172363,,0.000686749815941,0.642676532269,0.0259115248919,-0.765698969364
1508194510174147770,,283,,1508194510,167485952,0,,,1877.17504883,228.21875,-1003.59484863,,-0.000877186655998,0.640809297562,0.0294960588217,-0.767132759094
1508194510188395479,,284,,1508194510,186796903,0,,,1875.22241211,229.242919922,-1002.22265625,,0.000849515199661,0.639849722385,0.0260321199894,-0.768058538437
1508194510207176312,,285,,1508194510,206204891,0,,,1872.86376953,229.465332031,-1001.45715332,,0.0013198107481,0.638440310955,0.026487223804,-0.769214212894
1508194510228938864,,286,,1508194510,226732015,0,,,1869.9901123,229.188720703,-1001.0456543,,0.00107803940773,0.636850237846,0.0278201848269,-0.770484805107
1508194510249212614,,287,,1508194510,246876955,0,,,1867.03320312,229.356445312,-1000.01184082,,0.00136369466782,0.635440707207,0.0265517830849,-0.771691799164
1508194510270142510,,288,,1508194510,269030094,0,,,1864.10693359,229.436279297,-999.055664062,,0.00137107074261,0.633630216122,0.0261049345136,-0.773194313049
1508194510285945479,,289,,1508194510,285195112,0,,,1861.11193848,229.455322266,-998.290649414,,0.00130331516266,0.632508397102,0.0256155058742,-0.774128675461
1508194510305722093,,290,,1508194510,304945945,0,,,1858.02490234,229.637207031,-997.457641602,,0.00208140909672,0.63083088398,0.0254472643137,-0.775500178337
1508194510327996468,,291,,1508194510,326003074,0,,,1855.02966309,229.990234375,-996.784301758,,0.00247122347355,0.62912940979,0.025215677917,-0.77688741684
1508194510349622562,,292,,1508194510,346652030,0,,,1852.06408691,230.194091797,-995.967163086,,0.00228463113308,0.627227783203,0.0258138924837,-0.778404653072
1508194510371186989,,293,,1508194510,369152069,0,,,1848.73278809,230.076171875,-994.976074219,,0.00242947041988,0.625807404518,0.0256610810757,-0.779551506042
1508194510390437250,,294,,1508194510,384975910,0,,,1845.02124023,229.797119141,-993.885009766,,0.00257208943367,0.624111175537,0.0251774787903,-0.780925631523
1508194510405916208,,295,,1508194510,404566049,0,,,1841.36254883,229.810302734,-992.758422852,,0.00231471657753,0.622198700905,0.0244726017118,-0.782473325729
1508194510425581989,,296,,1508194510,424288988,0,,,1837.95043945,230.061523438,-991.573852539,,0.00231608748436,0.620182394981,0.0248690471053,-0.784060001373
1508194510446220270,,297,,1508194510,444802999,0,,,1834.64611816,230.343994141,-990.508422852,,0.0028849542141,0.618253290653,0.0252273753285,-0.785568654537
1508194510468911572,,298,,1508194510,464612960,0,,,1830.8963623,230.423583984,-989.455566406,,0.00339472293854,0.616341173649,0.024518661201,-0.787090182304
1508194510484551729,,299,,1508194510,483298063,0,,,1827.04602051,230.271484375,-988.292480469,,0.00313663482666,0.61433082819,0.0243132188916,-0.788667619228
1508194510504552406,,300,,1508194510,503148078,0,,,1822.95068359,230.011474609,-987.016113281,,0.00321444869041,0.61218804121,0.0242217555642,-0.790334582329
1508194510524792510,,301,,1508194510,523058891,0,,,1818.99462891,230.135742188,-985.686767578,,0.00315219163895,0.610389113426,0.0240999907255,-0.791728854179
1508194510548577406,,302,,1508194510,544209003,0,,,1815.08935547,230.405029297,-984.174682617,,0.00334772467613,0.608377277851,0.0241615697742,-0.793273031712
1508194510565402770,,303,,1508194510,563355922,0,,,1811.23583984,230.606933594,-982.677124023,,0.00295093655586,0.605997860432,0.0243156924844,-0.795089006424
1508194510584507770,,304,,1508194510,582484006,0,,,1807.13012695,230.531738281,-981.137084961,,0.00280228257179,0.60373622179,0.0249077528715,-0.796790063381
1508194510603829906,,305,,1508194510,602459907,0,,,1803.07446289,230.336669922,-979.675292969,,0.00316393375397,0.601467907429,0.0248800069094,-0.798503160477
1508194510627618343,,306,,1508194510,622195959,0,,,1798.98730469,230.338867188,-977.884155273,,0.00313553214073,0.599174022675,0.0248133689165,-0.800228059292
1508194510644019020,,307,,1508194510,642159938,0,,,1794.71801758,230.305419922,-976.010498047,,0.00214615464211,0.596953630447,0.0250634551048,-0.801881253719
1508194510673845531,,308,,1508194510,672463893,0,,,1790.3458252,230.530273438,-974.369995117,,0.00215280056,0.594322681427,0.0251273140311,-0.803831160069
1508194510683211364,,309,,1508194510,681792974,0,,,1786.44714355,230.719970703,-972.864379883,,0.00275921821594,0.592499136925,0.0251614749432,-0.80517321825
1508194510702610583,,310,,1508194510,701189994,0,,,1782.52392578,230.624023438,-970.927856445,,0.00299465656281,0.590202450752,0.0259581804276,-0.806832134724
1508194510722149489,,311,,1508194510,720915079,0,,,1778.23950195,230.581054688,-968.937866211,,0.00216266512871,0.58788305521,0.0267403647304,-0.808501005173
1508194510749671468,,312,,1508194510,742002010,0,,,1773.76293945,230.688964844,-967.006347656,,0.00154930353165,0.585008442402,0.0268968343735,-0.810579538345
1508194510772751312,,313,,1508194510,771030902,0,,,1770.01220703,230.99609375,-965.232543945,,0.00251349806786,0.582700431347,0.0270746424794,-0.812232077122
1508194510781876208,,314,,1508194510,780359983,0,,,1765.67907715,230.892822266,-963.163085938,,0.00247180461884,0.580335557461,0.0271854922175,-0.813919782639
1508194510801381468,,315,,1508194510,800194025,0,,,1760.85180664,230.719482422,-961.126953125,,0.00221240520477,0.577535867691,0.0271671712399,-0.815910220146
1508194510822813499,,316,,1508194510,819839954,0,,,1756.55712891,230.932861328,-959.419799805,,0.00268551707268,0.574557721615,0.0269508510828,-0.818015873432
1508194510843945426,,317,,1508194510,840513944,0,,,1752.85192871,231.243652344,-957.55456543,,0.00361996889114,0.572476863861,0.0279652476311,-0.819435954094
1508194510862454489,,318,,1508194510,860771894,0,,,1748.32946777,231.117431641,-955.301025391,,0.00382193922997,0.569577634335,0.0275452286005,-0.821466982365
1508194510881961572,,319,,1508194510,880531072,0,,,1743.3215332,231.115478516,-953.012207031,,0.00323194265366,0.566353976727,0.0270315185189,-0.823712348938
1508194510906220322,,320,,1508194510,905138969,0,,,1738.97509766,231.330322266,-951.02355957,,0.00301241874695,0.56282043457,0.026862077415,-0.826137065887
1508194510919726260,,321,,1508194510,918792963,0,,,1734.7355957,231.343994141,-948.657714844,,0.00342065095901,0.56098741293,0.0285308882594,-0.82732540369
1508194510940287510,,322,,1508194510,938858985,0,,,1730.02331543,231.288330078,-946.099853516,,0.00375980138779,0.558023810387,0.0287956297398,-0.829316616058
1508194510961221885,,323,,1508194510,959345102,0,,,1725.01013184,231.411865234,-944.02355957,,0.00389176607132,0.554206430912,0.0282852947712,-0.831889510155
1508194510981324072,,324,,1508194510,979836940,0,,,1720.59399414,231.727050781,-941.585083008,,0.00297105312347,0.550662696362,0.0279980748892,-0.834252715111
1508194511002254697,,325,,1508194510,998758077,0,,,1716.12768555,231.584716797,-938.994506836,,0.00349846482277,0.548775374889,0.02917355299,-0.83545333147
1508194511018971676,,326,,1508194511,17806053,0,,,1710.74194336,231.569824219,-936.274536133,,0.00476548075676,0.545444190502,0.0284444019198,-0.837650775909
1508194511040785322,,327,,1508194511,38161039,0,,,1704.95092773,231.881347656,-933.875732422,,0.00412893295288,0.54137814045,0.0274221301079,-0.840321779251
1508194511070525530,,328,,1508194511,68908929,0,,,1700.65600586,231.837646484,-931.038085938,,0.00444918870926,0.537864089012,0.0288487821817,-0.842526078224
1508194511078972770,,329,,1508194511,77577114,0,,,1696.11560059,231.896240234,-928.219726562,,0.0051956474781,0.535546004772,0.0293643996119,-0.843979299068
1508194511098721312,,330,,1508194511,97398042,0,,,1690.97119141,231.954833984,-925.252197266,,0.00623324513435,0.531581938267,0.0283122733235,-0.846510648727
1508194511122217041,,331,,1508194511,117712974,0,,,1685.5723877,232.177001953,-922.620727539,,0.00610217452049,0.527176141739,0.0274047479033,-0.849291980267
1508194511138279437,,332,,1508194511,136676073,0,,,1680.57971191,232.144775391,-919.380859375,,0.00541004538536,0.524231731892,0.0286014154553,-0.851078033447
1508194511161607093,,333,,1508194511,156665086,0,,,1675.65393066,232.212890625,-916.139282227,,0.00655448436737,0.521782755852,0.0283442959189,-0.852582275867
1508194511177760739,,334,,1508194511,176462888,0,,,1670.61376953,232.33203125,-912.895629883,,0.00758320093155,0.518086850643,0.0278425514698,-0.854841053486
1508194511201466051,,335,,1508194511,197397947,0,,,1665.68286133,232.413085938,-909.647827148,,0.00691029429436,0.51361978054,0.0289792940021,-0.857500553131
1508194511218346208,,336,,1508194511,216811895,0,,,1661.16369629,232.323486328,-906.256103516,,0.00647559762001,0.510037124157,0.0318587496877,-0.85953772068
1508194511240762458,,337,,1508194511,236511945,0,,,1656.38378906,232.502929688,-902.604370117,,0.00649002194405,0.506948232651,0.0325992628932,-0.861335396767
1508194511258503343,,338,,1508194511,255697011,0,,,1651.34289551,232.447998047,-898.948120117,,0.00735247135162,0.502656340599,0.032062061131,-0.863860309124
1508194511276819801,,339,,1508194511,275130987,0,,,1645.9708252,232.367919922,-895.256225586,,0.00575861334801,0.498936891556,0.03262591362,-0.866004824638
1508194511297351207,,340,,1508194511,295162916,0,,,1641.33520508,232.433105469,-891.352905273,,0.00574144721031,0.495842516422,0.0341286584735,-0.867722630501
1508194511316091364,,341,,1508194511,314759016,0,,,1636.7401123,232.609619141,-887.805053711,,0.00648438930511,0.492878496647,0.0345443859696,-0.869387984276
1508194511336238291,,342,,1508194511,334494113,0,,,1631.96374512,232.712158203,-884.028930664,,0.0064797103405,0.489084988832,0.0351629853249,-0.871502995491
1508194511356155687,,343,,1508194511,354492902,0,,,1626.46105957,232.777832031,-880.628051758,,0.00582754611969,0.484916061163,0.0345156118274,-0.873859882355
1508194511376287197,,344,,1508194511,374440908,0,,,1621.39611816,233.197753906,-876.725341797,,0.00620752573013,0.481751948595,0.0325505360961,-0.875680923462
1508194511396880010,,345,,1508194511,394305944,0,,,1616.91992188,233.349365234,-873.005737305,,0.00670224428177,0.478783488274,0.0324865952134,-0.877306044102
1508194511417212197,,346,,1508194511,414282083,0,,,1611.92834473,233.189697266,-868.618164062,,0.00728103518486,0.474748194218,0.0323125422001,-0.879498183727
1508194511435611312,,347,,1508194511,433872938,0,,,1606.43334961,233.205810547,-864.671630859,,0.00669100880623,0.469810724258,0.031003035605,-0.882197201252
1508194511455836520,,348,,1508194511,453684091,0,,,1601.31750488,233.048095703,-860.974609375,,0.00728020071983,0.465346217155,0.0317005589604,-0.884530842304
1508194511476185426,,349,,1508194511,474242925,0,,,1596.86889648,233.268798828,-856.563110352,,0.00667598843575,0.463160097599,0.0321467965841,-0.885666131973
1508194511494935166,,350,,1508194511,494357109,0,,,1592.07080078,232.840332031,-851.932861328,,0.00705569982529,0.459530651569,0.0319169387221,-0.887560129166
1508194511512516624,,351,,1508194511,511976957,0,,,1586.12670898,232.795654297,-847.801269531,,0.00733137130737,0.453794240952,0.0299917906523,-0.890571475029
1508194511534233707,,352,,1508194511,532741069,0,,,1581.26367188,232.989746094,-843.310791016,,0.00699007511139,0.449828863144,0.0307592451572,-0.892557680607
1508194511554592197,,353,,1508194511,552356004,0,,,1576.86669922,232.975097656,-838.288818359,,0.00691276788712,0.447543442249,0.0329782143235,-0.893627166748
1508194511575795530,,354,,1508194511,572820901,0,,,1571.69628906,232.826416016,-833.402587891,,0.00721547007561,0.443010628223,0.032130099833,-0.895911335945
1508194511595646207,,355,,1508194511,594324111,0,,,1565.92456055,233.143798828,-829.117797852,,0.00692707300186,0.436719417572,0.0298591628671,-0.899075448513
1508194511613591259,,356,,1508194511,611659049,0,,,1561.36791992,233.471191406,-824.459106445,,0.00673976540565,0.432415544987,0.0308240130544,-0.901122272015
1508194511632899801,,357,,1508194511,631572961,0,,,1556.73583984,233.356689453,-819.280273438,,0.00650265812874,0.430613964796,0.0325473546982,-0.901925683022
1508194511652682666,,358,,1508194511,651268005,0,,,1551.36193848,232.986083984,-813.887573242,,0.00842788815498,0.425450503826,0.030912309885,-0.90441429615
1508194511672775843,,359,,1508194511,671104907,0,,,1545.70043945,233.065429688,-809.219238281,,0.00714039802551,0.419131785631,0.0304623097181,-0.907386243343
1508194511692286832,,360,,1508194511,691296100,0,,,1541.34472656,233.544677734,-803.867797852,,0.00576162338257,0.415474921465,0.0327042341232,-0.908998370171
1508194511711306936,,361,,1508194511,710309028,0,,,1537.17004395,233.652587891,-798.494628906,,0.00625014305115,0.412906676531,0.0335608571768,-0.910133361816
1508194511732402874,,362,,1508194511,730700969,0,,,1531.96337891,233.689697266,-793.061401367,,0.00760665535927,0.407301157713,0.0305335894227,-0.912751674652
1508194511752293082,,363,,1508194511,750463962,0,,,1526.01367188,233.958740234,-788.151000977,,0.00635004043579,0.400590837002,0.0286009311676,-0.915788531303
1508194511780357874,,364,,1508194511,778707981,0,,,1521.1875,233.885498047,-782.625244141,,0.00541546940804,0.397233098745,0.031878516078,-0.917147934437
1508194511789868291,,365,,1508194511,789355039,0,,,1516.80224609,233.783447266,-776.835693359,,0.00598037242889,0.394315242767,0.03168207407,-0.918409407139
1508194511809136989,,366,,1508194511,808650970,0,,,1511.88171387,233.514648438,-771.521118164,,0.00866556167603,0.38826918602,0.0293960869312,-0.921036362648
1508194511831307457,,367,,1508194511,829418897,0,,,1507.06494141,233.79296875,-766.324584961,,0.00670087337494,0.382361352444,0.029617279768,-0.923513770103
1508194511850163239,,368,,1508194511,849011898,0,,,1502.82617188,233.939697266,-760.713989258,,0.00621625781059,0.378240078688,0.0322862118483,-0.92512345314
1508194511879633811,,369,,1508194511,877726078,0,,,1498.04345703,233.950927734,-754.777954102,,0.00798055529594,0.374698787928,0.0315211564302,-0.926576256752
1508194511890962978,,370,,1508194511,888962984,0,,,1493.09179688,233.668457031,-748.740234375,,0.00850677490234,0.368200540543,0.0296890288591,-0.929233372211
1508194511910030478,,371,,1508194511,908727884,0,,,1488.01074219,233.720703125,-742.962158203,,0.00644764304161,0.361952066422,0.0300638228655,-0.931689500809
1508194511933317822,,372,,1508194511,930604934,0,,,1484.05224609,234.229003906,-736.436767578,,0.00598740577698,0.358351707458,0.0320100188255,-0.933018445969
1508194511955947926,,373,,1508194511,953795909,0,,,1479.79711914,234.555908203,-730.241333008,,0.00717285275459,0.35346236825,0.0328215062618,-0.934845328331
1508194511970128186,,374,,1508194511,968230962,0,,,1475.63330078,234.762939453,-723.72277832,,0.00775611400604,0.348380923271,0.0322620123625,-0.936765551567
1508194511990599853,,375,,1508194511,988334894,0,,,1470.66186523,234.639160156,-717.701538086,,0.00537657737732,0.341156542301,0.0310133695602,-0.939479291439
