rosbagTimestamp,header,seq,stamp,secs,nsecs,frame_id,pose,position,x,y,z,orientation,x,y,z,w
1508191760297673385,,1,,1508191760,295137882,0,,,2359.73046875,218.133056641,-482.139129639,,0.00812444090843,0.628572881222,0.01546831429,-0.77755433321
1508191760315758125,,2,,1508191760,314259052,0,,,2359.47607422,217.533935547,-482.077972412,,0.00807090103626,0.628857135773,0.0148448869586,-0.777337312698
1508191760335182083,,3,,1508191760,334029912,0,,,2359.40234375,217.132080078,-482.218292236,,0.00758917629719,0.628523468971,0.0151662826538,-0.777605712414
1508191760359950104,,4,,1508191760,354883909,0,,,2359.55712891,217.426757812,-482.15725708,,0.00814354419708,0.628527522087,0.0147344246507,-0.777605175972
1508191760387331145,,5,,1508191760,374778985,0,,,2359.74902344,217.990966797,-482.076873779,,0.00802654027939,0.628588676453,0.0155984461308,-0.777540147305
1508191760397943750,,6,,1508191760,395689010,0,,,2359.89355469,218.463134766,-482.179595947,,0.00781536102295,0.628540158272,0.016192778945,-0.77756935358
1508191760414545104,,7,,1508191760,413326978,0,,,2359.68945312,218.220214844,-482.19052124,,0.00732886791229,0.628592312336,0.0158630982041,-0.777538716793
1508191760433672135,,8,,1508191760,432883024,0,,,2359.40136719,217.484375,-482.224395752,,0.0080087184906,0.628546059132,0.0149112716317,-0.777588129044
1508191760453035520,,9,,1508191760,452321052,0,,,2359.3828125,217.088623047,-482.16885376,,0.00837028026581,0.628609597683,0.0142767578363,-0.777544856071
1508191760475688645,,10,,1508191760,473814010,0,,,2359.61328125,217.263916016,-482.027130127,,0.00769045948982,0.628615140915,0.015205077827,-0.777529895306
1508191760500848385,,11,,1508191760,494209051,0,,,2359.92773438,218.004882812,-482.018890381,,0.00727671384811,0.62857824564,0.0157017111778,-0.777553796768
1508191760512601406,,12,,1508191760,511992931,0,,,2359.94824219,218.227294922,-482.005157471,,0.00777411460876,0.628540158272,0.0159238874912,-0.77757525444
1508191760532249531,,13,,1508191760,531558990,0,,,2359.75048828,218.157226562,-482.163299561,,0.00790953636169,0.628542244434,0.0157370716333,-0.777575969696
1508191760553035677,,14,,1508191760,551395893,0,,,2359.58520508,217.63671875,-482.131500244,,0.00788888335228,0.628561198711,0.015134088695,-0.77757281065
1508191760574350781,,15,,1508191760,572366952,0,,,2359.34863281,217.061767578,-482.135284424,,0.00814458727837,0.628580391407,0.0148328468204,-0.777560472488
1508191760595139427,,16,,1508191760,593281984,0,,,2359.40332031,217.133544922,-482.040374756,,0.00808843970299,0.628592312336,0.0147376209497,-0.777553260326
1508191760612078177,,17,,1508191760,611304998,0,,,2359.77587891,217.875488281,-482.066680908,,0.00768296420574,0.628591060638,0.0155711397529,-0.777542233467
1508191760631597604,,18,,1508191760,630776882,0,,,2359.89599609,218.241943359,-482.04019165,,0.00735659897327,0.628522157669,0.0159510672092,-0.777593374252
1508191760654102343,,19,,1508191760,651391983,0,,,2359.81542969,218.263427734,-482.137786865,,0.00719624757767,0.628446638584,0.0160458162427,-0.777653932571
1508191760675622239,,20,,1508191760,671511888,0,,,2359.60888672,217.637207031,-482.103668213,,0.00775377452374,0.628655850887,0.0152917653322,-0.777494728565
1508191760696546875,,21,,1508191760,692732095,0,,,2359.41064453,217.184326172,-482.104888916,,0.00750613212585,0.628650605679,0.0148897990584,-0.777509093285
1508191760710081822,,22,,1508191760,709541082,0,,,2359.48730469,217.190185547,-482.08291626,,0.00810550153255,0.628567993641,0.0148255378008,-0.777571082115
1508191760730377291,,23,,1508191760,729831933,0,,,2359.70263672,217.804443359,-482.097381592,,0.00806310772896,0.628552556038,0.0151451900601,-0.77757781744
1508191760752184999,,24,,1508191760,750468015,0,,,2360.02539062,218.473388672,-482.210479736,,0.00723417103291,0.628490030766,0.0162069052458,-0.777615189552
1508191760772121979,,25,,1508191760,770173072,0,,,2359.94189453,218.198974609,-482.134918213,,0.00770841538906,0.628552556038,0.0159758552909,-0.777564823627
1508191760798130364,,26,,1508191760,795949935,0,,,2359.68432617,217.509033203,-482.150787354,,0.00776228308678,0.62860584259,0.0153503715992,-0.777533710003
1508191760811226562,,27,,1508191760,809087038,0,,,2359.33349609,216.900390625,-482.139129639,,0.00843691825867,0.628587841988,0.0146901160479,-0.777554154396
1508191760829449791,,28,,1508191760,828696966,0,,,2359.47949219,216.992675781,-482.042327881,,0.00738006830215,0.628645658493,0.0149456337094,-0.77751326561
1508191760848886770,,29,,1508191760,848211050,0,,,2359.69873047,217.651123047,-481.951812744,,0.0077456086874,0.628556251526,0.0155186578631,-0.777570664883
1508191760870817760,,30,,1508191760,869102001,0,,,2360.04345703,218.212890625,-481.937774658,,0.00791898369789,0.628524720669,0.0156470760703,-0.777591824532
1508191760895600520,,31,,1508191760,890587091,0,,,2360.02783203,218.478515625,-482.136749268,,0.00720402598381,0.628556370735,0.0160083845258,-0.77756601572
1508191760909337343,,32,,1508191760,908086061,0,,,2359.70166016,217.825195312,-482.176239014,,0.00783902406693,0.628559827805,0.0153632834554,-0.777570068836
1508191760928687551,,33,,1508191760,927723884,0,,,2359.33203125,217.085205078,-482.190032959,,0.0079669803381,0.628553986549,0.0146397128701,-0.777587354183
1508191760947895833,,34,,1508191760,947288036,0,,,2359.18994141,216.748291016,-482.06552124,,0.00829356908798,0.628472387791,0.0146593376994,-0.777649581432
1508191760973442916,,35,,1508191760,968609094,0,,,2359.79443359,217.589599609,-482.028106689,,0.00783221423626,0.628607809544,0.0152424201369,-0.777533590794
1508191760997220051,,36,,1508191760,995425939,0,,,2360.12280273,218.357666016,-481.968902588,,0.00683575868607,0.628551840782,0.0164834856987,-0.777562856674
1508191761008529791,,37,,1508191761,7280111,0,,,2359.9987793,218.416259766,-482.064117432,,0.00788168609142,0.628512263298,0.015893407166,-0.777597308159
1508191761028132447,,38,,1508191761,26912927,0,,,2359.63427734,217.802001953,-482.192779541,,0.00772878527641,0.628557443619,0.0154772028327,-0.777570784092
1508191761047445781,,39,,1508191761,46458959,0,,,2359.32373047,217.031005859,-482.181610107,,0.00775656104088,0.628537118435,0.0151728615165,-0.777592837811
1508191761068585156,,40,,1508191761,67153930,0,,,2359.31298828,216.905273438,-482.181793213,,0.00781735777855,0.628554582596,0.014769397676,-0.777585923672
1508191761088415312,,41,,1508191761,86366891,0,,,2359.65283203,217.651611328,-482.034576416,,0.00798535346985,0.628562688828,0.0151211172342,-0.777570843697
1508191761108690416,,42,,1508191761,106575965,0,,,2360.06030273,218.493408203,-481.994781494,,0.00786919891834,0.628461658955,0.015535056591,-0.777645528316
1508191761131571406,,43,,1508191761,129913091,0,,,2360.00585938,218.576660156,-481.961395264,,0.00691582262516,0.628585755825,0.0160214751959,-0.777544438839
1508191761146269374,,44,,1508191761,145368099,0,,,2359.63745117,217.8359375,-482.146636963,,0.00776670873165,0.628581464291,0.0155944153666,-0.777548611164
1508191761166353072,,45,,1508191761,165297985,0,,,2359.3359375,217.044433594,-482.220001221,,0.0078953653574,0.628603756428,0.0148388817906,-0.777544021606
1508191761187955624,,46,,1508191761,186523914,0,,,2359.3671875,216.946289062,-482.287872314,,0.00725243985653,0.628629803658,0.0152570381761,-0.777521252632
1508191761205534218,,47,,1508191761,204653978,0,,,2359.64697266,217.586425781,-482.192840576,,0.00789104402065,0.628532111645,0.0151303336024,-0.777596354485
1508191761224728645,,48,,1508191761,224167108,0,,,2359.97094727,218.379150391,-482.107574463,,0.00729574263096,0.628574609756,0.0159902498126,-0.777550697327
1508191761244329947,,49,,1508191761,243788957,0,,,2359.93261719,218.706298828,-482.226104736,,0.0076297968626,0.628477334976,0.0161084607244,-0.777623713017
1508191761266369010,,50,,1508191761,264889001,0,,,2359.61474609,218.150390625,-482.251251221,,0.00761698186398,0.628521442413,0.0156076103449,-0.777598381042
1508191761303179999,,51,,1508191761,300359964,0,,,2359.2800293,217.146484375,-482.245025635,,0.00758434832096,0.628518760204,0.0154754891992,-0.777603387833
1508191761307747395,,52,,1508191761,305519104,0,,,2359.02416992,216.968017578,-482.339141846,,0.00794731080532,0.627912700176,0.014204762876,-0.778113603592
1508191761327207239,,53,,1508191761,324878931,0,,,2359.60742188,217.456054688,-482.154693604,,0.00760784745216,0.628654837608,0.0152237936854,-0.777498185635
1508191761346096874,,54,,1508191761,345290899,0,,,2359.83789062,218.268066406,-482.109771729,,0.00769276916981,0.628598093987,0.0155979916453,-0.777535915375
1508191761364112968,,55,,1508191761,363046884,0,,,2359.88037109,218.668945312,-482.15725708,,0.00750167667866,0.62861263752,0.0156946703792,-0.777523994446
1508191761385499895,,56,,1508191761,383878946,0,,,2359.59863281,218.378662109,-482.382598877,,0.00732237100601,0.628598749638,0.0159046947956,-0.777532637119
1508191761405984895,,57,,1508191761,403711080,0,,,2359.39575195,217.706787109,-482.327545166,,0.00761289894581,0.628553032875,0.0150581672788,-0.777583599091
1508191761425243228,,58,,1508191761,423958063,0,,,2359.23144531,217.344238281,-482.351104736,,0.00757616758347,0.628521561623,0.0151077136397,-0.777608454227
1508191761443980364,,59,,1508191761,442729949,0,,,2359.43115234,217.586669922,-482.211578369,,0.00805529952049,0.628523230553,0.0150361433625,-0.777603805065
1508191761463464166,,60,,1508191761,462327957,0,,,2359.73486328,218.321533203,-482.206939697,,0.0074816942215,0.6285572052,0.0158684626222,-0.777565479279
1508191761483618749,,61,,1508191761,481941938,0,,,2359.82275391,218.473144531,-482.175445557,,0.00739307701588,0.628535151482,0.0161802917719,-0.777577638626
1508191761506090989,,62,,1508191761,504587888,0,,,2359.77783203,218.139160156,-482.238800049,,0.00771872699261,0.628570914268,0.0155551433563,-0.77755844593
1508191761523201353,,63,,1508191761,521683931,0,,,2359.55859375,217.472412109,-482.327667236,,0.00770969688892,0.628569126129,0.0152444913983,-0.777566194534
1508191761542301562,,64,,1508191761,541296958,0,,,2359.32421875,217.152832031,-482.323760986,,0.00766317546368,0.628655314445,0.01493011415,-0.777502894402
1508191761562317551,,65,,1508191761,561353921,0,,,2359.41552734,217.439208984,-482.269378662,,0.00771887600422,0.628632962704,0.015258744359,-0.777514100075
1508191761586055103,,66,,1508191761,581653118,0,,,2359.6640625,218.131103516,-482.205596924,,0.00774697959423,0.628535151482,0.0154925212264,-0.777588307858
1508191761604488280,,67,,1508191761,601840019,0,,,2359.86425781,218.6640625,-482.215484619,,0.00699837505817,0.62841629982,0.0159987583756,-0.777681231499
1508191761622101770,,68,,1508191761,620898962,0,,,2359.79980469,218.415039062,-482.208526611,,0.00737163424492,0.62853872776,0.0159325525165,-0.777580142021
1508191761640804635,,69,,1508191761,640057086,0,,,2359.59008789,217.748291016,-482.216400146,,0.00763183832169,0.628583788872,0.015238173306,-0.77755510807
1508191761660605832,,70,,1508191761,659799098,0,,,2359.34887695,217.299072266,-482.276885986,,0.00791253149509,0.628607749939,0.0149682164192,-0.777538180351
1508191761681389062,,71,,1508191761,680088996,0,,,2359.45410156,217.303710938,-482.225982666,,0.00748731195927,0.628572463989,0.0153978541493,-0.777562558651
1508191761707470416,,72,,1508191761,701970100,0,,,2359.64550781,217.779296875,-482.207183838,,0.0074890255928,0.628573000431,0.0156722664833,-0.777556538582
1508191761721078853,,73,,1508191761,719681978,0,,,2359.85302734,218.209960938,-482.210479736,,0.00763034820557,0.628582417965,0.0158734545112,-0.777543544769
1508191761740896457,,74,,1508191761,739654064,0,,,2359.75048828,218.46875,-482.380401611,,0.00747080147266,0.62851113081,0.0157608836889,-0.777604937553
1508191761760212135,,75,,1508191761,759102106,0,,,2359.20849609,218.202148438,-482.499542236,,0.0064644664526,0.627969801426,0.0160115733743,-0.778046131134
1508191761780059999,,76,,1508191761,778987884,0,,,2359.35791016,217.690917969,-482.331085205,,0.00780692696571,0.628581404686,0.015011459589,-0.777559697628
1508191761801825155,,77,,1508191761,799675941,0,,,2359.38964844,217.469970703,-482.247833252,,0.00799369812012,0.628582239151,0.0148998573422,-0.777559280396
1508191761819806197,,78,,1508191761,818646907,0,,,2359.62963867,217.572753906,-482.115753174,,0.00744850933552,0.628539979458,0.0155965462327,-0.777585148811
1508191761838464999,,79,,1508191761,837713003,0,,,2359.86035156,218.093261719,-482.102142334,,0.00725466012955,0.628500044346,0.0158464834094,-0.777614235878
1508191761858094791,,80,,1508191761,857530117,0,,,2359.88696289,218.215332031,-482.142852783,,0.0075703561306,0.628582000732,0.0157823115587,-0.777546346188
1508191761880090832,,81,,1508191761,878469944,0,,,2359.33984375,218.242675781,-482.396942139,,0.00662480294704,0.627972006798,0.0159954503179,-0.778043329716
1508191761908724166,,82,,1508191761,906323909,0,,,2359.41040039,217.702636719,-482.2472229,,0.00778621435165,0.628674387932,0.0151145234704,-0.777482628822
1508191761920771978,,83,,1508191761,918287992,0,,,2359.30102539,217.368164062,-482.301544189,,0.00769901275635,0.62861520052,0.015338011086,-0.777527213097
1508191761937520416,,84,,1508191761,936945915,0,,,2359.21289062,217.554199219,-482.3074646,,0.00692568719387,0.627880632877,0.0154546648264,-0.778125405312
1508191761969253072,,85,,1508191761,966240882,0,,,2359.74267578,217.954589844,-482.232147217,,0.00744467973709,0.628586947918,0.0158346071839,-0.77754253149
1508191761990372395,,86,,1508191761,988176107,0,,,2359.85693359,218.26171875,-482.141265869,,0.00733159482479,0.628509879112,0.0157781094313,-0.777607023716
1508191762008636093,,87,,1508191761,999598026,0,,,2359.81738281,218.24609375,-482.127471924,,0.00758709013462,0.628630816936,0.0155373811722,-0.777511537075
1508191762019615155,,88,,1508191762,17467021,0,,,2359.61108398,217.800048828,-482.097930908,,0.00760544836521,0.628870129585,0.0151087492704,-0.777326285839
1508191762038142082,,89,,1508191762,36998033,0,,,2359.39648438,217.294189453,-482.219207764,,0.00735931098461,0.628576517105,0.0152587965131,-0.777563273907
1508191762057125884,,90,,1508191762,56031942,0,,,2359.40771484,217.358398438,-482.2918396,,0.00756748020649,0.628619253635,0.015582665801,-0.777520179749
1508191762076669114,,91,,1508191762,75642108,0,,,2359.61987305,217.833251953,-482.237335205,,0.00750590860844,0.628565728664,0.0156728103757,-0.777562379837
1508191762100928124,,92,,1508191762,96218109,0,,,2359.89379883,218.327636719,-482.239349365,,0.00731739401817,0.628647208214,0.0163093209267,-0.777485132217
1508191762121919791,,93,,1508191762,120399951,0,,,2359.84960938,218.222412109,-482.209014893,,0.00768308341503,0.628602743149,0.0155622437596,-0.777532815933
1508191762136458905,,94,,1508191762,135210037,0,,,2359.53515625,217.759521484,-482.301422119,,0.00757859647274,0.6283172369,0.0153416395187,-0.777768969536
1508191762155773228,,95,,1508191762,154787063,0,,,2359.4934082,217.265136719,-482.284942627,,0.00804306566715,0.628618001938,0.0150594934821,-0.777526736259
1508191762177188072,,96,,1508191762,175542116,0,,,2359.4362793,217.321044922,-482.287384033,,0.00710996985435,0.628536701202,0.015586078167,-0.77759128809
1508191762206163176,,97,,1508191762,196002006,0,,,2359.52441406,217.828857422,-482.223480225,,0.00744313001633,0.628547430038,0.0156929418445,-0.777577280998
1508191762218285103,,98,,1508191762,215939044,0,,,2359.80712891,218.247314453,-482.112213135,,0.00779411196709,0.628554105759,0.0155236497521,-0.77757191658
1508191762233919374,,99,,1508191762,233335971,0,,,2359.74462891,218.534423828,-482.284210205,,0.0074245929718,0.628611862659,0.0156842321157,-0.777525544167
1508191762253679322,,100,,1508191762,253154039,0,,,2359.47070312,218.277832031,-482.353363037,,0.00733348727226,0.628695070744,0.0154978781939,-0.777462899685
1508191762275555468,,101,,1508191762,274005889,0,,,2359.38574219,217.696044922,-482.439056396,,0.00765097141266,0.628597736359,0.01520960778,-0.777544260025
1508191762300160103,,102,,1508191762,293749094,0,,,2359.29931641,217.336914062,-482.36026001,,0.00762739777565,0.628568947315,0.0153537988663,-0.777564883232
1508191762321813905,,103,,1508191762,319751977,0,,,2359.52001953,217.549072266,-482.210906982,,0.0074407607317,0.628592014313,0.0156542435288,-0.777542054653
1508191762333018020,,104,,1508191762,332448959,0,,,2359.75,218.120361328,-482.137481689,,0.00720338523388,0.628566265106,0.0159506946802,-0.777559101582
1508191762352692343,,105,,1508191762,352216958,0,,,2359.8984375,218.407958984,-482.130706787,,0.00785733759403,0.628558635712,0.0155722498894,-0.777566552162
1508191762374686770,,106,,1508191762,372812986,0,,,2359.67871094,218.339599609,-482.329376221,,0.0076757222414,0.628555417061,0.0153918340802,-0.777574539185
1508191762393769426,,107,,1508191762,392293930,0,,,2359.39990234,217.736572266,-482.375762939,,0.00764261186123,0.628547847271,0.0153699293733,-0.777581572533
1508191762419445520,,108,,1508191762,413114070,0,,,2359.26855469,217.368896484,-482.466461182,,0.0076325237751,0.628579199314,0.0152865946293,-0.777557909489
1508191762433305051,,109,,1508191762,432109117,0,,,2359.40625,217.4609375,-482.320037842,,0.00758351385593,0.628561198711,0.015507414937,-0.777568459511
1508191762453013228,,110,,1508191762,451867103,0,,,2359.7253418,218.097167969,-482.219696045,,0.00766056776047,0.628555119038,0.0155342370272,-0.777572095394
1508191762472287499,,111,,1508191762,471338033,0,,,2359.9074707,218.494873047,-482.062225342,,0.00712098181248,0.628620743752,0.0157642513514,-0.777519583702
1508191762493857447,,112,,1508191762,492274045,0,,,2359.7890625,218.246337891,-482.133209229,,0.00766384601593,0.628602266312,0.0155999809504,-0.777532577515
1508191762521809686,,113,,1508191762,512186050,0,,,2359.49414062,217.673339844,-482.257415771,,0.00764894485474,0.628570258617,0.0152315124869,-0.77756601572
1508191762532592603,,114,,1508191762,531352996,0,,,2359.26245117,217.236083984,-482.357696533,,0.00715094804764,0.628568828106,0.0156797915697,-0.777562975883
1508191762551783749,,115,,1508191762,550750970,0,,,2359.32592773,217.383544922,-482.365081787,,0.00750111043453,0.62859582901,0.0157850012183,-0.777535676956
1508191762571280520,,116,,1508191762,570270061,0,,,2359.70703125,218.162109375,-482.302947998,,0.00725026428699,0.628631830215,0.0159863382578,-0.777505040169
1508191762592897655,,117,,1508191762,591135978,0,,,2359.90332031,218.622802734,-482.345794678,,0.00759063661098,0.628497302532,0.0157770588994,-0.777614653111
1508191762621900207,,118,,1508191762,619956016,0,,,2359.72509766,218.33203125,-482.294586182,,0.00755725800991,0.628651678562,0.0155061408877,-0.77749568224
1508191762632480728,,119,,1508191762,631012916,0,,,2359.42089844,217.587402344,-482.354278564,,0.00763490796089,0.628556609154,0.0153999403119,-0.777574002743
1508191762651448384,,120,,1508191762,649791955,0,,,2359.28320312,217.159179688,-482.326690674,,0.00802130997181,0.628549396992,0.0149455592036,-0.777584552765
1508191762670580832,,121,,1508191762,669369935,0,,,2359.51708984,217.190429688,-482.074920654,,0.00743636488914,0.628567934036,0.0155310928822,-0.777563929558
1508191762690130311,,122,,1508191762,689090013,0,,,2359.81201172,217.830566406,-481.999786377,,0.00752437114716,0.628558516502,0.0157273560762,-0.777566850185
1508191762711382551,,123,,1508191762,709171056,0,,,2360.00195312,218.463134766,-482.021392822,,0.00752507150173,0.628629148006,0.0156248956919,-0.777511835098
1508191762729424947,,124,,1508191762,728684902,0,,,2359.73583984,218.468261719,-482.300201416,,0.00734928250313,0.628612995148,0.0160074755549,-0.777518868446
1508191762749084374,,125,,1508191762,748296022,0,,,2359.51293945,217.808837891,-482.342193604,,0.00774905085564,0.628703653812,0.0153603032231,-0.777454733849
1508191762775579582,,126,,1508191762,773844003,0,,,2359.24682617,217.260009766,-482.396453857,,0.00741347670555,0.628583490849,0.0153810828924,-0.777554750443
1508191762790885832,,127,,1508191762,788928031,0,,,2359.38867188,217.283203125,-482.32711792,,0.00773032009602,0.628567099571,0.015484906733,-0.777562737465
1508191762813570988,,128,,1508191762,808851003,0,,,2359.75927734,218.077880859,-482.222625732,,0.00756292045116,0.628576397896,0.0157372951508,-0.777551710606
1508191762829565103,,129,,1508191762,828356981,0,,,2359.63427734,218.602783203,-482.288238525,,0.00614459812641,0.627949476242,0.0164587944746,-0.778055787086
1508191762848489842,,130,,1508191762,847580909,0,,,2359.76391602,218.281738281,-482.217437744,,0.00772638618946,0.628595173359,0.0156222581863,-0.777537345886
1508191762868181613,,131,,1508191762,867348909,0,,,2359.43017578,217.668212891,-482.204315186,,0.00753483176231,0.628831207752,0.0155039951205,-0.777350723743
1508191762889253332,,132,,1508191762,887835979,0,,,2359.36938477,217.265625,-482.271392822,,0.00767298042774,0.628601372242,0.0149987563491,-0.77754509449
1508191762915760155,,133,,1508191762,908060073,0,,,2359.17675781,217.605224609,-482.300567627,,0.00680460035801,0.627941429615,0.0154273286462,-0.77807790041
1508191762928307082,,134,,1508191762,927704095,0,,,2359.640625,218.121826172,-482.229888916,,0.00735533237457,0.628634274006,0.0158002525568,-0.777505755424
1508191762946452707,,135,,1508191762,945895910,0,,,2359.84863281,218.475097656,-482.245635986,,0.00730119645596,0.628581285477,0.0158071145415,-0.777548849583
1508191762966101926,,136,,1508191762,965673923,0,,,2359.65185547,218.181884766,-482.347930908,,0.00741212069988,0.628568828106,0.0158213824034,-0.777557611465
1508191762989217447,,137,,1508191762,987037897,0,,,2359.54394531,217.702636719,-482.31741333,,0.00742396712303,0.628598332405,0.0154490470886,-0.777541160583
1508191763009798332,,138,,1508191763,6784915,0,,,2359.47802734,217.424316406,-482.186737061,,0.00757831335068,0.628893613815,0.0151639580727,-0.777306497097
1508191763031310519,,139,,1508191763,26977062,0,,,2359.625,217.567626953,-482.209259033,,0.00752641260624,0.628612518311,0.0154025927186,-0.777529537678
1508191763049518072,,140,,1508191763,46114921,0,,,2359.40283203,218.089355469,-482.296539307,,0.00640086829662,0.627917528152,0.0159813016653,-0.778089404106
1508191763066265363,,141,,1508191763,65306901,0,,,2359.71923828,218.162353516,-482.257110596,,0.00756260752678,0.628617405891,0.0158044621348,-0.777517318726
1508191763086246301,,142,,1508191763,85319995,0,,,2359.64941406,218.159667969,-482.365447998,,0.00743456184864,0.628604054451,0.0159767046571,-0.777525901794
1508191763116698644,,143,,1508191763,114460945,0,,,2359.55078125,217.906005859,-482.344207764,,0.00748012959957,0.628533542156,0.0155722275376,-0.777590572834
1508191763130984790,,144,,1508191763,125273942,0,,,2359.25439453,217.654296875,-482.433135986,,0.00746977329254,0.628026604652,0.0152921751142,-0.778005719185
1508191763146938853,,145,,1508191763,144866943,0,,,2359.52246094,217.606201172,-482.242767334,,0.00761809945107,0.628661990166,0.0152411684394,-0.777491986752
1508191763165052290,,146,,1508191763,164033889,0,,,2359.65942383,217.804931641,-482.187652588,,0.00746008753777,0.628628194332,0.0155743137002,-0.777514159679
1508191763185436874,,147,,1508191763,183959007,0,,,2359.70458984,218.126220703,-482.243804932,,0.00719437003136,0.628592312336,0.0159783810377,-0.777537584305
1508191763207590624,,148,,1508191763,205950975,0,,,2359.69726562,218.092773438,-482.27432251,,0.00736182928085,0.628584563732,0.0159233957529,-0.777543365955
1508191763225990676,,149,,1508191763,224754095,0,,,2359.65869141,217.807128906,-482.242767334,,0.00759588181973,0.62857657671,0.0153964236379,-0.777558207512
1508191763245841717,,150,,1508191763,244728088,0,,,2359.61865234,217.630615234,-482.161895752,,0.00779895484447,0.628574371338,0.0150730907917,-0.77756434679
1508191763263559426,,151,,1508191763,262845039,0,,,2359.50195312,217.541992188,-482.2237854,,0.00777593255043,0.628563642502,0.0151939541101,-0.777570784092
1508191763283408696,,152,,1508191763,282614946,0,,,2359.64404297,217.904541016,-482.239837646,,0.00751769542694,0.628581643105,0.015603415668,-0.777550816536
1508191763314751926,,153,,1508191763,303668975,0,,,2359.76513672,218.227050781,-482.29006958,,0.00738680362701,0.628547430038,0.0161497741938,-0.777568519115
1508191763327781717,,154,,1508191763,324929952,0,,,2359.67895508,218.051025391,-482.329620361,,0.00728376209736,0.62852793932,0.0159115940332,-0.777590095997
1508191763342361978,,155,,1508191763,341742038,0,,,2359.57324219,217.662597656,-482.309234619,,0.00738252699375,0.628577291965,0.0155771225691,-0.777556061745
1508191763361894061,,156,,1508191763,361393928,0,,,2359.66064453,217.352294922,-482.166656494,,0.00770705938339,0.628610372543,0.0149844661355,-0.777537763119
1508191763386944634,,157,,1508191763,382196903,0,,,2359.76513672,217.512695312,-482.08694458,,0.00759622454643,0.62859660387,0.0153525173664,-0.777542829514
1508191763403626926,,158,,1508191763,401846885,0,,,2359.734375,217.803466797,-482.062652588,,0.00750653445721,0.628572583199,0.0157646164298,-0.777554810047
1508191763423442863,,159,,1508191763,422163009,0,,,2359.63378906,217.979980469,-482.17666626,,0.00676321983337,0.628332674503,0.0160359740257,-0.777750015259
1508191763442946509,,160,,1508191763,441189050,0,,,2359.77783203,217.731445312,-482.152496338,,0.0075811445713,0.6286252141,0.015630081296,-0.777514338493
1508191763461601978,,161,,1508191763,460856914,0,,,2359.63037109,217.602050781,-482.233428955,,0.00754970312119,0.62857735157,0.0154289379716,-0.777557373047
1508191763486101092,,162,,1508191763,482089042,0,,,2359.61181641,217.604980469,-482.282623291,,0.00755181908607,0.628589689732,0.0153715386987,-0.77754843235
1508191763514769582,,163,,1508191763,502981901,0,,,2359.73828125,217.738037109,-482.226470947,,0.00764855742455,0.628583729267,0.0153856575489,-0.777552127838
1508191763526541926,,164,,1508191763,521156072,0,,,2359.84960938,217.83984375,-482.182037354,,0.0074732452631,0.628580629826,0.0156233683228,-0.777551591396
1508191763540133384,,165,,1508191763,539629936,0,,,2359.77539062,217.720947266,-482.144134521,,0.00748479366302,0.628545820713,0.015614874661,-0.777579843998
1508191763559989738,,166,,1508191763,559428930,0,,,2359.76586914,217.603271484,-482.152984619,,0.00740264356136,0.628560781479,0.0156955420971,-0.777566850185
1508191763581396717,,167,,1508191763,580004930,0,,,2359.73583984,217.688720703,-482.1534729,,0.00733514130116,0.628564715385,0.015826575458,-0.777561664581
1508191763600833071,,168,,1508191763,599586009,0,,,2359.67675781,217.689208984,-482.092315674,,0.00750331580639,0.628614246845,0.0155410021544,-0.77752584219
1508191763621697811,,169,,1508191763,619991064,0,,,2359.69042969,217.581298828,-482.069122314,,0.00765827298164,0.628576397896,0.0152235776186,-0.777561068535
1508191763641095571,,170,,1508191763,639641046,0,,,2359.78564453,217.514892578,-482.040679932,,0.00769431889057,0.628618717194,0.0152133107185,-0.777526736259
1508191763660425571,,171,,1508191763,659120082,0,,,2359.89453125,217.551269531,-482.090911865,,0.00741790235043,0.628587245941,0.0156871080399,-0.777545452118
1508191763679984530,,172,,1508191763,678857088,0,,,2359.86230469,217.669677734,-482.155792236,,0.00711578130722,0.628565311432,0.01613509655,-0.77755689621
1508191763707220155,,173,,1508191763,700865030,0,,,2359.7355957,217.608154297,-482.198638916,,0.0072136670351,0.628441691399,0.0159131735563,-0.777660369873
1508191763727971925,,174,,1508191763,725709915,0,,,2359.78540039,217.463134766,-482.065460205,,0.00761434435844,0.628637254238,0.0153486207128,-0.77750992775
1508191763739572550,,175,,1508191763,738331079,0,,,2359.79492188,217.447265625,-481.962432861,,0.00785849988461,0.628583192825,0.0150163844228,-0.777557611465
1508191763758790884,,176,,1508191763,757879972,0,,,2359.77124023,217.492431641,-482.016143799,,0.00761212408543,0.628554821014,0.0152836292982,-0.777577757835
1508191763778473905,,177,,1508191763,777628898,0,,,2359.59960938,217.666015625,-482.049407959,,0.00741077959538,0.628292560577,0.0159673094749,-0.777777910233
1508191763801141405,,178,,1508191763,797408103,0,,,2359.63037109,217.944580078,-482.166534424,,0.00632970035076,0.627867639065,0.0160788297653,-0.778128266335
1508191763824189061,,179,,1508191763,822360038,0,,,2359.57324219,217.884521484,-482.129425049,,0.00579208135605,0.628066420555,0.0160824581981,-0.777971982956
1508191763838297290,,180,,1508191763,837253093,0,,,2359.81884766,217.342773438,-482.072235107,,0.00765980780125,0.628664672375,0.0153129324317,-0.77748799324
1508191763860741613,,181,,1508191763,859560966,0,,,2359.79345703,217.269287109,-482.095062256,,0.0076445043087,0.628610432148,0.0151712074876,-0.777534723282
1508191763877290050,,182,,1508191763,876390933,0,,,2359.85180664,217.431396484,-482.072418213,,0.00754816830158,0.628619194031,0.015449821949,-0.777523159981
1508191763898751405,,183,,1508191763,897169113,0,,,2359.91601562,217.645263672,-482.035369873,,0.0073808580637,0.628587603569,0.015681900084,-0.777545630932
1508191763920712394,,184,,1508191763,917114973,0,,,2359.89208984,217.763916016,-482.039459229,,0.00741346180439,0.62861007452,0.0157836228609,-0.777525246143
1508191763938682811,,185,,1508191763,937267065,0,,,2359.81445312,217.603271484,-482.056427002,,0.0074847638607,0.628613710403,0.0157663375139,-0.777521789074
1508191763957554842,,186,,1508191763,956049919,0,,,2359.45874023,217.551025391,-482.161407471,,0.00658723711967,0.627906620502,0.0155009776354,-0.778106510639
1508191763976644582,,187,,1508191763,975624084,0,,,2359.6640625,217.397216797,-482.067779541,,0.00747384130955,0.628632187843,0.0155728757381,-0.777510881424
1508191764001247394,,188,,1508191763,995974063,0,,,2359.65039062,217.610595703,-482.089752197,,0.00723391771317,0.628317296505,0.015559963882,-0.777767896652
1508191764030187759,,189,,1508191764,28304100,0,,,2359.86083984,217.728515625,-482.001312256,,0.007578805089,0.628647148609,0.0156184136868,-0.777496933937
1508191764037318279,,190,,1508191764,35547971,0,,,2359.84277344,217.735839844,-482.038482666,,0.00744730234146,0.628621459007,0.0155300572515,-0.777520656586
1508191764055866769,,191,,1508191764,54825067,0,,,2359.77929688,217.592773438,-482.109283447,,0.00748386979103,0.628572583199,0.0154821947217,-0.777560889721
1508191764075465623,,192,,1508191764,74559926,0,,,2359.78125,217.496337891,-482.00881958,,0.00739829242229,0.628604769707,0.0157060623169,-0.777531147003
1508191764096177654,,193,,1508191764,94754934,0,,,2359.79443359,217.529296875,-482.009735107,,0.00745482742786,0.628579080105,0.0155762732029,-0.777554035187
1508191764117308227,,194,,1508191764,114641904,0,,,2359.74731445,217.495117188,-482.019317627,,0.007508918643,0.62855887413,0.0155780762434,-0.777569711208
1508191764137421040,,195,,1508191764,135895967,0,,,2359.80566406,217.491699219,-481.978851318,,0.00767461955547,0.628551840782,0.0154104456306,-0.777577221394
1508191764155679217,,196,,1508191764,154000043,0,,,2359.90673828,217.622314453,-481.96987915,,0.00769644975662,0.628591954708,0.0154717341065,-0.777543306351
1508191764174659842,,197,,1508191764,173471927,0,,,2359.91894531,217.719482422,-481.942047119,,0.00743371248245,0.628571271896,0.0157924443483,-0.777556180954
1508191764194070102,,198,,1508191764,193175077,0,,,2359.86279297,217.656005859,-481.98526001,,0.00753416121006,0.628597617149,0.0156540051103,-0.77753663063
1508191764214308019,,199,,1508191764,213285923,0,,,2359.68945312,217.359863281,-482.030975342,,0.00748237967491,0.628579735756,0.0155944228172,-0.777552843094
1508191764235155259,,200,,1508191764,233220100,0,,,2359.65625,217.217529297,-482.013275146,,0.0075618326664,0.628588974476,0.0153804793954,-0.777548730373
1508191764253177550,,201,,1508191764,252408027,0,,,2359.78808594,217.42578125,-481.911468506,,0.00757868587971,0.628577291965,0.0153658688068,-0.777558326721
1508191764272792811,,202,,1508191764,272075891,0,,,2359.94970703,217.809082031,-481.897247314,,0.00754398107529,0.628594994545,0.015596665442,-0.777539789677
1508191764294697602,,203,,1508191764,292969942,0,,,2359.98120117,218.053222656,-481.968963623,,0.0072405487299,0.628560781479,0.0157586038113,-0.777567207813
1508191764322834842,,204,,1508191764,318039894,0,,,2359.8112793,217.800292969,-482.016998291,,0.00731027126312,0.628606975079,0.0158279165626,-0.777527809143
1508191764340644113,,205,,1508191764,338977098,0,,,2359.64599609,217.448974609,-482.027740479,,0.00735934078693,0.628597736359,0.0155806690454,-0.777539730072
1508191764351765884,,206,,1508191764,351135015,0,,,2359.53320312,217.234130859,-482.019683838,,0.00757664442062,0.62860673666,0.0154734328389,-0.777532458305
1508191764371569790,,207,,1508191764,371124029,0,,,2359.77832031,217.425292969,-481.901275635,,0.00765314698219,0.628565371037,0.0154373124242,-0.777565777302
1508191764394112706,,208,,1508191764,391891956,0,,,2359.99560547,217.797119141,-481.919952393,,0.00732897222042,0.628561615944,0.0158375874162,-0.777563929558
1508191764416656404,,209,,1508191764,411890029,0,,,2359.95361328,217.891601562,-482.088104248,,0.00738950073719,0.628570854664,0.0157980546355,-0.777556836605
1508191764434885519,,210,,1508191764,431827068,0,,,2359.68261719,217.845458984,-482.225982666,,0.00719939172268,0.628434479237,0.0156399607658,-0.777671933174
1508191764452206352,,211,,1508191764,451066970,0,,,2359.61328125,217.461914062,-482.060943604,,0.00753444433212,0.628645002842,0.0157433673739,-0.777496576309
1508191764471863436,,212,,1508191764,470534086,0,,,2359.53588867,217.543212891,-482.013214111,,0.00735062360764,0.628466665745,0.0155853331089,-0.777645647526
1508191764491231352,,213,,1508191764,490185022,0,,,2359.80078125,217.649414062,-481.837432861,,0.00757186114788,0.628581166267,0.0155538097024,-0.777551591396
1508191764511890311,,214,,1508191764,510328054,0,,,2359.85986328,217.751953125,-481.831451416,,0.00756794214249,0.628542542458,0.0155064985156,-0.7775837183
1508191764537527706,,215,,1508191764,531742095,0,,,2359.84155273,217.671142578,-481.897613525,,0.00738222897053,0.628561079502,0.0155745148659,-0.777569174767
1508191764551915102,,216,,1508191764,550489902,0,,,2359.78466797,217.629394531,-481.995330811,,0.00754454731941,0.628589093685,0.0155991762877,-0.777544498444
1508191764573624217,,217,,1508191764,569703102,0,,,2359.73828125,217.547363281,-481.994781494,,0.00753425061703,0.628582835197,0.0156114026904,-0.777549445629
1508191764590158800,,218,,1508191764,589205026,0,,,2359.77441406,217.580078125,-481.970489502,,0.00748501718044,0.628622472286,0.0156259089708,-0.777517557144
1508191764609959686,,219,,1508191764,609042882,0,,,2359.83642578,217.662597656,-481.977264404,,0.00746016204357,0.628570377827,0.0155778303742,-0.777560830116
1508191764633297446,,220,,1508191764,629537105,0,,,2359.85473633,217.678466797,-481.947906494,,0.00759674608707,0.628548622131,0.0154125615954,-0.777580559254
1508191764650850310,,221,,1508191764,648989915,0,,,2359.72558594,217.591308594,-481.996307373,,0.0075296908617,0.628541648388,0.0155587941408,-0.777583837509
1508191764669059425,,222,,1508191764,668220043,0,,,2359.09106445,218.027099609,-482.075775146,,0.00574089586735,0.627984523773,0.015196301043,-0.778056383133
1508191764691838331,,223,,1508191764,689750909,0,,,2359.92236328,217.729248047,-481.918243408,,0.00756178796291,0.628642857075,0.0157344415784,-0.777498245239
1508191764714553019,,224,,1508191764,710686922,0,,,2359.94824219,217.678466797,-481.904815674,,0.00757986307144,0.628549695015,0.0155607834458,-0.777576804161
1508191764738700519,,225,,1508191764,735682010,0,,,2359.72998047,217.457275391,-481.883270264,,0.00746934115887,0.628638386726,0.0153583809733,-0.777510166168
1508191764749757758,,226,,1508191764,748632907,0,,,2359.64550781,217.442138672,-481.871551514,,0.00752086937428,0.628635525703,0.0154461488128,-0.777510285378
1508191764768107915,,227,,1508191764,767313957,0,,,2359.72216797,217.618896484,-481.889190674,,0.00750522315502,0.628624916077,0.0156634822488,-0.777514576912
1508191764787638956,,228,,1508191764,786789894,0,,,2359.59960938,217.789550781,-481.96194458,,0.0072049498558,0.628488600254,0.0162664204836,-0.777615308762
1508191764809321456,,229,,1508191764,807835102,0,,,2359.859375,217.795410156,-481.96206665,,0.00720381736755,0.628679990768,0.0159602835774,-0.777466893196
1508191764840566821,,230,,1508191764,839268922,0,,,2359.96923828,217.603271484,-481.992950439,,0.0075977742672,0.628557562828,0.0154238939285,-0.777572989464
1508191764851904529,,231,,1508191764,850614070,0,,,2359.79370117,217.372314453,-481.998748779,,0.00775139033794,0.628539741039,0.0152495652437,-0.777589261532
1508191764867431717,,232,,1508191764,866312026,0,,,2359.67138672,217.406005859,-481.944366455,,0.00760601460934,0.628519415855,0.0154668241739,-0.777602851391
1508191764887199998,,233,,1508191764,886013031,0,,,2359.72998047,217.63671875,-481.884063721,,0.00760923326015,0.628547251225,0.0157317742705,-0.777575016022
1508191764908469425,,234,,1508191764,906768083,0,,,2359.89550781,217.893066406,-481.879547119,,0.0075745433569,0.628582596779,0.0156768858433,-0.777547955513
1508191764935278748,,235,,1508191764,927407979,0,,,2359.93798828,217.956787109,-481.994842529,,0.0073514431715,0.628621220589,0.0156967863441,-0.777518391609
1508191764945457810,,236,,1508191764,944849014,0,,,2359.79907227,217.642822266,-482.021820068,,0.00759176909924,0.628641843796,0.0153209492564,-0.777506828308
1508191764965080831,,237,,1508191764,964615106,0,,,2359.59960938,217.347412109,-482.082183838,,0.0073049813509,0.628579854965,0.0155469700694,-0.77755522728
1508191764986054581,,238,,1508191764,984766960,0,,,2359.61572266,217.323730469,-481.897064209,,0.00746703147888,0.628616154194,0.0156136676669,-0.777523040771
1508191765006775154,,239,,1508191765,4986047,0,,,2359.85449219,217.667236328,-481.763580322,,0.00759994983673,0.628597676754,0.0155986770988,-0.777537047863
1508191765034798019,,240,,1508191765,32227039,0,,,2360.04492188,217.938720703,-481.740753174,,0.00723737478256,0.628591954708,0.015907689929,-0.777538895607
1508191765045142498,,241,,1508191765,44222116,0,,,2359.93652344,217.828613281,-481.860870361,,0.00748461484909,0.628568649292,0.0157076045871,-0.777559399605
1508191765064666248,,242,,1508191765,63849925,0,,,2359.70727539,217.465087891,-481.980926514,,0.00751259922981,0.628539502621,0.0155898109078,-0.777585029602
1508191765089922550,,243,,1508191765,84666013,0,,,2359.61376953,217.287841797,-481.943023682,,0.00777746737003,0.628531992435,0.0153395757079,-0.777593553066
1508191765111195727,,244,,1508191765,104599952,0,,,2359.75,217.460205078,-481.988677979,,0.00765237212181,0.628579795361,0.0154153108597,-0.777554631233
1508191765128205362,,245,,1508191765,125036001,0,,,2359.90356445,217.829345703,-481.933013916,,0.00737497210503,0.628588557243,0.0157895684242,-0.777542710304
1508191765143860206,,246,,1508191765,143280029,0,,,2359.8215332,218.001220703,-481.888214111,,0.00740905106068,0.628587245941,0.0159945636988,-0.77753919363
1508191765163245987,,247,,1508191765,162659883,0,,,2359.81738281,217.792724609,-481.929290771,,0.00728207826614,0.628637552261,0.0158027783036,-0.777503728867
1508191765183448644,,248,,1508191765,182364940,0,,,2359.62573242,217.460693359,-481.960662842,,0.00737443566322,0.628587722778,0.0156211778522,-0.777546882629
1508191765209251039,,249,,1508191765,207834959,0,,,2359.64892578,217.278076172,-481.857269287,,0.00756685435772,0.62860429287,0.0153201073408,-0.777537584305
1508191765232955883,,250,,1508191765,230103969,0,,,2359.84130859,217.354248047,-481.761138916,,0.00740021467209,0.628602862358,0.0155666992068,-0.777535438538
1508191765244525727,,251,,1508191765,242897987,0,,,2360.06054688,217.719970703,-481.755767822,,0.00730702280998,0.628561496735,0.015789590776,-0.77756524086
1508191765263843539,,252,,1508191765,262290954,0,,,2360.04418945,217.841064453,-481.810516357,,0.0072999894619,0.628623127937,0.0160290971398,-0.777510643005
1508191765283037133,,253,,1508191765,281841039,0,,,2359.79199219,217.771484375,-481.949371338,,0.00750531256199,0.628586888313,0.0157244279981,-0.777544140816
1508191765303294529,,254,,1508191765,301692008,0,,,2359.59033203,217.443603516,-481.952789307,,0.0075428634882,0.628635168076,0.0155672430992,-0.777507901192
1508191765328187394,,255,,1508191765,323288917,0,,,2359.60449219,217.343505859,-482.03604126,,0.00759473443031,0.628578543663,0.0154431536794,-0.777555704117
1508191765344620102,,256,,1508191765,341666936,0,,,2359.85449219,217.423095703,-481.942657471,,0.00757253170013,0.628581285477,0.0154757872224,-0.777553081512
1508191765368409112,,257,,1508191765,361726045,0,,,2359.95532227,217.689453125,-481.933258057,,0.0074727088213,0.628566503525,0.0157970115542,-0.777559518814
1508191765382522237,,258,,1508191765,380788087,0,,,2359.96777344,217.848632812,-481.859039307,,0.00736619532108,0.628553986549,0.0158043652773,-0.777570426464
1508191765405554373,,259,,1508191765,404470920,0,,,2359.87451172,217.673828125,-481.867340088,,0.00748041272163,0.628597617149,0.0156898722053,-0.777536392212
1508191765422284269,,260,,1508191765,420496940,0,,,2359.46826172,217.509277344,-481.927642822,,0.00683158636093,0.627941191196,0.0155684575438,-0.778074979782
1508191765441659373,,261,,1508191765,440644979,0,,,2359.76660156,217.346435547,-481.794342041,,0.00754548609257,0.628674149513,0.0154082924128,-0.777479410172
1508191765460454529,,262,,1508191765,459621906,0,,,2359.85400391,217.443847656,-481.827606201,,0.00742591917515,0.628606200218,0.0156384408474,-0.777531027794
1508191765479993748,,263,,1508191765,479281902,0,,,2359.89746094,217.633056641,-481.837677002,,0.00740340352058,0.628610551357,0.0157110318542,-0.777526378632
1508191765499805310,,264,,1508191765,499110937,0,,,2359.82714844,217.714355469,-481.962615967,,0.00746715068817,0.628596782684,0.0158093124628,-0.777534782887
1508191765520284060,,265,,1508191765,519232034,0,,,2359.75488281,217.606201172,-482.009307861,,0.00753359496593,0.628609955311,0.015746884048,-0.777524828911
1508191765542308331,,266,,1508191765,540860891,0,,,2359.74707031,217.525878906,-482.065826416,,0.00742097198963,0.628506958485,0.0157654136419,-0.777608692646
1508191765560454737,,267,,1508191765,559144973,0,,,2359.85131836,217.367919922,-481.9737854,,0.0073983669281,0.628626525402,0.0157089009881,-0.777513504028
1508191765579919529,,268,,1508191765,578778982,0,,,2359.84179688,217.452636719,-481.948883057,,0.00754305720329,0.628565073013,0.0153943225741,-0.777568042278
1508191765601487081,,269,,1508191765,600127935,0,,,2359.81640625,217.594970703,-481.892608643,,0.00760442018509,0.628585755825,0.0155174955726,-0.777548372746
1508191765620604893,,270,,1508191765,618335962,0,,,2359.87866211,217.814941406,-481.919158936,,0.0074675232172,0.628608942032,0.0157658010721,-0.777525782585
1508191765638786664,,271,,1508191765,637945890,0,,,2359.85522461,217.962402344,-481.982330322,,0.00730320811272,0.628557085991,0.015907227993,-0.777566432953
1508191765658604581,,272,,1508191765,657629013,0,,,2359.77026367,217.603515625,-482.020904541,,0.00743241608143,0.62861174345,0.0157493427396,-0.777524232864
1508191765678073904,,273,,1508191765,677440881,0,,,2359.18432617,217.470947266,-482.239532471,,0.00579482316971,0.627526521683,0.0157953798771,-0.778413414955
1508191765697879321,,274,,1508191765,697194099,0,,,2359.7265625,217.185302734,-481.96963501,,0.00760041177273,0.62876868248,0.0155012533069,-0.777400672436
1508191765717556925,,275,,1508191765,716826915,0,,,2359.91503906,217.546386719,-481.816070557,,0.00762945413589,0.628643274307,0.0156164318323,-0.777499616146
1508191765741213852,,276,,1508191765,739689111,0,,,2359.91064453,217.980224609,-481.802154541,,0.00729390978813,0.628614664078,0.0161057636142,-0.777515947819
1508191765758266873,,277,,1508191765,757040977,0,,,2359.85986328,218.0859375,-481.890045166,,0.00752626359463,0.628573536873,0.0160893648863,-0.777547299862
1508191765777061456,,278,,1508191765,776338100,0,,,2359.73657227,217.705322266,-481.987579346,,0.00738279521465,0.628570079803,0.0156890228391,-0.777559578419
1508191765796565102,,279,,1508191765,795939922,0,,,2359.58276367,217.234619141,-482.074676514,,0.00762923061848,0.628573417664,0.0155080631375,-0.777558028698
1508191765820563591,,280,,1508191765,818499088,0,,,2359.62109375,217.254638672,-482.149200439,,0.0075026601553,0.628567636013,0.0153408199549,-0.777567386627
1508191765839504581,,281,,1508191765,837469100,0,,,2359.83618164,217.699951172,-482.065460205,,0.00736984610558,0.628596127033,0.0159207060933,-0.777533888817
1508191765859791664,,282,,1508191765,855928897,0,,,2360.01123047,218.083007812,-481.988555908,,0.007573351264,0.628614187241,0.0158360227942,-0.77751916647
1508191765877000466,,283,,1508191765,875647068,0,,,2359.86547852,218.084472656,-481.933135986,,0.00667497515678,0.628566086292,0.0160089656711,-0.777562737465
1508191765896163331,,284,,1508191765,895128011,0,,,2359.78320312,217.605957031,-481.978179932,,0.00763440132141,0.628638923168,0.0153483897448,-0.777508318424
1508191765917596716,,285,,1508191765,915950059,0,,,2359.62451172,217.264648438,-481.912811279,,0.00741481781006,0.628600180149,0.0154459550977,-0.777539849281
1508191765942749841,,286,,1508191765,941205024,0,,,2359.58520508,217.287597656,-481.868927002,,0.0073449164629,0.628579437733,0.0157915353775,-0.777550339699
1508191765957010154,,287,,1508191765,955513954,0,,,2359.79248047,217.725341797,-481.91897583,,0.00748041272163,0.628600597382,0.0157499983907,-0.777532815933
1508191765976406612,,288,,1508191765,974694967,0,,,2359.72485352,218.183349609,-482.064605713,,0.00644035637379,0.627977371216,0.0162692666054,-0.778034985065
1508191765996048175,,289,,1508191765,994577884,0,,,2359.99316406,217.973632812,-482.030303955,,0.00741605460644,0.628640294075,0.0158025473356,-0.777500212193
1508191766015685622,,290,,1508191766,14224052,0,,,2359.84667969,217.696777344,-482.054168701,,0.00765335559845,0.628629803658,0.0153227448463,-0.777516007423
1508191766035828643,,291,,1508191766,34354925,0,,,2359.2265625,217.652099609,-482.058502197,,0.00758135318756,0.628910124302,0.0144684016705,-0.777306437492
1508191766056305362,,292,,1508191766,55175065,0,,,2359.59204102,217.322509766,-482.05380249,,0.00748455524445,0.628578901291,0.015662021935,-0.777552127838
1508191766074825206,,293,,1508191766,73537111,0,,,2359.80371094,217.459960938,-481.936431885,,0.00735457241535,0.628570795059,0.0156702846289,-0.777559697628
1508191766093926195,,294,,1508191766,92921018,0,,,2359.99511719,217.808349609,-481.904083252,,0.00732664763927,0.628569126129,0.015763245523,-0.777559459209
1508191766119205258,,295,,1508191766,117662906,0,,,2360.09106445,218.128417969,-481.884185791,,0.00717684626579,0.628645658493,0.0158416628838,-0.77749735117
1508191766136364893,,296,,1508191766,133903026,0,,,2359.84912109,218.057128906,-482.006744385,,0.00737456977367,0.628608524799,0.0157182365656,-0.777528047562
1508191766155070779,,297,,1508191766,153578996,0,,,2359.56689453,217.559082031,-482.053375244,,0.00732584297657,0.628594040871,0.0156016349792,-0.77754253149
1508191766174230727,,298,,1508191766,172657012,0,,,2359.31201172,217.314208984,-482.194732666,,0.00709672272205,0.628348112106,0.0159135013819,-0.777737140656
1508191766193505362,,299,,1508191766,192255973,0,,,2359.69848633,217.432373047,-482.042755127,,0.0076639354229,0.628607809544,0.0154494047165,-0.777531206608
1508191766215628227,,300,,1508191766,214371919,0,,,2359.9609375,217.922363281,-482.037994385,,0.0073679536581,0.62860417366,0.0158827900887,-0.777528345585
1508191766239690310,,301,,1508191766,237890958,0,,,2360.04345703,218.163085938,-482.003326416,,0.00738531351089,0.628583431244,0.0160618796945,-0.777541160583
1508191766253844529,,302,,1508191766,252008914,0,,,2359.88867188,217.967041016,-481.98916626,,0.00769954919815,0.628625512123,0.0155173316598,-0.777515232563
1508191766273052237,,303,,1508191766,271670103,0,,,2359.6184082,217.385498047,-481.993927002,,0.00755451619625,0.628635644913,0.0155434086919,-0.777507960796
1508191766291995570,,304,,1508191766,291142940,0,,,2359.5637207,217.180908203,-481.977081299,,0.00769424438477,0.628586053848,0.0151695683599,-0.777554035187
1508191766311754737,,305,,1508191766,310808897,0,,,2359.73168945,217.525390625,-482.063262939,,0.00723673403263,0.62859493494,0.0156600996852,-0.777541577816
1508191766333065570,,306,,1508191766,330950021,0,,,2359.74023438,218.109863281,-482.110137939,,0.00665752589703,0.628269314766,0.0161497592926,-0.777799725533
1508191766351927810,,307,,1508191766,350759029,0,,,2359.91943359,218.273681641,-482.011932373,,0.00715245306492,0.628639757633,0.0160620138049,-0.777497887611
1508191766370740935,,308,,1508191766,370053052,0,,,2359.77246094,217.975830078,-481.984039307,,0.00730115175247,0.628656625748,0.0158077403903,-0.77748811245
1508191766390439476,,309,,1508191766,389744043,0,,,2359.671875,217.563232422,-481.96963501,,0.00734981894493,0.628666937351,0.015507362783,-0.777485311031
1508191766411666872,,310,,1508191766,410310983,0,,,2359.63818359,217.285888672,-481.94229126,,0.00750121474266,0.628645062447,0.015479683876,-0.777502059937
1508191766431523070,,311,,1508191766,430027008,0,,,2359.84521484,217.261230469,-481.903839111,,0.00794570147991,0.628782987595,0.0155457928777,-0.777384757996
1508191766451942289,,312,,1508191766,450088977,0,,,2359.89379883,217.715820312,-481.915374756,,0.00737462937832,0.628589808941,0.0159811228514,-0.777537941933
1508191766469263331,,313,,1508191766,468699932,0,,,2359.96044922,218.041748047,-481.952056885,,0.0074185281992,0.628612816334,0.016009286046,-0.777518153191
1508191766488953226,,314,,1508191766,488501071,0,,,2359.79541016,218.051025391,-482.114349365,,0.0074447542429,0.62861174345,0.0158530697227,-0.777522027493
1508191766512427654,,315,,1508191766,509088039,0,,,2359.66699219,217.706787109,-482.181610107,,0.00760482251644,0.628622174263,0.0155368000269,-0.777518570423
1508191766530699841,,316,,1508191766,529169082,0,,,2359.66259766,217.390380859,-482.192596436,,0.00734236836433,0.628621995449,0.0155112296343,-0.777521669865
1508191766550575310,,317,,1508191766,549010038,0,,,2359.78320312,217.300537109,-481.993011475,,0.00732773542404,0.628597915173,0.0156406536698,-0.777538657188
1508191766568741508,,318,,1508191766,567939996,0,,,2359.88085938,217.541503906,-481.89151001,,0.00719264149666,0.628571867943,0.0160960555077,-0.777551651001
1508191766588654789,,319,,1508191766,587749958,0,,,2359.96142578,217.913330078,-481.828521729,,0.00728349387646,0.628548562527,0.0158278420568,-0.777575135231
1508191766613886195,,320,,1508191766,608813047,0,,,2359.91162109,217.975585938,-481.798736572,,0.00747253000736,0.628604412079,0.0158168449998,-0.77752840519
1508191766650011247,,321,,1508191766,630075931,0,,,2359.80761719,217.782958984,-481.911529541,,0.00747713446617,0.628631472588,0.0156381428242,-0.777509987354
1508191766654717862,,322,,1508191766,653667926,0,,,2359.671875,217.452148438,-481.952484131,,0.00747562944889,0.62863099575,0.0155762955546,-0.777511715889
1508191766672265101,,323,,1508191766,671420097,0,,,2359.59912109,217.250732422,-482.015594482,,0.00739620625973,0.628585457802,0.0157716348767,-0.777545571327
1508191766687596976,,324,,1508191766,686847925,0,,,2359.75244141,217.479980469,-482.01651001,,0.00749278068542,0.628618478775,0.0156692564487,-0.777519881725
1508191766708298226,,325,,1508191766,707076072,0,,,2359.90771484,217.792724609,-482.056610107,,0.0074488222599,0.628614842892,0.0159367471933,-0.777517914772
1508191766728551820,,326,,1508191766,726943016,0,,,2360.05810547,217.995849609,-482.018218994,,0.00726053118706,0.628634810448,0.0158385485411,-0.777505338192
1508191766753994320,,327,,1508191766,752737045,0,,,2359.99023438,217.892578125,-482.038726807,,0.00729890167713,0.628623008728,0.0157838687301,-0.777515769005
1508191766768015726,,328,,1508191766,766639947,0,,,2359.72753906,217.432861328,-482.018768311,,0.00742335617542,0.628610789776,0.0154741629958,-0.777530550957
1508191766786682758,,329,,1508191766,785778999,0,,,2359.58300781,217.214599609,-481.86038208,,0.00738218426704,0.628611803055,0.0155448168516,-0.777528882027
1508191766806702185,,330,,1508191766,805687904,0,,,2359.62207031,217.561279297,-481.76675415,,0.00754986703396,0.62875854969,0.0154926404357,-0.777409553528
1508191766826103643,,331,,1508191766,825234889,0,,,2359.97070312,218.023193359,-481.812957764,,0.00720728933811,0.628574252129,0.0160400643945,-0.777550756931
1508191766852987445,,332,,1508191766,851372003,0,,,2360.04931641,218.224609375,-481.913726807,,0.00731439888477,0.628605902195,0.0162119492888,-0.777520596981
1508191766866440310,,333,,1508191766,865068912,0,,,2359.85449219,217.846435547,-482.079986572,,0.0072088688612,0.628604829311,0.0158027336001,-0.777530908585
1508191766885338330,,334,,1508191766,884620904,0,,,2359.50195312,217.314208984,-482.202423096,,0.0072468817234,0.628558814526,0.0157667845488,-0.777568399906
1508191766906220830,,335,,1508191766,904977083,0,,,2359.5859375,217.038085938,-482.031280518,,0.00789450109005,0.628666222095,0.0153549984097,-0.777483522892
1508191766926547393,,336,,1508191766,924846887,0,,,2359.86230469,217.404052734,-481.914825439,,0.00743295252323,0.62863856554,0.0155657678843,-0.777506232262
1508191766948112237,,337,,1508191766,946635961,0,,,2360.11279297,217.869873047,-481.846282959,,0.00737920403481,0.628617405891,0.0161071941257,-0.777512788773
1508191766966083174,,338,,1508191766,964339017,0,,,2360.1262207,218.018066406,-481.891937256,,0.00723528862,0.628641664982,0.0162139609456,-0.777492403984
1508191766985006351,,339,,1508191766,984056949,0,,,2359.79003906,217.669677734,-481.9581604,,0.00706557929516,0.628478765488,0.015900336206,-0.777632117271
1508191767005193070,,340,,1508191767,3803968,0,,,2359.59863281,217.050292969,-481.948028564,,0.00769121944904,0.628611326218,0.0154587700963,-0.777527928352
1508191767024144112,,341,,1508191767,23300886,0,,,2359.6809082,217.081787109,-481.912750244,,0.00724259018898,0.628639996052,0.015645198524,-0.777505278587
1508191767050191820,,342,,1508191767,48986911,0,,,2359.9453125,217.361816406,-481.761138916,,0.00737828016281,0.628622472286,0.0157145261765,-0.777516722679
1508191767067751091,,343,,1508191767,66684961,0,,,2360.14599609,217.840576172,-481.730743408,,0.00726649165154,0.62865293026,0.015831425786,-0.777490973473
1508191767084742497,,344,,1508191767,83498954,0,,,2360.10009766,217.90625,-481.766387939,,0.00700740516186,0.628620684147,0.0163019001484,-0.777509570122
1508191767104740205,,345,,1508191767,103590011,0,,,2359.88818359,217.514404297,-481.894073486,,0.00742197036743,0.628592610359,0.0157893449068,-0.777539014816
1508191767125740101,,346,,1508191767,123029947,0,,,2359.69799805,217.041748047,-481.952545166,,0.00733789801598,0.628661096096,0.0156839862466,-0.777486562729
1508191767148444997,,347,,1508191767,147274971,0,,,2359.73291016,216.96484375,-481.947906494,,0.00769607722759,0.628599822521,0.0155405327678,-0.777535498142
1508191767167628018,,348,,1508191767,166347026,0,,,2360.04321289,217.361083984,-481.841705322,,0.00750474631786,0.628641426563,0.015575774014,-0.77750313282
1508191767182705466,,349,,1508191767,181672096,0,,,2360.0144043,217.685302734,-481.756866455,,0.00724717974663,0.628563702106,0.0163653045893,-0.777552187443
1508191767202417289,,350,,1508191767,201422929,0,,,2360.09863281,217.830322266,-481.716949463,,0.00781705975533,0.628564059734,0.0156999975443,-0.777560055256
1508191767224246507,,351,,1508191767,222170114,0,,,2359.82421875,217.490478516,-481.824737549,,0.00709934532642,0.628621995449,0.0162893906236,-0.777508020401
1508191767244045674,,352,,1508191767,242050886,0,,,2359.41333008,217.268798828,-481.922698975,,0.0074627250433,0.628781616688,0.0148988887668,-0.777403414249
1508191767261591924,,353,,1508191767,260740995,0,,,2359.81103516,216.901123047,-481.930328369,,0.00733137130737,0.62862443924,0.015444457531,-0.777521133423
1508191767281427445,,354,,1508191767,280570983,0,,,2360.04248047,217.184326172,-481.813201904,,0.00720532238483,0.628668963909,0.0157184079289,-0.777480840683
1508191767302594737,,355,,1508191767,300894975,0,,,2359.95898438,217.926025391,-481.896026611,,0.00621655583382,0.628023505211,0.0160448476672,-0.778004050255
1508191767322012341,,356,,1508191767,320683002,0,,,2360.13183594,217.860107422,-481.659332275,,0.00724838674068,0.628717184067,0.0162021443248,-0.777431428432
1508191767347756820,,357,,1508191767,344041109,0,,,2359.86181641,217.653564453,-481.729034424,,0.00766269862652,0.628570079803,0.0156672820449,-0.777557373047
1508191767361145414,,358,,1508191767,359910964,0,,,2359.73120117,217.262451172,-481.889312744,,0.00764900445938,0.628630042076,0.0156185254455,-0.777510046959
1508191767380346351,,359,,1508191767,379559040,0,,,2359.73193359,216.984130859,-481.955841064,,0.00747579336166,0.628618717194,0.0156686082482,-0.777519762516
1508191767405362549,,360,,1508191767,404428005,0,,,2359.92480469,217.130615234,-481.901397705,,0.00750306248665,0.628617823124,0.0154773071408,-0.777524113655
1508191767423486976,,361,,1508191767,420655012,0,,,2360.046875,217.501953125,-481.882232666,,0.00755386054516,0.628671109676,0.0158232524991,-0.777473568916
1508191767454351768,,362,,1508191767,449771881,0,,,2360.11108398,217.801757812,-481.82144165,,0.00747215747833,0.628646969795,0.015903070569,-0.777492284775
1508191767462010153,,363,,1508191767,459798097,0,,,2360.03955078,217.821044922,-481.842010498,,0.00721959769726,0.628638386726,0.0159588009119,-0.777500391006
1508191767479604216,,364,,1508191767,478748083,0,,,2359.82519531,217.354980469,-481.874298096,,0.00733561813831,0.628601491451,0.0156919956207,-0.777534723282
1508191767499180101,,365,,1508191767,498169898,0,,,2359.70361328,217.021728516,-481.861602783,,0.00726774334908,0.628566622734,0.0155909731984,-0.777565479279
1508191767520184372,,366,,1508191767,518570899,0,,,2359.70751953,217.147949219,-481.865997314,,0.00726336240768,0.628592967987,0.0157866403461,-0.777540266514
1508191767540286299,,367,,1508191767,538311004,0,,,2359.90527344,217.746582031,-481.824981689,,0.00741179287434,0.62860172987,0.0157429277897,-0.777532696724
1508191767559515882,,368,,1508191767,558101892,0,,,2360.03320312,218.2109375,-481.794952393,,0.00706818699837,0.628494560719,0.0163389220834,-0.777610242367
1508191767582178903,,369,,1508191767,580199003,0,,,2360.07568359,217.954833984,-481.818145752,,0.00736355781555,0.628642201424,0.0160999521613,-0.777493059635
1508191767598585518,,370,,1508191767,597582101,0,,,2359.83911133,217.325195312,-481.916656494,,0.00742517411709,0.628645420074,0.0155294686556,-0.777501583099
1508191767618213486,,371,,1508191767,617116928,0,,,2359.59301758,216.743164062,-481.946258545,,0.00765307247639,0.628652215004,0.0153613835573,-0.77749723196
1508191767646097132,,372,,1508191767,644184112,0,,,2359.70410156,216.986572266,-481.891265869,,0.0076160877943,0.628625273705,0.0153206810355,-0.777520179749
1508191767659494528,,373,,1508191767,657383918,0,,,2359.98974609,217.700195312,-481.879852295,,0.00751648843288,0.62861341238,0.0159781500697,-0.77751749754
1508191767678592184,,374,,1508191767,677213907,0,,,2360.26367188,218.21484375,-481.841400146,,0.00723375380039,0.628560841084,0.0162851586938,-0.777556180954
1508191767697213851,,375,,1508191767,696230888,0,,,2360.07861328,218.150878906,-481.96005249,,0.00698168575764,0.62858325243,0.0161983668804,-0.777542352676
1508191767717448486,,376,,1508191767,716265916,0,,,2359.72998047,217.379150391,-481.984161377,,0.00753031671047,0.628571510315,0.0154853388667,-0.777561187744
1508191767737745570,,377,,1508191767,735943078,0,,,2359.53808594,216.863525391,-481.897369385,,0.00723792612553,0.628637135029,0.0153973996639,-0.777512550354
