rosbagTimestamp,header,seq,stamp,secs,nsecs,frame_id,orientation,x,y,z,w,orientation_covariance,angular_velocity,x,y,z,angular_velocity_covariance,linear_acceleration,x,y,z,linear_acceleration_covariance
1508259124221782624,,7028,,1508259124,221271739,imu,,-0.0192032940686,0.01341154892,0.646670818329,0.762409448624,"[0.0, 0.0, 0.0, 0.0, 0.0, 0.0, 0.0, 0.0, 0.0]",,0.000886505760718,0.00163980131038,-0.0248411558568,"[0.0, 0.0, 0.0, 0.0, 0.0, 0.0, 0.0, 0.0, 0.0]",,0.446968793869,0.071448430419,-9.48594474792,"[0.0, 0.0, 0.0, 0.0, 0.0, 0.0, 0.0, 0.0, 0.0]"
1508259124231970072,,7029,,1508259124,231584187,imu,,-0.0192036274821,0.0134162371978,0.646667301655,0.762412428856,"[0.0, 0.0, 0.0, 0.0, 0.0, 0.0, 0.0, 0.0, 0.0]",,0.000191613697098,0.000980972545221,-0.0254588574171,"[0.0, 0.0, 0.0, 0.0, 0.0, 0.0, 0.0, 0.0, 0.0]",,0.352916896343,0.176280409098,-9.59375667572,"[0.0, 0.0, 0.0, 0.0, 0.0, 0.0, 0.0, 0.0, 0.0]"
1508259124242502780,,7030,,1508259124,242110385,imu,,-0.0191918630153,0.0133978305385,0.646672546864,0.762408614159,"[0.0, 0.0, 0.0, 0.0, 0.0, 0.0, 0.0, 0.0, 0.0]",,0.000569170108065,-0.00278390105814,-0.0243059433997,"[0.0, 0.0, 0.0, 0.0, 0.0, 0.0, 0.0, 0.0, 0.0]",,0.495985716581,0.0825024098158,-9.52210140228,"[0.0, 0.0, 0.0, 0.0, 0.0, 0.0, 0.0, 0.0, 0.0]"
1508259124252789395,,7031,,1508259124,252413041,imu,,-0.0191975105554,0.0134146679193,0.646672308445,0.762408256531,"[0.0, 0.0, 0.0, 0.0, 0.0, 0.0, 0.0, 0.0, 0.0]",,0.0003323732235,0.00418753130361,-0.0259863808751,"[0.0, 0.0, 0.0, 0.0, 0.0, 0.0, 0.0, 0.0, 0.0]",,0.366947501898,0.0979716107249,-9.53163909912,"[0.0, 0.0, 0.0, 0.0, 0.0, 0.0, 0.0, 0.0, 0.0]"
1508259124263163041,,7032,,1508259124,262749812,imu,,-0.0191858429462,0.0133951250464,0.646676540375,0.762405395508,"[0.0, 0.0, 0.0, 0.0, 0.0, 0.0, 0.0, 0.0, 0.0]",,-0.000145804879139,-0.00415009818971,-0.0233279000968,"[0.0, 0.0, 0.0, 0.0, 0.0, 0.0, 0.0, 0.0, 0.0]",,0.447561442852,0.173363506794,-9.59839916229,"[0.0, 0.0, 0.0, 0.0, 0.0, 0.0, 0.0, 0.0, 0.0]"
1508259124268286270,,7033,,1508259124,267894082,imu,,-0.0191942397505,0.0133963888511,0.646673560143,0.762407720089,"[0.0, 0.0, 0.0, 0.0, 0.0, 0.0, 0.0, 0.0, 0.0]",,0.000166074751178,0.00206664716825,-0.02569273673,"[0.0, 0.0, 0.0, 0.0, 0.0, 0.0, 0.0, 0.0, 0.0]",,0.438642501831,0.0910302847624,-9.504570961,"[0.0, 0.0, 0.0, 0.0, 0.0, 0.0, 0.0, 0.0, 0.0]"
1508259124279046582,,7034,,1508259124,278457520,imu,,-0.0191968176514,0.0134028568864,0.646668791771,0.762411594391,"[0.0, 0.0, 0.0, 0.0, 0.0, 0.0, 0.0, 0.0, 0.0]",,0.000969925895333,0.00137272267602,-0.0251245591789,"[0.0, 0.0, 0.0, 0.0, 0.0, 0.0, 0.0, 0.0, 0.0]",,0.383031755686,0.176688820124,-9.61116409302,"[0.0, 0.0, 0.0, 0.0, 0.0, 0.0, 0.0, 0.0, 0.0]"
1508259124289418353,,7035,,1508259124,288834968,imu,,-0.0191960446537,0.0133872088045,0.646667420864,0.762412965298,"[0.0, 0.0, 0.0, 0.0, 0.0, 0.0, 0.0, 0.0, 0.0]",,0.000284796522465,-0.0011849545408,-0.0244580265135,"[0.0, 0.0, 0.0, 0.0, 0.0, 0.0, 0.0, 0.0, 0.0]",,0.492767512798,0.0866329818964,-9.52326202393,"[0.0, 0.0, 0.0, 0.0, 0.0, 0.0, 0.0, 0.0, 0.0]"
1508259124300194499,,7036,,1508259124,299406791,imu,,-0.0192092265934,0.0134085407481,0.646659374237,0.762419104576,"[0.0, 0.0, 0.0, 0.0, 0.0, 0.0, 0.0, 0.0, 0.0]",,-0.000259560125414,0.00503648072481,-0.026087205857,"[0.0, 0.0, 0.0, 0.0, 0.0, 0.0, 0.0, 0.0, 0.0]",,0.352230161428,0.0955930873752,-9.50312423706,"[0.0, 0.0, 0.0, 0.0, 0.0, 0.0, 0.0, 0.0, 0.0]"
1508259124310433510,,7037,,1508259124,309823197,imu,,-0.0192030053586,0.0133962854743,0.64665967226,0.76241928339,"[0.0, 0.0, 0.0, 0.0, 0.0, 0.0, 0.0, 0.0, 0.0]",,0.000745961093344,-0.00201347679831,-0.0244434177876,"[0.0, 0.0, 0.0, 0.0, 0.0, 0.0, 0.0, 0.0, 0.0]",,0.46476149559,0.148314297199,-9.58846378326,"[0.0, 0.0, 0.0, 0.0, 0.0, 0.0, 0.0, 0.0, 0.0]"
1508259124321678510,,7038,,1508259124,320803197,imu,,-0.0192066971213,0.013399919495,0.646663308144,0.762416005135,"[0.0, 0.0, 0.0, 0.0, 0.0, 0.0, 0.0, 0.0, 0.0]",,0.000946110056248,0.00212868768722,-0.0247064325958,"[0.0, 0.0, 0.0, 0.0, 0.0, 0.0, 0.0, 0.0, 0.0]",,0.456855297089,0.0592410229146,-9.45097541809,"[0.0, 0.0, 0.0, 0.0, 0.0, 0.0, 0.0, 0.0, 0.0]"
1508259124332070489,,7039,,1508259124,331229082,imu,,-0.019208425656,0.0134093537927,0.646668732166,0.762411236763,"[0.0, 0.0, 0.0, 0.0, 0.0, 0.0, 0.0, 0.0, 0.0]",,4.29091742262e-05,0.00104662124068,-0.0248264092952,"[0.0, 0.0, 0.0, 0.0, 0.0, 0.0, 0.0, 0.0, 0.0]",,0.375016003847,0.165553539991,-9.59274959564,"[0.0, 0.0, 0.0, 0.0, 0.0, 0.0, 0.0, 0.0, 0.0]"
1508259124342593145,,7040,,1508259124,341631218,imu,,-0.0192001853138,0.0133923534304,0.646674096584,0.762407064438,"[0.0, 0.0, 0.0, 0.0, 0.0, 0.0, 0.0, 0.0, 0.0]",,0.000371871865354,-0.00310517870821,-0.0246321186423,"[0.0, 0.0, 0.0, 0.0, 0.0, 0.0, 0.0, 0.0, 0.0]",,0.500826358795,0.108802780509,-9.52582931519,"[0.0, 0.0, 0.0, 0.0, 0.0, 0.0, 0.0, 0.0, 0.0]"
1508259124348270957,,7041,,1508259124,347614343,imu,,-0.0192015431821,0.0134093565866,0.646671891212,0.762408673763,"[0.0, 0.0, 0.0, 0.0, 0.0, 0.0, 0.0, 0.0, 0.0]",,-0.00050162198022,0.00285332743078,-0.0252719111741,"[0.0, 0.0, 0.0, 0.0, 0.0, 0.0, 0.0, 0.0, 0.0]",,0.36383754015,0.0898206084967,-9.52904129028,"[0.0, 0.0, 0.0, 0.0, 0.0, 0.0, 0.0, 0.0, 0.0]"
1508259124358585332,,7042,,1508259124,358104447,imu,,-0.0191861297935,0.0133954258636,0.646676540375,0.762405395508,"[0.0, 0.0, 0.0, 0.0, 0.0, 0.0, 0.0, 0.0, 0.0]",,0.00188072805759,-0.0028980046045,-0.0241892728955,"[0.0, 0.0, 0.0, 0.0, 0.0, 0.0, 0.0, 0.0, 0.0]",,0.448486894369,0.167843729258,-9.59127235413,"[0.0, 0.0, 0.0, 0.0, 0.0, 0.0, 0.0, 0.0, 0.0]"
1508259124369338145,,7043,,1508259124,368515385,imu,,-0.0191913899034,0.0133956642821,0.646681129932,0.762401342392,"[0.0, 0.0, 0.0, 0.0, 0.0, 0.0, 0.0, 0.0, 0.0]",,-0.00012203186634,0.00130770739634,-0.0264695044607,"[0.0, 0.0, 0.0, 0.0, 0.0, 0.0, 0.0, 0.0, 0.0]",,0.43807002902,0.0626223757863,-9.44833374023,"[0.0, 0.0, 0.0, 0.0, 0.0, 0.0, 0.0, 0.0, 0.0]"
1508259124379502832,,7044,,1508259124,378836999,imu,,-0.0191938094795,0.0134006338194,0.646685361862,0.762397646904,"[0.0, 0.0, 0.0, 0.0, 0.0, 0.0, 0.0, 0.0, 0.0]",,-3.14338358294e-05,0.00182109535672,-0.025950005278,"[0.0, 0.0, 0.0, 0.0, 0.0, 0.0, 0.0, 0.0, 0.0]",,0.351909995079,0.143770217896,-9.59174251556,"[0.0, 0.0, 0.0, 0.0, 0.0, 0.0, 0.0, 0.0, 0.0]"
1508259124389752312,,7045,,1508259124,389168822,imu,,-0.0191863421351,0.0133845098317,0.646690607071,0.762393534184,"[0.0, 0.0, 0.0, 0.0, 0.0, 0.0, 0.0, 0.0, 0.0]",,0.00136266904883,-0.00243746535853,-0.0237533859909,"[0.0, 0.0, 0.0, 0.0, 0.0, 0.0, 0.0, 0.0, 0.0]",,0.509552538395,0.104450814426,-9.50751590729,"[0.0, 0.0, 0.0, 0.0, 0.0, 0.0, 0.0, 0.0, 0.0]"
1508259124400101582,,7046,,1508259124,399565853,imu,,-0.019201239571,0.013399806805,0.646686077118,0.762396752834,"[0.0, 0.0, 0.0, 0.0, 0.0, 0.0, 0.0, 0.0, 0.0]",,-0.00189363583922,0.00491923792288,-0.0253685731441,"[0.0, 0.0, 0.0, 0.0, 0.0, 0.0, 0.0, 0.0, 0.0]",,0.353689938784,0.0958322957158,-9.51470279694,"[0.0, 0.0, 0.0, 0.0, 0.0, 0.0, 0.0, 0.0, 0.0]"
1508259124410643197,,7047,,1508259124,410090853,imu,,-0.0191932898015,0.0133861172944,0.646685302258,0.762397885323,"[0.0, 0.0, 0.0, 0.0, 0.0, 0.0, 0.0, 0.0, 0.0]",,0.000227907919907,-0.00256791920401,-0.0240871571004,"[0.0, 0.0, 0.0, 0.0, 0.0, 0.0, 0.0, 0.0, 0.0]",,0.450355350971,0.151056855917,-9.59779930115,"[0.0, 0.0, 0.0, 0.0, 0.0, 0.0, 0.0, 0.0, 0.0]"
1508259124421269968,,7048,,1508259124,420726218,imu,,-0.0191996283829,0.0133890202269,0.646682798862,0.762399792671,"[0.0, 0.0, 0.0, 0.0, 0.0, 0.0, 0.0, 0.0, 0.0]",,-0.000305957102682,0.00211876118556,-0.025134049356,"[0.0, 0.0, 0.0, 0.0, 0.0, 0.0, 0.0, 0.0, 0.0]",,0.449698865414,0.0769289061427,-9.45661830902,"[0.0, 0.0, 0.0, 0.0, 0.0, 0.0, 0.0, 0.0, 0.0]"
1508259124431870645,,7049,,1508259124,431422103,imu,,-0.0192051753402,0.0134002696723,0.646685361862,0.762397348881,"[0.0, 0.0, 0.0, 0.0, 0.0, 0.0, 0.0, 0.0, 0.0]",,0.000633312680293,0.00232698908076,-0.0245531201363,"[0.0, 0.0, 0.0, 0.0, 0.0, 0.0, 0.0, 0.0, 0.0]",,0.366949439049,0.141114979982,-9.59265708923,"[0.0, 0.0, 0.0, 0.0, 0.0, 0.0, 0.0, 0.0, 0.0]"
1508259124442494864,,7050,,1508259124,441893874,imu,,-0.0191962700337,0.0133856087923,0.646687328815,0.762396037579,"[0.0, 0.0, 0.0, 0.0, 0.0, 0.0, 0.0, 0.0, 0.0]",,0.000934048672207,-0.00200860435143,-0.0244783908129,"[0.0, 0.0, 0.0, 0.0, 0.0, 0.0, 0.0, 0.0, 0.0]",,0.509918093681,0.101891063154,-9.46873378754,"[0.0, 0.0, 0.0, 0.0, 0.0, 0.0, 0.0, 0.0, 0.0]"
1508259124452907937,,7051,,1508259124,452211582,imu,,-0.0192072112113,0.0134058166295,0.646678984165,0.76240259409,"[0.0, 0.0, 0.0, 0.0, 0.0, 0.0, 0.0, 0.0, 0.0]",,0.000269122130703,0.00467171659693,-0.0259195305407,"[0.0, 0.0, 0.0, 0.0, 0.0, 0.0, 0.0, 0.0, 0.0]",,0.358186483383,0.0964224562049,-9.51941490173,"[0.0, 0.0, 0.0, 0.0, 0.0, 0.0, 0.0, 0.0, 0.0]"
1508259124464618510,,7052,,1508259124,462595697,imu,,-0.0191957820207,0.0133901387453,0.646680772305,0.762401580811,"[0.0, 0.0, 0.0, 0.0, 0.0, 0.0, 0.0, 0.0, 0.0]",,0.000905768945813,-0.0032093138434,-0.0244541354477,"[0.0, 0.0, 0.0, 0.0, 0.0, 0.0, 0.0, 0.0, 0.0]",,0.476439267397,0.169602274895,-9.59452056885,"[0.0, 0.0, 0.0, 0.0, 0.0, 0.0, 0.0, 0.0, 0.0]"
1508259124468503666,,7053,,1508259124,467865072,imu,,-0.0191993452609,0.0133919604123,0.646684229374,0.762398540974,"[0.0, 0.0, 0.0, 0.0, 0.0, 0.0, 0.0, 0.0, 0.0]",,0.00029755095602,0.00154849479441,-0.0247739534825,"[0.0, 0.0, 0.0, 0.0, 0.0, 0.0, 0.0, 0.0, 0.0]",,0.436250299215,0.0697777792811,-9.48130321503,"[0.0, 0.0, 0.0, 0.0, 0.0, 0.0, 0.0, 0.0, 0.0]"
1508259124478785489,,7054,,1508259124,478304135,imu,,-0.0191986337304,0.0133967110887,0.646682202816,0.762400269508,"[0.0, 0.0, 0.0, 0.0, 0.0, 0.0, 0.0, 0.0, 0.0]",,-0.0002569060307,0.0015887938207,-0.0252530574799,"[0.0, 0.0, 0.0, 0.0, 0.0, 0.0, 0.0, 0.0, 0.0]",,0.369946449995,0.156565666199,-9.58935451508,"[0.0, 0.0, 0.0, 0.0, 0.0, 0.0, 0.0, 0.0, 0.0]"
1508259124489302780,,7055,,1508259124,488581791,imu,,-0.0191872436553,0.0133720068261,0.646684467793,0.762399017811,"[0.0, 0.0, 0.0, 0.0, 0.0, 0.0, 0.0, 0.0, 0.0]",,0.000190411228687,-0.00516224373132,-0.0242200531065,"[0.0, 0.0, 0.0, 0.0, 0.0, 0.0, 0.0, 0.0, 0.0]",,0.51126819849,0.13075505197,-9.50452518463,"[0.0, 0.0, 0.0, 0.0, 0.0, 0.0, 0.0, 0.0, 0.0]"
1508259124499730801,,7056,,1508259124,499077103,imu,,-0.0191975403577,0.0133888293058,0.646675765514,0.76240581274,"[0.0, 0.0, 0.0, 0.0, 0.0, 0.0, 0.0, 0.0, 0.0]",,-0.00144244031981,0.00328884343617,-0.0254152081907,"[0.0, 0.0, 0.0, 0.0, 0.0, 0.0, 0.0, 0.0, 0.0]",,0.336913585663,0.0928554013371,-9.49915409088,"[0.0, 0.0, 0.0, 0.0, 0.0, 0.0, 0.0, 0.0, 0.0]"
1508259124510079759,,7057,,1508259124,509513822,imu,,-0.0191920306534,0.0133709646761,0.646679401398,0.762403249741,"[0.0, 0.0, 0.0, 0.0, 0.0, 0.0, 0.0, 0.0, 0.0]",,-0.000113316658826,-0.00312900403515,-0.0232067853212,"[0.0, 0.0, 0.0, 0.0, 0.0, 0.0, 0.0, 0.0, 0.0]",,0.4183152318,0.159024044871,-9.60923576355,"[0.0, 0.0, 0.0, 0.0, 0.0, 0.0, 0.0, 0.0, 0.0]"
1508259124520757624,,7058,,1508259124,520217937,imu,,-0.0191925428808,0.0133694428951,0.646682739258,0.762400388718,"[0.0, 0.0, 0.0, 0.0, 0.0, 0.0, 0.0, 0.0, 0.0]",,3.04439454339e-05,0.00167213473469,-0.0245964154601,"[0.0, 0.0, 0.0, 0.0, 0.0, 0.0, 0.0, 0.0, 0.0]",,0.442685782909,0.0578230805695,-9.50009250641,"[0.0, 0.0, 0.0, 0.0, 0.0, 0.0, 0.0, 0.0, 0.0]"
1508259124531337207,,7059,,1508259124,530857884,imu,,-0.019195843488,0.01337593887,0.6466781497,0.762404084206,"[0.0, 0.0, 0.0, 0.0, 0.0, 0.0, 0.0, 0.0, 0.0]",,-0.000259015505435,0.00210913014598,-0.0248831231147,"[0.0, 0.0, 0.0, 0.0, 0.0, 0.0, 0.0, 0.0, 0.0]",,0.364692479372,0.172637715936,-9.5999212265,"[0.0, 0.0, 0.0, 0.0, 0.0, 0.0, 0.0, 0.0, 0.0]"
1508259124542046687,,7060,,1508259124,541467051,imu,,-0.0191915556788,0.0133596360683,0.646678924561,0.762403845787,"[0.0, 0.0, 0.0, 0.0, 0.0, 0.0, 0.0, 0.0, 0.0]",,0.000180902963621,-0.00264746672474,-0.0240305140615,"[0.0, 0.0, 0.0, 0.0, 0.0, 0.0, 0.0, 0.0, 0.0]",,0.495876908302,0.0845953300595,-9.50482177734,"[0.0, 0.0, 0.0, 0.0, 0.0, 0.0, 0.0, 0.0, 0.0]"
1508259124552329968,,7061,,1508259124,551846009,imu,,-0.0192022360861,0.0133776897565,0.646675109863,0.762406468391,"[0.0, 0.0, 0.0, 0.0, 0.0, 0.0, 0.0, 0.0, 0.0]",,-0.000842476729304,0.00492438068613,-0.0257888454944,"[0.0, 0.0, 0.0, 0.0, 0.0, 0.0, 0.0, 0.0, 0.0]",,0.333986252546,0.116293922067,-9.48475646973,"[0.0, 0.0, 0.0, 0.0, 0.0, 0.0, 0.0, 0.0, 0.0]"
1508259124562900593,,7062,,1508259124,562345020,imu,,-0.0191997010261,0.0133671425283,0.646676301956,0.762405693531,"[0.0, 0.0, 0.0, 0.0, 0.0, 0.0, 0.0, 0.0, 0.0]",,0.000369639106793,-0.00100821792148,-0.023968860507,"[0.0, 0.0, 0.0, 0.0, 0.0, 0.0, 0.0, 0.0, 0.0]",,0.440172791481,0.158349752426,-9.60250282288,"[0.0, 0.0, 0.0, 0.0, 0.0, 0.0, 0.0, 0.0, 0.0]"
1508259124568229864,,7063,,1508259124,567642676,imu,,-0.0192063394934,0.0133714359254,0.646677851677,0.762404203415,"[0.0, 0.0, 0.0, 0.0, 0.0, 0.0, 0.0, 0.0, 0.0]",,9.11488023121e-05,0.00242922804318,-0.0260622836649,"[0.0, 0.0, 0.0, 0.0, 0.0, 0.0, 0.0, 0.0, 0.0]",,0.426583349705,0.0646907910705,-9.43144607544,"[0.0, 0.0, 0.0, 0.0, 0.0, 0.0, 0.0, 0.0, 0.0]"
1508259124578976739,,7064,,1508259124,578405124,imu,,-0.019214367494,0.0133791388944,0.646673560143,0.762407541275,"[0.0, 0.0, 0.0, 0.0, 0.0, 0.0, 0.0, 0.0, 0.0]",,-0.00178007956129,0.00232231337577,-0.0242697540671,"[0.0, 0.0, 0.0, 0.0, 0.0, 0.0, 0.0, 0.0, 0.0]",,0.386214971542,0.182143360376,-9.57772541046,"[0.0, 0.0, 0.0, 0.0, 0.0, 0.0, 0.0, 0.0, 0.0]"
1508259124590110957,,7065,,1508259124,589378353,imu,,-0.0192053932697,0.0133647676557,0.646676063538,0.762405872345,"[0.0, 0.0, 0.0, 0.0, 0.0, 0.0, 0.0, 0.0, 0.0]",,0.000437122100266,-0.00321191875264,-0.0232938844711,"[0.0, 0.0, 0.0, 0.0, 0.0, 0.0, 0.0, 0.0, 0.0]",,0.522903323174,0.118894018233,-9.49871253967,"[0.0, 0.0, 0.0, 0.0, 0.0, 0.0, 0.0, 0.0, 0.0]"
1508259124600688457,,7066,,1508259124,599996322,imu,,-0.0192154608667,0.0133800590411,0.646670877934,0.762409746647,"[0.0, 0.0, 0.0, 0.0, 0.0, 0.0, 0.0, 0.0, 0.0]",,-0.000767857127357,0.00329944933765,-0.0256074164063,"[0.0, 0.0, 0.0, 0.0, 0.0, 0.0, 0.0, 0.0, 0.0]",,0.362461090088,0.095212623477,-9.49149036407,"[0.0, 0.0, 0.0, 0.0, 0.0, 0.0, 0.0, 0.0, 0.0]"
1508259124611417884,,7067,,1508259124,610673405,imu,,-0.0192066412419,0.0133648542687,0.646670341492,0.762410700321,"[0.0, 0.0, 0.0, 0.0, 0.0, 0.0, 0.0, 0.0, 0.0]",,-4.21743607149e-05,-0.00273658754304,-0.023835901171,"[0.0, 0.0, 0.0, 0.0, 0.0, 0.0, 0.0, 0.0, 0.0]",,0.459523141384,0.149975448847,-9.62211608887,"[0.0, 0.0, 0.0, 0.0, 0.0, 0.0, 0.0, 0.0, 0.0]"
1508259124622715645,,7068,,1508259124,621629864,imu,,-0.0192066747695,0.013366529718,0.646667599678,0.762412965298,"[0.0, 0.0, 0.0, 0.0, 0.0, 0.0, 0.0, 0.0, 0.0]",,0.000608006143011,0.00118653895333,-0.0250570382923,"[0.0, 0.0, 0.0, 0.0, 0.0, 0.0, 0.0, 0.0, 0.0]",,0.454877912998,0.0777589529753,-9.42893600464,"[0.0, 0.0, 0.0, 0.0, 0.0, 0.0, 0.0, 0.0, 0.0]"
1508259124631237051,,7069,,1508259124,630229082,imu,,-0.0192148517817,0.0133694214746,0.646666049957,0.762414038181,"[0.0, 0.0, 0.0, 0.0, 0.0, 0.0, 0.0, 0.0, 0.0]",,-0.00164384278469,0.0012331448961,-0.0236123688519,"[0.0, 0.0, 0.0, 0.0, 0.0, 0.0, 0.0, 0.0, 0.0]",,0.370198011398,0.158910006285,-9.59909725189,"[0.0, 0.0, 0.0, 0.0, 0.0, 0.0, 0.0, 0.0, 0.0]"
1508259124641752989,,7070,,1508259124,640779864,imu,,-0.0192006547004,0.0133522795513,0.646671533585,0.762409925461,"[0.0, 0.0, 0.0, 0.0, 0.0, 0.0, 0.0, 0.0, 0.0]",,0.000725148129277,-0.00356496684253,-0.0236787647009,"[0.0, 0.0, 0.0, 0.0, 0.0, 0.0, 0.0, 0.0, 0.0]",,0.499743521214,0.10053344816,-9.52293491364,"[0.0, 0.0, 0.0, 0.0, 0.0, 0.0, 0.0, 0.0, 0.0]"
1508259124652088301,,7071,,1508259124,651381114,imu,,-0.0192063972354,0.0133623052388,0.646670162678,0.762410879135,"[0.0, 0.0, 0.0, 0.0, 0.0, 0.0, 0.0, 0.0, 0.0]",,-0.00028558872873,0.00283367466182,-0.0247993804514,"[0.0, 0.0, 0.0, 0.0, 0.0, 0.0, 0.0, 0.0, 0.0]",,0.352453291416,0.0994942635298,-9.50531005859,"[0.0, 0.0, 0.0, 0.0, 0.0, 0.0, 0.0, 0.0, 0.0]"
1508259124662265801,,7072,,1508259124,661739082,imu,,-0.0192010141909,0.0133493030444,0.646672427654,0.762409329414,"[0.0, 0.0, 0.0, 0.0, 0.0, 0.0, 0.0, 0.0, 0.0]",,0.00095876987325,-0.00195178354625,-0.0232875756919,"[0.0, 0.0, 0.0, 0.0, 0.0, 0.0, 0.0, 0.0, 0.0]",,0.436223179102,0.149882003665,-9.56537628174,"[0.0, 0.0, 0.0, 0.0, 0.0, 0.0, 0.0, 0.0, 0.0]"
1508259124672671843,,7073,,1508259124,672142832,imu,,-0.0192024223506,0.0133493375033,0.646672546864,0.762409090996,"[0.0, 0.0, 0.0, 0.0, 0.0, 0.0, 0.0, 0.0, 0.0]",,-0.000577152008191,0.00110811507329,-0.0252875369042,"[0.0, 0.0, 0.0, 0.0, 0.0, 0.0, 0.0, 0.0, 0.0]",,0.446461826563,0.0574542246759,-9.48095798492,"[0.0, 0.0, 0.0, 0.0, 0.0, 0.0, 0.0, 0.0, 0.0]"
1508259124678304030,,7074,,1508259124,677818145,imu,,-0.0192084144801,0.0133550120518,0.646668791771,0.762412130833,"[0.0, 0.0, 0.0, 0.0, 0.0, 0.0, 0.0, 0.0, 0.0]",,-0.00155318249017,0.00154950236902,-0.0253767259419,"[0.0, 0.0, 0.0, 0.0, 0.0, 0.0, 0.0, 0.0, 0.0]",,0.35077804327,0.171337008476,-9.59788322449,"[0.0, 0.0, 0.0, 0.0, 0.0, 0.0, 0.0, 0.0, 0.0]"
1508259124688750645,,7075,,1508259124,688242259,imu,,-0.0191984251142,0.0133403744549,0.646670997143,0.762410759926,"[0.0, 0.0, 0.0, 0.0, 0.0, 0.0, 0.0, 0.0, 0.0]",,0.00153503473848,-0.00268937810324,-0.0238704271615,"[0.0, 0.0, 0.0, 0.0, 0.0, 0.0, 0.0, 0.0, 0.0]",,0.50836879015,0.104473210871,-9.49307823181,"[0.0, 0.0, 0.0, 0.0, 0.0, 0.0, 0.0, 0.0, 0.0]"
1508259124699105853,,7076,,1508259124,698628874,imu,,-0.0192139260471,0.0133574688807,0.646668791771,0.762411952019,"[0.0, 0.0, 0.0, 0.0, 0.0, 0.0, 0.0, 0.0, 0.0]",,-0.000741990166716,0.00404586829245,-0.0259568952024,"[0.0, 0.0, 0.0, 0.0, 0.0, 0.0, 0.0, 0.0, 0.0]",,0.359075367451,0.111875683069,-9.51016807556,"[0.0, 0.0, 0.0, 0.0, 0.0, 0.0, 0.0, 0.0, 0.0]"
1508259124709512780,,7077,,1508259124,709009864,imu,,-0.0192077942193,0.0133452601731,0.646670103073,0.762411177158,"[0.0, 0.0, 0.0, 0.0, 0.0, 0.0, 0.0, 0.0, 0.0]",,0.000298886618111,-0.00200417847373,-0.0246477071196,"[0.0, 0.0, 0.0, 0.0, 0.0, 0.0, 0.0, 0.0, 0.0]",,0.445427954197,0.167846098542,-9.60564231873,"[0.0, 0.0, 0.0, 0.0, 0.0, 0.0, 0.0, 0.0, 0.0]"
1508259124719909395,,7078,,1508259124,719362103,imu,,-0.0192193780094,0.0133482543752,0.646669089794,0.762411653996,"[0.0, 0.0, 0.0, 0.0, 0.0, 0.0, 0.0, 0.0, 0.0]",,-2.93967896141e-05,0.00283147767186,-0.0252579078078,"[0.0, 0.0, 0.0, 0.0, 0.0, 0.0, 0.0, 0.0, 0.0]",,0.439740687609,0.0794759690762,-9.4796705246,"[0.0, 0.0, 0.0, 0.0, 0.0, 0.0, 0.0, 0.0, 0.0]"
1508259124730132259,,7079,,1508259124,729659759,imu,,-0.0192246939987,0.0133532145992,0.64666903019,0.762411534786,"[0.0, 0.0, 0.0, 0.0, 0.0, 0.0, 0.0, 0.0, 0.0]",,-0.0011357673211,0.00182473566383,-0.025515884161,"[0.0, 0.0, 0.0, 0.0, 0.0, 0.0, 0.0, 0.0, 0.0]",,0.35526368022,0.144031301141,-9.55908966064,"[0.0, 0.0, 0.0, 0.0, 0.0, 0.0, 0.0, 0.0, 0.0]"
1508259124740416218,,7080,,1508259124,739908874,imu,,-0.0192121323198,0.0133406445384,0.646671712399,0.762409687042,"[0.0, 0.0, 0.0, 0.0, 0.0, 0.0, 0.0, 0.0, 0.0]",,0.000819314504042,-0.00274058431387,-0.0245377831161,"[0.0, 0.0, 0.0, 0.0, 0.0, 0.0, 0.0, 0.0, 0.0]",,0.513756871223,0.0949409529567,-9.53943443298,"[0.0, 0.0, 0.0, 0.0, 0.0, 0.0, 0.0, 0.0, 0.0]"
1508259124750909551,,7081,,1508259124,750384447,imu,,-0.0192199293524,0.013360244222,0.64666467905,0.762415230274,"[0.0, 0.0, 0.0, 0.0, 0.0, 0.0, 0.0, 0.0, 0.0]",,0.000157749134814,0.00423750840127,-0.0259022116661,"[0.0, 0.0, 0.0, 0.0, 0.0, 0.0, 0.0, 0.0, 0.0]",,0.350228875875,0.0843244343996,-9.52182197571,"[0.0, 0.0, 0.0, 0.0, 0.0, 0.0, 0.0, 0.0, 0.0]"
1508259124761191947,,7082,,1508259124,760641009,imu,,-0.0192099884152,0.0133465630934,0.646665394306,0.762415111065,"[0.0, 0.0, 0.0, 0.0, 0.0, 0.0, 0.0, 0.0, 0.0]",,0.000572777760681,-0.00186113489326,-0.0238676145673,"[0.0, 0.0, 0.0, 0.0, 0.0, 0.0, 0.0, 0.0, 0.0]",,0.439317196608,0.152814358473,-9.5637178421,"[0.0, 0.0, 0.0, 0.0, 0.0, 0.0, 0.0, 0.0, 0.0]"
1508259124771630489,,7083,,1508259124,771065853,imu,,-0.0192112792283,0.0133440373465,0.646667957306,0.762412965298,"[0.0, 0.0, 0.0, 0.0, 0.0, 0.0, 0.0, 0.0, 0.0]",,-0.00064141349867,0.000535150698852,-0.0250174440444,"[0.0, 0.0, 0.0, 0.0, 0.0, 0.0, 0.0, 0.0, 0.0]",,0.467221200466,0.0548520050943,-9.46513175964,"[0.0, 0.0, 0.0, 0.0, 0.0, 0.0, 0.0, 0.0, 0.0]"
1508259124782376530,,7084,,1508259124,781589134,imu,,-0.0192110482603,0.0133578069508,0.646664738655,0.762415349483,"[0.0, 0.0, 0.0, 0.0, 0.0, 0.0, 0.0, 0.0, 0.0]",,0.000178384652827,0.00158387469128,-0.0235802531242,"[0.0, 0.0, 0.0, 0.0, 0.0, 0.0, 0.0, 0.0, 0.0]",,0.349231243134,0.14611454308,-9.58843517303,"[0.0, 0.0, 0.0, 0.0, 0.0, 0.0, 0.0, 0.0, 0.0]"
1508259124788597989,,7085,,1508259124,787822780,imu,,-0.0192022901028,0.0133417230099,0.646667838097,0.762413322926,"[0.0, 0.0, 0.0, 0.0, 0.0, 0.0, 0.0, 0.0, 0.0]",,0.000828074058518,-0.002715094015,-0.0228624604642,"[0.0, 0.0, 0.0, 0.0, 0.0, 0.0, 0.0, 0.0, 0.0]",,0.525030255318,0.134237468243,-9.5425157547,"[0.0, 0.0, 0.0, 0.0, 0.0, 0.0, 0.0, 0.0, 0.0]"
1508259124798860749,,7086,,1508259124,798247884,imu,,-0.0192166417837,0.0133606437594,0.646663725376,0.762416124344,"[0.0, 0.0, 0.0, 0.0, 0.0, 0.0, 0.0, 0.0, 0.0]",,-0.000200913156732,0.00556535087526,-0.0254674572498,"[0.0, 0.0, 0.0, 0.0, 0.0, 0.0, 0.0, 0.0, 0.0]",,0.357575029135,0.0830891877413,-9.50327110291,"[0.0, 0.0, 0.0, 0.0, 0.0, 0.0, 0.0, 0.0, 0.0]"
1508259124809741999,,7087,,1508259124,808932520,imu,,-0.019209459424,0.0133531652391,0.646664977074,0.762415349483,"[0.0, 0.0, 0.0, 0.0, 0.0, 0.0, 0.0, 0.0, 0.0]",,0.000618376710918,-0.00128460652195,-0.0246584769338,"[0.0, 0.0, 0.0, 0.0, 0.0, 0.0, 0.0, 0.0, 0.0]",,0.45752838254,0.15908357501,-9.59953212738,"[0.0, 0.0, 0.0, 0.0, 0.0, 0.0, 0.0, 0.0, 0.0]"
1508259124820433249,,7088,,1508259124,819412936,imu,,-0.0192152094096,0.0133538162336,0.646665334702,0.762414813042,"[0.0, 0.0, 0.0, 0.0, 0.0, 0.0, 0.0, 0.0, 0.0]",,0.00026168799377,0.00214303750545,-0.0255169682205,"[0.0, 0.0, 0.0, 0.0, 0.0, 0.0, 0.0, 0.0, 0.0]",,0.44465637207,0.082029722631,-9.45843315125,"[0.0, 0.0, 0.0, 0.0, 0.0, 0.0, 0.0, 0.0, 0.0]"
1508259124830743145,,7089,,1508259124,829976582,imu,,-0.0192203242332,0.0133603932336,0.646658957005,0.76242005825,"[0.0, 0.0, 0.0, 0.0, 0.0, 0.0, 0.0, 0.0, 0.0]",,-0.000284578534774,0.00171704846434,-0.0258456561714,"[0.0, 0.0, 0.0, 0.0, 0.0, 0.0, 0.0, 0.0, 0.0]",,0.371777951717,0.1363799721,-9.63144779205,"[0.0, 0.0, 0.0, 0.0, 0.0, 0.0, 0.0, 0.0, 0.0]"
1508259124841359811,,7090,,1508259124,840537468,imu,,-0.0192112568766,0.0133457388729,0.646662533283,0.762417554855,"[0.0, 0.0, 0.0, 0.0, 0.0, 0.0, 0.0, 0.0, 0.0]",,0.000606618938036,-0.00261586927809,-0.0242487061769,"[0.0, 0.0, 0.0, 0.0, 0.0, 0.0, 0.0, 0.0, 0.0]",,0.516606330872,0.114000201225,-9.50270748138,"[0.0, 0.0, 0.0, 0.0, 0.0, 0.0, 0.0, 0.0, 0.0]"
1508259124852347155,,7091,,1508259124,851534395,imu,,-0.019227931276,0.0133627261966,0.646660745144,0.762418210506,"[0.0, 0.0, 0.0, 0.0, 0.0, 0.0, 0.0, 0.0, 0.0]",,-0.00221490417607,0.00518196308985,-0.0255013853312,"[0.0, 0.0, 0.0, 0.0, 0.0, 0.0, 0.0, 0.0, 0.0]",,0.349667966366,0.0987892299891,-9.49869346619,"[0.0, 0.0, 0.0, 0.0, 0.0, 0.0, 0.0, 0.0, 0.0]"
1508259124867909291,,7092,,1508259124,861988770,imu,,-0.0192182548344,0.0133506795391,0.646653234959,0.76242518425,"[0.0, 0.0, 0.0, 0.0, 0.0, 0.0, 0.0, 0.0, 0.0]",,0.000568100658711,-0.00184944015928,-0.0251692570746,"[0.0, 0.0, 0.0, 0.0, 0.0, 0.0, 0.0, 0.0, 0.0]",,0.47182238102,0.159793540835,-9.59683609009,"[0.0, 0.0, 0.0, 0.0, 0.0, 0.0, 0.0, 0.0, 0.0]"
1508259124873611895,,7093,,1508259124,872417676,imu,,-0.0192232504487,0.0133540024981,0.646651506424,0.762426435947,"[0.0, 0.0, 0.0, 0.0, 0.0, 0.0, 0.0, 0.0, 0.0]",,0.000558477593586,0.00197178614326,-0.024923665449,"[0.0, 0.0, 0.0, 0.0, 0.0, 0.0, 0.0, 0.0, 0.0]",,0.439173966646,0.0604687742889,-9.46507167816,"[0.0, 0.0, 0.0, 0.0, 0.0, 0.0, 0.0, 0.0, 0.0]"
1508259124878291843,,7094,,1508259124,877716270,imu,,-0.0192247014493,0.0133612276986,0.646656274796,0.762422204018,"[0.0, 0.0, 0.0, 0.0, 0.0, 0.0, 0.0, 0.0, 0.0]",,-4.9070949899e-06,0.000955732655711,-0.0242911837995,"[0.0, 0.0, 0.0, 0.0, 0.0, 0.0, 0.0, 0.0, 0.0]",,0.382375150919,0.170576766133,-9.58439064026,"[0.0, 0.0, 0.0, 0.0, 0.0, 0.0, 0.0, 0.0, 0.0]"
1508259124888767051,,7095,,1508259124,888180176,imu,,-0.0192204285413,0.0133419660851,0.64666223526,0.76241761446,"[0.0, 0.0, 0.0, 0.0, 0.0, 0.0, 0.0, 0.0, 0.0]",,0.00010166267748,-0.00341884046793,-0.0222371593118,"[0.0, 0.0, 0.0, 0.0, 0.0, 0.0, 0.0, 0.0, 0.0]",,0.547159433365,0.106430515647,-9.51732444763,"[0.0, 0.0, 0.0, 0.0, 0.0, 0.0, 0.0, 0.0, 0.0]"
1508259124899264134,,7096,,1508259124,898645749,imu,,-0.0192310139537,0.0133556751534,0.646654069424,0.762423992157,"[0.0, 0.0, 0.0, 0.0, 0.0, 0.0, 0.0, 0.0, 0.0]",,-0.000609477574471,0.00416872557253,-0.0250080991536,"[0.0, 0.0, 0.0, 0.0, 0.0, 0.0, 0.0, 0.0, 0.0]",,0.38251888752,0.109385311604,-9.49569702148,"[0.0, 0.0, 0.0, 0.0, 0.0, 0.0, 0.0, 0.0, 0.0]"
1508259124911407884,,7097,,1508259124,910784134,imu,,-0.0192259438336,0.0133437486365,0.646651685238,0.762426376343,"[0.0, 0.0, 0.0, 0.0, 0.0, 0.0, 0.0, 0.0, 0.0]",,0.000826921663247,-0.00230181915686,-0.023529579863,"[0.0, 0.0, 0.0, 0.0, 0.0, 0.0, 0.0, 0.0, 0.0]",,0.464542269707,0.155141502619,-9.60288619995,"[0.0, 0.0, 0.0, 0.0, 0.0, 0.0, 0.0, 0.0, 0.0]"
1508259124922165541,,7098,,1508259124,921373197,imu,,-0.019226199016,0.013342032209,0.646649718285,0.762428104877,"[0.0, 0.0, 0.0, 0.0, 0.0, 0.0, 0.0, 0.0, 0.0]",,-0.000102000383777,0.00143834378105,-0.0257877707481,"[0.0, 0.0, 0.0, 0.0, 0.0, 0.0, 0.0, 0.0, 0.0]",,0.44566321373,0.0767568871379,-9.45784378052,"[0.0, 0.0, 0.0, 0.0, 0.0, 0.0, 0.0, 0.0, 0.0]"
1508259124932607832,,7099,,1508259124,931745488,imu,,-0.0192292779684,0.0133456997573,0.646647036076,0.76243019104,"[0.0, 0.0, 0.0, 0.0, 0.0, 0.0, 0.0, 0.0, 0.0]",,0.000482297531562,0.000914777163416,-0.0246327277273,"[0.0, 0.0, 0.0, 0.0, 0.0, 0.0, 0.0, 0.0, 0.0]",,0.373577028513,0.174845278263,-9.61177921295,"[0.0, 0.0, 0.0, 0.0, 0.0, 0.0, 0.0, 0.0, 0.0]"
1508259124943315801,,7100,,1508259124,942555384,imu,,-0.0192190092057,0.0133291846141,0.646651923656,0.762426614761,"[0.0, 0.0, 0.0, 0.0, 0.0, 0.0, 0.0, 0.0, 0.0]",,0.000723680946976,-0.00302861863747,-0.0237983576953,"[0.0, 0.0, 0.0, 0.0, 0.0, 0.0, 0.0, 0.0, 0.0]",,0.522671997547,0.0989409312606,-9.48696708679,"[0.0, 0.0, 0.0, 0.0, 0.0, 0.0, 0.0, 0.0, 0.0]"
1508259124948716947,,7101,,1508259124,948160541,imu,,-0.0192334279418,0.0133447907865,0.646653652191,0.762424528599,"[0.0, 0.0, 0.0, 0.0, 0.0, 0.0, 0.0, 0.0, 0.0]",,-0.00137017748784,0.00515963602811,-0.0254017785192,"[0.0, 0.0, 0.0, 0.0, 0.0, 0.0, 0.0, 0.0, 0.0]",,0.346779167652,0.106381893158,-9.51674079895,"[0.0, 0.0, 0.0, 0.0, 0.0, 0.0, 0.0, 0.0, 0.0]"
1508259124959090384,,7102,,1508259124,958514916,imu,,-0.0192254707217,0.0133379837498,0.646657586098,0.762421429157,"[0.0, 0.0, 0.0, 0.0, 0.0, 0.0, 0.0, 0.0, 0.0]",,0.00106100994162,-0.00215036282316,-0.0239857267588,"[0.0, 0.0, 0.0, 0.0, 0.0, 0.0, 0.0, 0.0, 0.0]",,0.458823442459,0.13463832438,-9.6410779953,"[0.0, 0.0, 0.0, 0.0, 0.0, 0.0, 0.0, 0.0, 0.0]"
1508259124969668978,,7103,,1508259124,968890228,imu,,-0.0192292220891,0.0133398966864,0.646661102772,0.762418329716,"[0.0, 0.0, 0.0, 0.0, 0.0, 0.0, 0.0, 0.0, 0.0]",,0.000145417638123,0.00185710401274,-0.0250225663185,"[0.0, 0.0, 0.0, 0.0, 0.0, 0.0, 0.0, 0.0, 0.0]",,0.460322618484,0.0787668228149,-9.44320106506,"[0.0, 0.0, 0.0, 0.0, 0.0, 0.0, 0.0, 0.0, 0.0]"
1508259124979864447,,7104,,1508259124,979463093,imu,,-0.0192368589342,0.0133485738188,0.646661579609,0.762417554855,"[0.0, 0.0, 0.0, 0.0, 0.0, 0.0, 0.0, 0.0, 0.0]",,-0.000345014559571,0.00192586472258,-0.0254316031933,"[0.0, 0.0, 0.0, 0.0, 0.0, 0.0, 0.0, 0.0, 0.0]",,0.358334392309,0.149456739426,-9.58774471283,"[0.0, 0.0, 0.0, 0.0, 0.0, 0.0, 0.0, 0.0, 0.0]"
1508259124990323249,,7105,,1508259124,989832103,imu,,-0.0192255675793,0.013337242417,0.646667778492,0.762412846088,"[0.0, 0.0, 0.0, 0.0, 0.0, 0.0, 0.0, 0.0, 0.0]",,0.000798945722636,-0.00207341997884,-0.0245339348912,"[0.0, 0.0, 0.0, 0.0, 0.0, 0.0, 0.0, 0.0, 0.0]",,0.533274054527,0.0877221822739,-9.5329580307,"[0.0, 0.0, 0.0, 0.0, 0.0, 0.0, 0.0, 0.0, 0.0]"
1508259125000736061,,7106,,1508259125,216322,imu,,-0.01923456043,0.0133556202054,0.646662771702,0.762416541576,"[0.0, 0.0, 0.0, 0.0, 0.0, 0.0, 0.0, 0.0, 0.0]",,0.000883938337211,0.00434359209612,-0.026567960158,"[0.0, 0.0, 0.0, 0.0, 0.0, 0.0, 0.0, 0.0, 0.0]",,0.371931493282,0.113891348243,-9.45726966858,"[0.0, 0.0, 0.0, 0.0, 0.0, 0.0, 0.0, 0.0, 0.0]"
1508259125011482468,,7107,,1508259125,10835905,imu,,-0.0192273296416,0.0133496010676,0.646664559841,0.762415289879,"[0.0, 0.0, 0.0, 0.0, 0.0, 0.0, 0.0, 0.0, 0.0]",,0.00130494555924,-0.00197451468557,-0.0233909059316,"[0.0, 0.0, 0.0, 0.0, 0.0, 0.0, 0.0, 0.0, 0.0]",,0.437090188265,0.171436235309,-9.62678146362,"[0.0, 0.0, 0.0, 0.0, 0.0, 0.0, 0.0, 0.0, 0.0]"
1508259125021975176,,7108,,1508259125,21199134,imu,,-0.0192286837846,0.0133487805724,0.646665453911,0.762414574623,"[0.0, 0.0, 0.0, 0.0, 0.0, 0.0, 0.0, 0.0, 0.0]",,0.00053918082267,0.00151503004599,-0.0257029030472,"[0.0, 0.0, 0.0, 0.0, 0.0, 0.0, 0.0, 0.0, 0.0]",,0.463794410229,0.079900033772,-9.43031692505,"[0.0, 0.0, 0.0, 0.0, 0.0, 0.0, 0.0, 0.0, 0.0]"
1508259125032271218,,7109,,1508259125,31632780,imu,,-0.0192345455289,0.01335920766,0.646666169167,0.762413620949,"[0.0, 0.0, 0.0, 0.0, 0.0, 0.0, 0.0, 0.0, 0.0]",,0.00048380024964,0.00241315527819,-0.0250334255397,"[0.0, 0.0, 0.0, 0.0, 0.0, 0.0, 0.0, 0.0, 0.0]",,0.362138777971,0.151562154293,-9.59990787506,"[0.0, 0.0, 0.0, 0.0, 0.0, 0.0, 0.0, 0.0, 0.0]"
1508259125043044030,,7110,,1508259125,42260957,imu,,-0.0192221906036,0.0133418655023,0.646671891212,0.762409329414,"[0.0, 0.0, 0.0, 0.0, 0.0, 0.0, 0.0, 0.0, 0.0]",,0.000555483624339,-0.00314589124173,-0.0236267503351,"[0.0, 0.0, 0.0, 0.0, 0.0, 0.0, 0.0, 0.0, 0.0]",,0.499680638313,0.103535205126,-9.55174732208,"[0.0, 0.0, 0.0, 0.0, 0.0, 0.0, 0.0, 0.0, 0.0]"
1508259125048566166,,7111,,1508259125,48029291,imu,,-0.0192341692746,0.0133582428098,0.646666765213,0.762413084507,"[0.0, 0.0, 0.0, 0.0, 0.0, 0.0, 0.0, 0.0, 0.0]",,-0.000498788082041,0.00379851087928,-0.0259477924556,"[0.0, 0.0, 0.0, 0.0, 0.0, 0.0, 0.0, 0.0, 0.0]",,0.333675265312,0.103034690022,-9.50162887573,"[0.0, 0.0, 0.0, 0.0, 0.0, 0.0, 0.0, 0.0, 0.0]"
1508259125059707416,,7112,,1508259125,58847311,imu,,-0.019223453477,0.0133450031281,0.646664559841,0.762415528297,"[0.0, 0.0, 0.0, 0.0, 0.0, 0.0, 0.0, 0.0, 0.0]",,0.000305736291921,-0.00231916154735,-0.0240869000554,"[0.0, 0.0, 0.0, 0.0, 0.0, 0.0, 0.0, 0.0, 0.0]",,0.41136610508,0.140150129795,-9.58788204193,"[0.0, 0.0, 0.0, 0.0, 0.0, 0.0, 0.0, 0.0, 0.0]"
1508259125070244082,,7113,,1508259125,69443301,imu,,-0.0192204080522,0.0133369285613,0.646661043167,0.762418687344,"[0.0, 0.0, 0.0, 0.0, 0.0, 0.0, 0.0, 0.0, 0.0]",,-0.000619908096269,-0.000197694113012,-0.0258776545525,"[0.0, 0.0, 0.0, 0.0, 0.0, 0.0, 0.0, 0.0, 0.0]",,0.456801116467,0.061803072691,-9.44546031952,"[0.0, 0.0, 0.0, 0.0, 0.0, 0.0, 0.0, 0.0, 0.0]"
1508259125080976166,,7114,,1508259125,79920332,imu,,-0.0192247256637,0.0133436070755,0.646656155586,0.76242262125,"[0.0, 0.0, 0.0, 0.0, 0.0, 0.0, 0.0, 0.0, 0.0]",,0.000249132572208,0.00120262231212,-0.0252222679555,"[0.0, 0.0, 0.0, 0.0, 0.0, 0.0, 0.0, 0.0, 0.0]",,0.337828278542,0.15712364018,-9.56044197083,"[0.0, 0.0, 0.0, 0.0, 0.0, 0.0, 0.0, 0.0, 0.0]"
1508259125091282988,,7115,,1508259125,90653197,imu,,-0.0192138664424,0.0133274719119,0.646663308144,0.762417018414,"[0.0, 0.0, 0.0, 0.0, 0.0, 0.0, 0.0, 0.0, 0.0]",,0.000756456633098,-0.00249038729817,-0.0236241649836,"[0.0, 0.0, 0.0, 0.0, 0.0, 0.0, 0.0, 0.0, 0.0]",,0.501024365425,0.111621320248,-9.53183364868,"[0.0, 0.0, 0.0, 0.0, 0.0, 0.0, 0.0, 0.0, 0.0]"
1508259125102293405,,7116,,1508259125,101296843,imu,,-0.0192253775895,0.0133465155959,0.646664202213,0.762415707111,"[0.0, 0.0, 0.0, 0.0, 0.0, 0.0, 0.0, 0.0, 0.0]",,-0.000499985995702,0.0042682015337,-0.0257533807307,"[0.0, 0.0, 0.0, 0.0, 0.0, 0.0, 0.0, 0.0, 0.0]",,0.354645133018,0.118653476238,-9.45859241486,"[0.0, 0.0, 0.0, 0.0, 0.0, 0.0, 0.0, 0.0, 0.0]"
1508259125113192155,,7117,,1508259125,112180436,imu,,-0.0192191153765,0.0133331026882,0.646665215492,0.762415230274,"[0.0, 0.0, 0.0, 0.0, 0.0, 0.0, 0.0, 0.0, 0.0]",,0.000325253728079,-0.00186012138147,-0.0245144050568,"[0.0, 0.0, 0.0, 0.0, 0.0, 0.0, 0.0, 0.0, 0.0]",,0.451912075281,0.153999447823,-9.61749744415,"[0.0, 0.0, 0.0, 0.0, 0.0, 0.0, 0.0, 0.0, 0.0]"
1508259125123517572,,7118,,1508259125,122601478,imu,,-0.0192218273878,0.0133318593726,0.646663665771,0.762416541576,"[0.0, 0.0, 0.0, 0.0, 0.0, 0.0, 0.0, 0.0, 0.0]",,0.000632477458566,0.000272312317975,-0.0249369610101,"[0.0, 0.0, 0.0, 0.0, 0.0, 0.0, 0.0, 0.0, 0.0]",,0.464151382446,0.0875196605921,-9.45199775696,"[0.0, 0.0, 0.0, 0.0, 0.0, 0.0, 0.0, 0.0, 0.0]"
1508259125129422363,,7119,,1508259125,128539343,imu,,-0.019231390208,0.013339817524,0.64665722847,0.762421667576,"[0.0, 0.0, 0.0, 0.0, 0.0, 0.0, 0.0, 0.0, 0.0]",,-0.000813449500129,0.00298308371566,-0.0258199777454,"[0.0, 0.0, 0.0, 0.0, 0.0, 0.0, 0.0, 0.0, 0.0]",,0.362791359425,0.140590786934,-9.59800624847,"[0.0, 0.0, 0.0, 0.0, 0.0, 0.0, 0.0, 0.0, 0.0]"
1508259125140359290,,7120,,1508259125,139473822,imu,,-0.0192243456841,0.013320280239,0.646661043167,0.762418866158,"[0.0, 0.0, 0.0, 0.0, 0.0, 0.0, 0.0, 0.0, 0.0]",,-0.000112717738375,-0.0034059965983,-0.0238735973835,"[0.0, 0.0, 0.0, 0.0, 0.0, 0.0, 0.0, 0.0, 0.0]",,0.508861780167,0.105318501592,-9.533618927,"[0.0, 0.0, 0.0, 0.0, 0.0, 0.0, 0.0, 0.0, 0.0]"
1508259125150687259,,7121,,1508259125,149868665,imu,,-0.0192376393825,0.0133419008926,0.64666134119,0.762417912483,"[0.0, 0.0, 0.0, 0.0, 0.0, 0.0, 0.0, 0.0, 0.0]",,-0.00058924977202,0.00489598046988,-0.0255681145936,"[0.0, 0.0, 0.0, 0.0, 0.0, 0.0, 0.0, 0.0, 0.0]",,0.347322970629,0.102958641946,-9.49357891083,"[0.0, 0.0, 0.0, 0.0, 0.0, 0.0, 0.0, 0.0, 0.0]"
1508259125161242780,,7122,,1508259125,160328509,imu,,-0.0192251875997,0.0133314356208,0.646666824818,0.762413740158,"[0.0, 0.0, 0.0, 0.0, 0.0, 0.0, 0.0, 0.0, 0.0]",,0.00101776234806,-0.00217698421329,-0.0242789313197,"[0.0, 0.0, 0.0, 0.0, 0.0, 0.0, 0.0, 0.0, 0.0]",,0.458609938622,0.155544281006,-9.57914161682,"[0.0, 0.0, 0.0, 0.0, 0.0, 0.0, 0.0, 0.0, 0.0]"
1508259125171607468,,7123,,1508259125,170732468,imu,,-0.0192280635238,0.0133327795193,0.646669685841,0.762411177158,"[0.0, 0.0, 0.0, 0.0, 0.0, 0.0, 0.0, 0.0, 0.0]",,8.81438027136e-05,0.00121480436064,-0.0252911131829,"[0.0, 0.0, 0.0, 0.0, 0.0, 0.0, 0.0, 0.0, 0.0]",,0.463829189539,0.0947061702609,-9.4326133728,"[0.0, 0.0, 0.0, 0.0, 0.0, 0.0, 0.0, 0.0, 0.0]"
1508259125182014343,,7124,,1508259125,181271634,imu,,-0.0192340277135,0.0133430948481,0.646668970585,0.762411534786,"[0.0, 0.0, 0.0, 0.0, 0.0, 0.0, 0.0, 0.0, 0.0]",,-0.00045368593419,0.00196365267038,-0.0243758261204,"[0.0, 0.0, 0.0, 0.0, 0.0, 0.0, 0.0, 0.0, 0.0]",,0.367047786713,0.122064642608,-9.59677314758,"[0.0, 0.0, 0.0, 0.0, 0.0, 0.0, 0.0, 0.0, 0.0]"
1508259125192534759,,7125,,1508259125,191595801,imu,,-0.0192227717489,0.0133277419955,0.646670460701,0.76241081953,"[0.0, 0.0, 0.0, 0.0, 0.0, 0.0, 0.0, 0.0, 0.0]",,0.0005254620919,-0.00246088579297,-0.0229270085692,"[0.0, 0.0, 0.0, 0.0, 0.0, 0.0, 0.0, 0.0, 0.0]",,0.507164299488,0.116696372628,-9.56584739685,"[0.0, 0.0, 0.0, 0.0, 0.0, 0.0, 0.0, 0.0, 0.0]"
1508259125203094915,,7126,,1508259125,201983405,imu,,-0.0192331392318,0.0133451148868,0.646666049957,0.762413978577,"[0.0, 0.0, 0.0, 0.0, 0.0, 0.0, 0.0, 0.0, 0.0]",,-0.000588728289586,0.00423455238342,-0.026332244277,"[0.0, 0.0, 0.0, 0.0, 0.0, 0.0, 0.0, 0.0, 0.0]",,0.370236307383,0.114022903144,-9.51132297516,"[0.0, 0.0, 0.0, 0.0, 0.0, 0.0, 0.0, 0.0, 0.0]"
1508259125213751426,,7127,,1508259125,212522468,imu,,-0.0192282814533,0.0133332489058,0.64667147398,0.762409746647,"[0.0, 0.0, 0.0, 0.0, 0.0, 0.0, 0.0, 0.0, 0.0]",,-0.000479183072457,-0.00261220009997,-0.0238523632288,"[0.0, 0.0, 0.0, 0.0, 0.0, 0.0, 0.0, 0.0, 0.0]",,0.447824835777,0.176197141409,-9.59989929199,"[0.0, 0.0, 0.0, 0.0, 0.0, 0.0, 0.0, 0.0, 0.0]"
1508259125218895488,,7128,,1508259125,217742936,imu,,-0.0192329287529,0.0133340768516,0.646672725677,0.762408554554,"[0.0, 0.0, 0.0, 0.0, 0.0, 0.0, 0.0, 0.0, 0.0]",,7.52464256948e-06,0.00185269350186,-0.0252105146646,"[0.0, 0.0, 0.0, 0.0, 0.0, 0.0, 0.0, 0.0, 0.0]",,0.455143421888,0.0722166150808,-9.44046497345,"[0.0, 0.0, 0.0, 0.0, 0.0, 0.0, 0.0, 0.0, 0.0]"
1508259125229513040,,7129,,1508259125,228223353,imu,,-0.019234938547,0.0133442496881,0.646663725376,0.76241594553,"[0.0, 0.0, 0.0, 0.0, 0.0, 0.0, 0.0, 0.0, 0.0]",,0.000751664454583,0.00219557574019,-0.025792254135,"[0.0, 0.0, 0.0, 0.0, 0.0, 0.0, 0.0, 0.0, 0.0]",,0.341630727053,0.145896792412,-9.58117103577,"[0.0, 0.0, 0.0, 0.0, 0.0, 0.0, 0.0, 0.0, 0.0]"
1508259125239290072,,7130,,1508259125,238628978,imu,,-0.0192246884108,0.0133258281276,0.646660625935,0.762419104576,"[0.0, 0.0, 0.0, 0.0, 0.0, 0.0, 0.0, 0.0, 0.0]",,0.000236899082665,-0.00240057334304,-0.0247494261712,"[0.0, 0.0, 0.0, 0.0, 0.0, 0.0, 0.0, 0.0, 0.0]",,0.50791490078,0.108924001455,-9.52664756775,"[0.0, 0.0, 0.0, 0.0, 0.0, 0.0, 0.0, 0.0, 0.0]"
1508259125250248978,,7131,,1508259125,249644395,imu,,-0.0192427523434,0.0133450245485,0.6466588974,0.762419879436,"[0.0, 0.0, 0.0, 0.0, 0.0, 0.0, 0.0, 0.0, 0.0]",,-0.000841972825583,0.00526355998591,-0.0256772339344,"[0.0, 0.0, 0.0, 0.0, 0.0, 0.0, 0.0, 0.0, 0.0]",,0.369240939617,0.0844175294042,-9.49887084961,"[0.0, 0.0, 0.0, 0.0, 0.0, 0.0, 0.0, 0.0, 0.0]"
1508259125260575905,,7132,,1508259125,260022363,imu,,-0.01923744753,0.0133344978094,0.646661043167,0.762418329716,"[0.0, 0.0, 0.0, 0.0, 0.0, 0.0, 0.0, 0.0, 0.0]",,-0.00107010779902,-0.00192274828441,-0.0247816815972,"[0.0, 0.0, 0.0, 0.0, 0.0, 0.0, 0.0, 0.0, 0.0]",,0.431192189455,0.147733509541,-9.57813072205,"[0.0, 0.0, 0.0, 0.0, 0.0, 0.0, 0.0, 0.0, 0.0]"
1508259125270925332,,7133,,1508259125,270499968,imu,,-0.0192358978093,0.0133384922519,0.646662533283,0.762417018414,"[0.0, 0.0, 0.0, 0.0, 0.0, 0.0, 0.0, 0.0, 0.0]",,0.000585126283113,0.00131766730919,-0.0247374773026,"[0.0, 0.0, 0.0, 0.0, 0.0, 0.0, 0.0, 0.0, 0.0]",,0.44387704134,0.0580008774996,-9.44168376923,"[0.0, 0.0, 0.0, 0.0, 0.0, 0.0, 0.0, 0.0, 0.0]"
1508259125281400540,,7134,,1508259125,280907363,imu,,-0.0192420557141,0.0133488103747,0.646654188633,0.762423813343,"[0.0, 0.0, 0.0, 0.0, 0.0, 0.0, 0.0, 0.0, 0.0]",,-4.70007507829e-05,0.00170236569829,-0.0260170418769,"[0.0, 0.0, 0.0, 0.0, 0.0, 0.0, 0.0, 0.0, 0.0]",,0.368456274271,0.140935897827,-9.6034450531,"[0.0, 0.0, 0.0, 0.0, 0.0, 0.0, 0.0, 0.0, 0.0]"
1508259125291700384,,7135,,1508259125,291285645,imu,,-0.0192331559956,0.013331592083,0.646652519703,0.762425661087,"[0.0, 0.0, 0.0, 0.0, 0.0, 0.0, 0.0, 0.0, 0.0]",,-3.70130583178e-05,-0.00264579197392,-0.0244636125863,"[0.0, 0.0, 0.0, 0.0, 0.0, 0.0, 0.0, 0.0, 0.0]",,0.5130879879,0.130777806044,-9.54661178589,"[0.0, 0.0, 0.0, 0.0, 0.0, 0.0, 0.0, 0.0, 0.0]"
1508259125302043561,,7136,,1508259125,301543978,imu,,-0.0192457642406,0.0133472327143,0.646643698215,0.762432575226,"[0.0, 0.0, 0.0, 0.0, 0.0, 0.0, 0.0, 0.0, 0.0]",,-0.000383741542464,0.00456420099363,-0.0252947863191,"[0.0, 0.0, 0.0, 0.0, 0.0, 0.0, 0.0, 0.0, 0.0]",,0.383120119572,0.0960639193654,-9.49459171295,"[0.0, 0.0, 0.0, 0.0, 0.0, 0.0, 0.0, 0.0, 0.0]"
1508259125312584290,,7137,,1508259125,312002415,imu,,-0.0192383322865,0.0133392876014,0.646640777588,0.762435376644,"[0.0, 0.0, 0.0, 0.0, 0.0, 0.0, 0.0, 0.0, 0.0]",,0.00121800694615,-0.00136530539021,-0.0245448295027,"[0.0, 0.0, 0.0, 0.0, 0.0, 0.0, 0.0, 0.0, 0.0]",,0.444077014923,0.148141488433,-9.59891414642,"[0.0, 0.0, 0.0, 0.0, 0.0, 0.0, 0.0, 0.0, 0.0]"
1508259125318160801,,7138,,1508259125,317645124,imu,,-0.019240308553,0.0133387511596,0.646648347378,0.762428939342,"[0.0, 0.0, 0.0, 0.0, 0.0, 0.0, 0.0, 0.0, 0.0]",,2.54814658547e-05,0.00103072938509,-0.0248089432716,"[0.0, 0.0, 0.0, 0.0, 0.0, 0.0, 0.0, 0.0, 0.0]",,0.462124407291,0.0674459040165,-9.46218299866,"[0.0, 0.0, 0.0, 0.0, 0.0, 0.0, 0.0, 0.0, 0.0]"
1508259125328641895,,7139,,1508259125,328159134,imu,,-0.0192415863276,0.013354013674,0.646647751331,0.762429177761,"[0.0, 0.0, 0.0, 0.0, 0.0, 0.0, 0.0, 0.0, 0.0]",,-0.000256555475062,0.0035092132166,-0.0250709038228,"[0.0, 0.0, 0.0, 0.0, 0.0, 0.0, 0.0, 0.0, 0.0]",,0.358978003263,0.151252269745,-9.61132907867,"[0.0, 0.0, 0.0, 0.0, 0.0, 0.0, 0.0, 0.0, 0.0]"
1508259125339180124,,7140,,1508259125,338449343,imu,,-0.0192310661077,0.0133382892236,0.646651029587,0.762426912785,"[0.0, 0.0, 0.0, 0.0, 0.0, 0.0, 0.0, 0.0, 0.0]",,0.000657451804727,-0.00242569902912,-0.0239877160639,"[0.0, 0.0, 0.0, 0.0, 0.0, 0.0, 0.0, 0.0, 0.0]",,0.518345236778,0.0924146994948,-9.52544975281,"[0.0, 0.0, 0.0, 0.0, 0.0, 0.0, 0.0, 0.0, 0.0]"
1508259125349778509,,7141,,1508259125,348932988,imu,,-0.0192413963377,0.0133548695594,0.646649301052,0.762427806854,"[0.0, 0.0, 0.0, 0.0, 0.0, 0.0, 0.0, 0.0, 0.0]",,0.000266588671366,0.00325732445344,-0.0255576893687,"[0.0, 0.0, 0.0, 0.0, 0.0, 0.0, 0.0, 0.0, 0.0]",,0.370847970247,0.0948386490345,-9.48986434937,"[0.0, 0.0, 0.0, 0.0, 0.0, 0.0, 0.0, 0.0, 0.0]"
1508259125360894759,,7142,,1508259125,360210124,imu,,-0.019232859835,0.013342147693,0.64665210247,0.762425839901,"[0.0, 0.0, 0.0, 0.0, 0.0, 0.0, 0.0, 0.0, 0.0]",,0.000915070413612,-0.00172645645216,-0.0235190372914,"[0.0, 0.0, 0.0, 0.0, 0.0, 0.0, 0.0, 0.0, 0.0]",,0.481425404549,0.136801436543,-9.6141872406,"[0.0, 0.0, 0.0, 0.0, 0.0, 0.0, 0.0, 0.0, 0.0]"
1508259125371540228,,7143,,1508259125,370903613,imu,,-0.0192345324904,0.0133470483124,0.64664721489,0.762429893017,"[0.0, 0.0, 0.0, 0.0, 0.0, 0.0, 0.0, 0.0, 0.0]",,0.00111522583757,0.00134735938627,-0.0258714016527,"[0.0, 0.0, 0.0, 0.0, 0.0, 0.0, 0.0, 0.0, 0.0]",,0.462899625301,0.0740587562323,-9.46905708313,"[0.0, 0.0, 0.0, 0.0, 0.0, 0.0, 0.0, 0.0, 0.0]"
1508259125382203457,,7144,,1508259125,381472780,imu,,-0.0192412063479,0.0133602162823,0.646640241146,0.762435436249,"[0.0, 0.0, 0.0, 0.0, 0.0, 0.0, 0.0, 0.0, 0.0]",,-0.000258426996879,0.0022133293096,-0.0254516024143,"[0.0, 0.0, 0.0, 0.0, 0.0, 0.0, 0.0, 0.0, 0.0]",,0.36833307147,0.152144387364,-9.57538032532,"[0.0, 0.0, 0.0, 0.0, 0.0, 0.0, 0.0, 0.0, 0.0]"
1508259125392692467,,7145,,1508259125,391831009,imu,,-0.0192319564521,0.0133413523436,0.646645009518,0.762431919575,"[0.0, 0.0, 0.0, 0.0, 0.0, 0.0, 0.0, 0.0, 0.0]",,0.00106103881262,-0.00300768809393,-0.0244891829789,"[0.0, 0.0, 0.0, 0.0, 0.0, 0.0, 0.0, 0.0, 0.0]",,0.528653621674,0.105383709073,-9.52770137787,"[0.0, 0.0, 0.0, 0.0, 0.0, 0.0, 0.0, 0.0, 0.0]"
1508259125403093197,,7146,,1508259125,402339655,imu,,-0.0192420035601,0.0133592588827,0.646642506123,0.762433469296,"[0.0, 0.0, 0.0, 0.0, 0.0, 0.0, 0.0, 0.0, 0.0]",,0.00017568084877,0.0043084975332,-0.0262627191842,"[0.0, 0.0, 0.0, 0.0, 0.0, 0.0, 0.0, 0.0, 0.0]",,0.397119373083,0.10019826889,-9.49533939362,"[0.0, 0.0, 0.0, 0.0, 0.0, 0.0, 0.0, 0.0, 0.0]"
1508259125408856634,,7147,,1508259125,408033040,imu,,-0.019240943715,0.0133530674502,0.646639287472,0.762436270714,"[0.0, 0.0, 0.0, 0.0, 0.0, 0.0, 0.0, 0.0, 0.0]",,-0.000429107312812,-0.000790862599388,-0.0244323760271,"[0.0, 0.0, 0.0, 0.0, 0.0, 0.0, 0.0, 0.0, 0.0]",,0.459415614605,0.153096780181,-9.58583831787,"[0.0, 0.0, 0.0, 0.0, 0.0, 0.0, 0.0, 0.0, 0.0]"
1508259125419331426,,7148,,1508259125,418483874,imu,,-0.0192401632667,0.0133518371731,0.64664131403,0.762434661388,"[0.0, 0.0, 0.0, 0.0, 0.0, 0.0, 0.0, 0.0, 0.0]",,0.000605767185334,0.000153770844918,-0.024949900806,"[0.0, 0.0, 0.0, 0.0, 0.0, 0.0, 0.0, 0.0, 0.0]",,0.464303255081,0.0869746357203,-9.4696264267,"[0.0, 0.0, 0.0, 0.0, 0.0, 0.0, 0.0, 0.0, 0.0]"
1508259125429670592,,7149,,1508259125,428898301,imu,,-0.0192503612489,0.0133603150025,0.646641790867,0.762433767319,"[0.0, 0.0, 0.0, 0.0, 0.0, 0.0, 0.0, 0.0, 0.0]",,-0.00133945303969,0.00292242015712,-0.0255091898143,"[0.0, 0.0, 0.0, 0.0, 0.0, 0.0, 0.0, 0.0, 0.0]",,0.361367672682,0.156646102667,-9.58516693115,"[0.0, 0.0, 0.0, 0.0, 0.0, 0.0, 0.0, 0.0, 0.0]"
1508259125440070072,,7150,,1508259125,439239395,imu,,-0.0192376691848,0.0133426627144,0.646646499634,0.762430548668,"[0.0, 0.0, 0.0, 0.0, 0.0, 0.0, 0.0, 0.0, 0.0]",,0.00130039057694,-0.00333047052845,-0.0233789738268,"[0.0, 0.0, 0.0, 0.0, 0.0, 0.0, 0.0, 0.0, 0.0]",,0.509116709232,0.109933748841,-9.568400383,"[0.0, 0.0, 0.0, 0.0, 0.0, 0.0, 0.0, 0.0, 0.0]"
1508259125450359655,,7151,,1508259125,449670072,imu,,-0.0192486513406,0.0133560774848,0.646638095379,0.762437105179,"[0.0, 0.0, 0.0, 0.0, 0.0, 0.0, 0.0, 0.0, 0.0]",,-0.0010840552859,0.00290805799887,-0.026455566287,"[0.0, 0.0, 0.0, 0.0, 0.0, 0.0, 0.0, 0.0, 0.0]",,0.369221627712,0.0959225147963,-9.51060581207,"[0.0, 0.0, 0.0, 0.0, 0.0, 0.0, 0.0, 0.0, 0.0]"
1508259125461161686,,7152,,1508259125,460087520,imu,,-0.0192412044853,0.0133447553962,0.646637260914,0.762438237667,"[0.0, 0.0, 0.0, 0.0, 0.0, 0.0, 0.0, 0.0, 0.0]",,0.00013501723879,-0.00184763688594,-0.0237269364297,"[0.0, 0.0, 0.0, 0.0, 0.0, 0.0, 0.0, 0.0, 0.0]",,0.443298071623,0.166411533952,-9.58176994324,"[0.0, 0.0, 0.0, 0.0, 0.0, 0.0, 0.0, 0.0, 0.0]"
1508259125471505436,,7153,,1508259125,470628040,imu,,-0.0192408934236,0.0133410599083,0.646634340286,0.762440681458,"[0.0, 0.0, 0.0, 0.0, 0.0, 0.0, 0.0, 0.0, 0.0]",,0.000853976001963,0.000113298679935,-0.02537516132,"[0.0, 0.0, 0.0, 0.0, 0.0, 0.0, 0.0, 0.0, 0.0]",,0.458892077208,0.0552816540003,-9.46158599854,"[0.0, 0.0, 0.0, 0.0, 0.0, 0.0, 0.0, 0.0, 0.0]"
1508259125482056999,,7154,,1508259125,481151582,imu,,-0.0192423034459,0.0133523317054,0.646626532078,0.762447059155,"[0.0, 0.0, 0.0, 0.0, 0.0, 0.0, 0.0, 0.0, 0.0]",,-0.000223684037337,0.00256722024642,-0.0253902748227,"[0.0, 0.0, 0.0, 0.0, 0.0, 0.0, 0.0, 0.0, 0.0]",,0.355720281601,0.154912561178,-9.5849237442,"[0.0, 0.0, 0.0, 0.0, 0.0, 0.0, 0.0, 0.0, 0.0]"
1508259125492454395,,7155,,1508259125,491553405,imu,,-0.0192307438701,0.0133342649788,0.646633327007,0.76244199276,"[0.0, 0.0, 0.0, 0.0, 0.0, 0.0, 0.0, 0.0, 0.0]",,0.000923478743061,-0.0031867006328,-0.0239446759224,"[0.0, 0.0, 0.0, 0.0, 0.0, 0.0, 0.0, 0.0, 0.0]",,0.499965846539,0.108087554574,-9.54232978821,"[0.0, 0.0, 0.0, 0.0, 0.0, 0.0, 0.0, 0.0, 0.0]"
1508259125503088353,,7156,,1508259125,502097780,imu,,-0.0192410442978,0.0133507819846,0.646632134914,0.762442469597,"[0.0, 0.0, 0.0, 0.0, 0.0, 0.0, 0.0, 0.0, 0.0]",,-0.00075234338874,0.00387456570752,-0.0254480838776,"[0.0, 0.0, 0.0, 0.0, 0.0, 0.0, 0.0, 0.0, 0.0]",,0.382572561502,0.0958466380835,-9.49967479706,"[0.0, 0.0, 0.0, 0.0, 0.0, 0.0, 0.0, 0.0, 0.0]"
1508259125513770957,,7157,,1508259125,512568822,imu,,-0.0192355215549,0.013339211233,0.646628201008,0.762446045876,"[0.0, 0.0, 0.0, 0.0, 0.0, 0.0, 0.0, 0.0, 0.0]",,-0.000484475953272,-0.00117724621668,-0.024869857356,"[0.0, 0.0, 0.0, 0.0, 0.0, 0.0, 0.0, 0.0, 0.0]",,0.432159274817,0.161338746548,-9.60496139526,"[0.0, 0.0, 0.0, 0.0, 0.0, 0.0, 0.0, 0.0, 0.0]"
1508259125518875488,,7158,,1508259125,517907572,imu,,-0.0192399788648,0.0133392550051,0.646631419659,0.762443184853,"[0.0, 0.0, 0.0, 0.0, 0.0, 0.0, 0.0, 0.0, 0.0]",,0.000487751152832,0.00167223997414,-0.0251924805343,"[0.0, 0.0, 0.0, 0.0, 0.0, 0.0, 0.0, 0.0, 0.0]",,0.456411540508,0.0718886256218,-9.45881843567,"[0.0, 0.0, 0.0, 0.0, 0.0, 0.0, 0.0, 0.0, 0.0]"
1508259125529433145,,7159,,1508259125,528420436,imu,,-0.019244492054,0.0133445542306,0.646631479263,0.762443065643,"[0.0, 0.0, 0.0, 0.0, 0.0, 0.0, 0.0, 0.0, 0.0]",,-0.00136405683588,0.00235983962193,-0.0253350175917,"[0.0, 0.0, 0.0, 0.0, 0.0, 0.0, 0.0, 0.0, 0.0]",,0.357263565063,0.151493012905,-9.58651447296,"[0.0, 0.0, 0.0, 0.0, 0.0, 0.0, 0.0, 0.0, 0.0]"
1508259125540081113,,7160,,1508259125,539218613,imu,,-0.0192376971245,0.0133239272982,0.646636068821,0.762439668179,"[0.0, 0.0, 0.0, 0.0, 0.0, 0.0, 0.0, 0.0, 0.0]",,0.000194218824618,-0.00220659514889,-0.0238294936717,"[0.0, 0.0, 0.0, 0.0, 0.0, 0.0, 0.0, 0.0, 0.0]",,0.506786346436,0.116189658642,-9.54567718506,"[0.0, 0.0, 0.0, 0.0, 0.0, 0.0, 0.0, 0.0, 0.0]"
1508259125550805176,,7161,,1508259125,549621582,imu,,-0.0192510243505,0.0133413989097,0.646636009216,0.762439012527,"[0.0, 0.0, 0.0, 0.0, 0.0, 0.0, 0.0, 0.0, 0.0]",,-0.000675417599268,0.00448625953868,-0.0262335557491,"[0.0, 0.0, 0.0, 0.0, 0.0, 0.0, 0.0, 0.0, 0.0]",,0.365528017282,0.0807543545961,-9.48399734497,"[0.0, 0.0, 0.0, 0.0, 0.0, 0.0, 0.0, 0.0, 0.0]"
1508259125560719186,,7162,,1508259125,559958040,imu,,-0.0192413497716,0.0133319189772,0.646640896797,0.762435376644,"[0.0, 0.0, 0.0, 0.0, 0.0, 0.0, 0.0, 0.0, 0.0]",,0.0014623592142,-0.00171896046959,-0.0242816470563,"[0.0, 0.0, 0.0, 0.0, 0.0, 0.0, 0.0, 0.0, 0.0]",,0.457478582859,0.167736053467,-9.57442378998,"[0.0, 0.0, 0.0, 0.0, 0.0, 0.0, 0.0, 0.0, 0.0]"
1508259125571124238,,7163,,1508259125,570389290,imu,,-0.0192442983389,0.013329828158,0.646641671658,0.762434661388,"[0.0, 0.0, 0.0, 0.0, 0.0, 0.0, 0.0, 0.0, 0.0]",,-0.000687508261763,0.00116509932559,-0.0243155658245,"[0.0, 0.0, 0.0, 0.0, 0.0, 0.0, 0.0, 0.0, 0.0]",,0.459134459496,0.0687733665109,-9.46177768707,"[0.0, 0.0, 0.0, 0.0, 0.0, 0.0, 0.0, 0.0, 0.0]"
1508259125581575280,,7164,,1508259125,580772207,imu,,-0.0192466452718,0.0133425649256,0.6466345191,0.76244032383,"[0.0, 0.0, 0.0, 0.0, 0.0, 0.0, 0.0, 0.0, 0.0]",,-0.000111519388156,0.0023184963502,-0.0247612986714,"[0.0, 0.0, 0.0, 0.0, 0.0, 0.0, 0.0, 0.0, 0.0]",,0.352240204811,0.16078953445,-9.56510639191,"[0.0, 0.0, 0.0, 0.0, 0.0, 0.0, 0.0, 0.0, 0.0]"
1508259125592289811,,7165,,1508259125,591282207,imu,,-0.0192392822355,0.0133216707036,0.646639704704,0.762436628342,"[0.0, 0.0, 0.0, 0.0, 0.0, 0.0, 0.0, 0.0, 0.0]",,0.000437471084297,-0.00315861823037,-0.0233333036304,"[0.0, 0.0, 0.0, 0.0, 0.0, 0.0, 0.0, 0.0, 0.0]",,0.512092590332,0.116515293717,-9.53569793701,"[0.0, 0.0, 0.0, 0.0, 0.0, 0.0, 0.0, 0.0, 0.0]"
1508259125602539499,,7166,,1508259125,601769967,imu,,-0.0192475002259,0.0133374612778,0.646638929844,0.762436747551,"[0.0, 0.0, 0.0, 0.0, 0.0, 0.0, 0.0, 0.0, 0.0]",,8.10952915344e-05,0.00408389884979,-0.0258016623557,"[0.0, 0.0, 0.0, 0.0, 0.0, 0.0, 0.0, 0.0, 0.0]",,0.376529574394,0.111911654472,-9.52624320984,"[0.0, 0.0, 0.0, 0.0, 0.0, 0.0, 0.0, 0.0, 0.0]"
1508259125613258353,,7167,,1508259125,612278353,imu,,-0.0192401576787,0.0133289601654,0.646637916565,0.762437939644,"[0.0, 0.0, 0.0, 0.0, 0.0, 0.0, 0.0, 0.0, 0.0]",,0.000256578990957,-0.00127013213933,-0.0250761024654,"[0.0, 0.0, 0.0, 0.0, 0.0, 0.0, 0.0, 0.0, 0.0]",,0.431273490191,0.165893435478,-9.60472202301,"[0.0, 0.0, 0.0, 0.0, 0.0, 0.0, 0.0, 0.0, 0.0]"
1508259125618870176,,7168,,1508259125,618070228,imu,,-0.0192400477827,0.0133252833039,0.646638274193,0.762437701225,"[0.0, 0.0, 0.0, 0.0, 0.0, 0.0, 0.0, 0.0, 0.0]",,0.00100641208701,0.000558294239454,-0.0249202288687,"[0.0, 0.0, 0.0, 0.0, 0.0, 0.0, 0.0, 0.0, 0.0]",,0.44565013051,0.0707076713443,-9.48848628998,"[0.0, 0.0, 0.0, 0.0, 0.0, 0.0, 0.0, 0.0, 0.0]"
1508259125629447676,,7169,,1508259125,628711582,imu,,-0.0192454606295,0.0133363986388,0.646636426449,0.762438893318,"[0.0, 0.0, 0.0, 0.0, 0.0, 0.0, 0.0, 0.0, 0.0]",,0.000130280852318,0.00275296065956,-0.0250627286732,"[0.0, 0.0, 0.0, 0.0, 0.0, 0.0, 0.0, 0.0, 0.0]",,0.349411666393,0.152895152569,-9.57619380951,"[0.0, 0.0, 0.0, 0.0, 0.0, 0.0, 0.0, 0.0, 0.0]"
1508259125640015853,,7170,,1508259125,639257311,imu,,-0.0192336868495,0.013320542872,0.646637618542,0.76243853569,"[0.0, 0.0, 0.0, 0.0, 0.0, 0.0, 0.0, 0.0, 0.0]",,0.00154357973952,-0.00267514539883,-0.0245251953602,"[0.0, 0.0, 0.0, 0.0, 0.0, 0.0, 0.0, 0.0, 0.0]",,0.482234269381,0.101274579763,-9.50680065155,"[0.0, 0.0, 0.0, 0.0, 0.0, 0.0, 0.0, 0.0, 0.0]"
1508259125650485332,,7171,,1508259125,649867676,imu,,-0.0192433036864,0.0133375702426,0.646635115147,0.762440085411,"[0.0, 0.0, 0.0, 0.0, 0.0, 0.0, 0.0, 0.0, 0.0]",,0.000187701283721,0.004239522852,-0.0258934646845,"[0.0, 0.0, 0.0, 0.0, 0.0, 0.0, 0.0, 0.0, 0.0]",,0.362015843391,0.0923368409276,-9.50651359558,"[0.0, 0.0, 0.0, 0.0, 0.0, 0.0, 0.0, 0.0, 0.0]"
1508259125662107155,,7172,,1508259125,661301894,imu,,-0.0192373581231,0.0133319925517,0.646628558636,0.762445926666,"[0.0, 0.0, 0.0, 0.0, 0.0, 0.0, 0.0, 0.0, 0.0]",,0.000849241274409,-0.000893072166946,-0.0243357364088,"[0.0, 0.0, 0.0, 0.0, 0.0, 0.0, 0.0, 0.0, 0.0]",,0.417912662029,0.156856924295,-9.58894920349,"[0.0, 0.0, 0.0, 0.0, 0.0, 0.0, 0.0, 0.0, 0.0]"
1508259125672802519,,7173,,1508259125,672007467,imu,,-0.0192350894213,0.0133279105648,0.646625161171,0.762448906898,"[0.0, 0.0, 0.0, 0.0, 0.0, 0.0, 0.0, 0.0, 0.0]",,0.000962921883911,-0.000267672759946,-0.0249469541013,"[0.0, 0.0, 0.0, 0.0, 0.0, 0.0, 0.0, 0.0, 0.0]",,0.459613651037,0.0552215091884,-9.46481704712,"[0.0, 0.0, 0.0, 0.0, 0.0, 0.0, 0.0, 0.0, 0.0]"
1508259125683820853,,7174,,1508259125,682725644,imu,,-0.0192428920418,0.0133396349847,0.646619737148,0.762453138828,"[0.0, 0.0, 0.0, 0.0, 0.0, 0.0, 0.0, 0.0, 0.0]",,-0.00127309723757,0.00251783849671,-0.0268188733608,"[0.0, 0.0, 0.0, 0.0, 0.0, 0.0, 0.0, 0.0, 0.0]",,0.35351267457,0.169295325875,-9.60124206543,"[0.0, 0.0, 0.0, 0.0, 0.0, 0.0, 0.0, 0.0, 0.0]"
1508259125689643769,,7175,,1508259125,688950176,imu,,-0.0192358661443,0.0133210914209,0.6466178298,0.762455224991,"[0.0, 0.0, 0.0, 0.0, 0.0, 0.0, 0.0, 0.0, 0.0]",,0.000707645143848,-0.00249224808067,-0.0230497475713,"[0.0, 0.0, 0.0, 0.0, 0.0, 0.0, 0.0, 0.0, 0.0]",,0.513412117958,0.106752350926,-9.51476955414,"[0.0, 0.0, 0.0, 0.0, 0.0, 0.0, 0.0, 0.0, 0.0]"
1508259125700101790,,7176,,1508259125,699503613,imu,,-0.0192429255694,0.013338807039,0.646607756615,0.762463331223,"[0.0, 0.0, 0.0, 0.0, 0.0, 0.0, 0.0, 0.0, 0.0]",,-9.37714648899e-05,0.00362603086978,-0.0260032843798,"[0.0, 0.0, 0.0, 0.0, 0.0, 0.0, 0.0, 0.0, 0.0]",,0.374957561493,0.100169941783,-9.49275398254,"[0.0, 0.0, 0.0, 0.0, 0.0, 0.0, 0.0, 0.0, 0.0]"
1508259125710569447,,7177,,1508259125,709881842,imu,,-0.0192367825657,0.0133263021708,0.646608054638,0.762463450432,"[0.0, 0.0, 0.0, 0.0, 0.0, 0.0, 0.0, 0.0, 0.0]",,0.000397187250201,-0.00185984524433,-0.0255689099431,"[0.0, 0.0, 0.0, 0.0, 0.0, 0.0, 0.0, 0.0, 0.0]",,0.417009055614,0.160405412316,-9.61016750336,"[0.0, 0.0, 0.0, 0.0, 0.0, 0.0, 0.0, 0.0, 0.0]"
1508259125720970644,,7178,,1508259125,720199655,imu,,-0.0192354060709,0.0133269894868,0.646614074707,0.762458324432,"[0.0, 0.0, 0.0, 0.0, 0.0, 0.0, 0.0, 0.0, 0.0]",,0.000414351874497,0.00120808079373,-0.0257450155914,"[0.0, 0.0, 0.0, 0.0, 0.0, 0.0, 0.0, 0.0, 0.0]",,0.473601430655,0.059688128531,-9.44389915466,"[0.0, 0.0, 0.0, 0.0, 0.0, 0.0, 0.0, 0.0, 0.0]"
1508259125731349030,,7179,,1508259125,730637155,imu,,-0.0192423481494,0.0133416866884,0.646616339684,0.762455999851,"[0.0, 0.0, 0.0, 0.0, 0.0, 0.0, 0.0, 0.0, 0.0]",,0.000580698251724,0.00257644313388,-0.025500619784,"[0.0, 0.0, 0.0, 0.0, 0.0, 0.0, 0.0, 0.0, 0.0]",,0.343867838383,0.15679346025,-9.59770965576,"[0.0, 0.0, 0.0, 0.0, 0.0, 0.0, 0.0, 0.0, 0.0]"
1508259125741790644,,7180,,1508259125,741176582,imu,,-0.0192336868495,0.0133213670924,0.64662116766,0.762452483177,"[0.0, 0.0, 0.0, 0.0, 0.0, 0.0, 0.0, 0.0, 0.0]",,-8.7528853328e-05,-0.00352717307396,-0.0237982068211,"[0.0, 0.0, 0.0, 0.0, 0.0, 0.0, 0.0, 0.0, 0.0]",,0.511272609234,0.12043581903,-9.5284910202,"[0.0, 0.0, 0.0, 0.0, 0.0, 0.0, 0.0, 0.0, 0.0]"
1508259125752546894,,7181,,1508259125,751746217,imu,,-0.0192409828305,0.013338281773,0.646617889404,0.762454748154,"[0.0, 0.0, 0.0, 0.0, 0.0, 0.0, 0.0, 0.0, 0.0]",,0.000370002002455,0.00386418658309,-0.0267012827098,"[0.0, 0.0, 0.0, 0.0, 0.0, 0.0, 0.0, 0.0, 0.0]",,0.362122565508,0.104565478861,-9.47657775879,"[0.0, 0.0, 0.0, 0.0, 0.0, 0.0, 0.0, 0.0, 0.0]"
1508259125758706426,,7182,,1508259125,757738561,imu,,-0.01922977902,0.0133272437379,0.646622776985,0.76245111227,"[0.0, 0.0, 0.0, 0.0, 0.0, 0.0, 0.0, 0.0, 0.0]",,0.000977405230515,-0.00234654732049,-0.0231956504285,"[0.0, 0.0, 0.0, 0.0, 0.0, 0.0, 0.0, 0.0, 0.0]",,0.418938815594,0.143739283085,-9.60539054871,"[0.0, 0.0, 0.0, 0.0, 0.0, 0.0, 0.0, 0.0, 0.0]"
1508259125769980436,,7183,,1508259125,768806478,imu,,-0.019227642566,0.0133240818977,0.646623671055,0.762450456619,"[0.0, 0.0, 0.0, 0.0, 0.0, 0.0, 0.0, 0.0, 0.0]",,0.000368208013242,0.000285282556433,-0.0260891243815,"[0.0, 0.0, 0.0, 0.0, 0.0, 0.0, 0.0, 0.0, 0.0]",,0.471701622009,0.0573032908142,-9.44475269318,"[0.0, 0.0, 0.0, 0.0, 0.0, 0.0, 0.0, 0.0, 0.0]"
1508259125780919759,,7184,,1508259125,780216634,imu,,-0.0192359797657,0.013339323923,0.646618068218,0.762454688549,"[0.0, 0.0, 0.0, 0.0, 0.0, 0.0, 0.0, 0.0, 0.0]",,-0.000341397884768,0.00285706622526,-0.0255656987429,"[0.0, 0.0, 0.0, 0.0, 0.0, 0.0, 0.0, 0.0, 0.0]",,0.32336255908,0.160531133413,-9.57211494446,"[0.0, 0.0, 0.0, 0.0, 0.0, 0.0, 0.0, 0.0, 0.0]"
1508259125791405697,,7185,,1508259125,790742676,imu,,-0.0192270725965,0.0133241089061,0.646617531776,0.762455642223,"[0.0, 0.0, 0.0, 0.0, 0.0, 0.0, 0.0, 0.0, 0.0]",,0.000406382110668,-0.00135112961289,-0.0243924632668,"[0.0, 0.0, 0.0, 0.0, 0.0, 0.0, 0.0, 0.0, 0.0]",,0.500677227974,0.113360628486,-9.53826332092,"[0.0, 0.0, 0.0, 0.0, 0.0, 0.0, 0.0, 0.0, 0.0]"
1508259125802230696,,7186,,1508259125,801294967,imu,,-0.0192384812981,0.013335657306,0.646612226963,0.762459635735,"[0.0, 0.0, 0.0, 0.0, 0.0, 0.0, 0.0, 0.0, 0.0]",,-0.000832942780107,0.00356165319681,-0.0255287066102,"[0.0, 0.0, 0.0, 0.0, 0.0, 0.0, 0.0, 0.0, 0.0]",,0.368414849043,0.0784268006682,-9.50511169434,"[0.0, 0.0, 0.0, 0.0, 0.0, 0.0, 0.0, 0.0, 0.0]"
1508259125812671113,,7187,,1508259125,811826269,imu,,-0.0192359164357,0.0133306980133,0.646609783173,0.762461841106,"[0.0, 0.0, 0.0, 0.0, 0.0, 0.0, 0.0, 0.0, 0.0]",,-0.000134540576255,-0.00051213853294,-0.0232748985291,"[0.0, 0.0, 0.0, 0.0, 0.0, 0.0, 0.0, 0.0, 0.0]",,0.459318816662,0.151291564107,-9.60720062256,"[0.0, 0.0, 0.0, 0.0, 0.0, 0.0, 0.0, 0.0, 0.0]"
1508259125823147259,,7188,,1508259125,822360801,imu,,-0.0192398540676,0.0133292833343,0.646612226963,0.762459695339,"[0.0, 0.0, 0.0, 0.0, 0.0, 0.0, 0.0, 0.0, 0.0]",,2.39475339185e-05,0.000311087700538,-0.0234182663262,"[0.0, 0.0, 0.0, 0.0, 0.0, 0.0, 0.0, 0.0, 0.0]",,0.466266095638,0.0625833570957,-9.45734977722,"[0.0, 0.0, 0.0, 0.0, 0.0, 0.0, 0.0, 0.0, 0.0]"
1508259125828598769,,7189,,1508259125,827673040,imu,,-0.0192495323718,0.0133402524516,0.646604895592,0.76246547699,"[0.0, 0.0, 0.0, 0.0, 0.0, 0.0, 0.0, 0.0, 0.0]",,-0.00075375958113,0.00361518515274,-0.0256910286844,"[0.0, 0.0, 0.0, 0.0, 0.0, 0.0, 0.0, 0.0, 0.0]",,0.351238429546,0.151446670294,-9.60388278961,"[0.0, 0.0, 0.0, 0.0, 0.0, 0.0, 0.0, 0.0, 0.0]"
1508259125838971321,,7190,,1508259125,838162467,imu,,-0.0192363727838,0.0133256604895,0.646602928638,0.762467801571,"[0.0, 0.0, 0.0, 0.0, 0.0, 0.0, 0.0, 0.0, 0.0]",,0.00101255672053,-0.00288368645124,-0.0244105905294,"[0.0, 0.0, 0.0, 0.0, 0.0, 0.0, 0.0, 0.0, 0.0]",,0.495264828205,0.117081768811,-9.53230285645,"[0.0, 0.0, 0.0, 0.0, 0.0, 0.0, 0.0, 0.0, 0.0]"
1508259125849410853,,7191,,1508259125,848720801,imu,,-0.0192419793457,0.0133384978399,0.646604716778,0.762465894222,"[0.0, 0.0, 0.0, 0.0, 0.0, 0.0, 0.0, 0.0, 0.0]",,0.000910773640499,0.00320423301309,-0.025003163144,"[0.0, 0.0, 0.0, 0.0, 0.0, 0.0, 0.0, 0.0, 0.0]",,0.375168710947,0.0923782661557,-9.51432609558,"[0.0, 0.0, 0.0, 0.0, 0.0, 0.0, 0.0, 0.0, 0.0]"
1508259125859532624,,7192,,1508259125,859001113,imu,,-0.019236009568,0.013330292888,0.646606326103,0.762464821339,"[0.0, 0.0, 0.0, 0.0, 0.0, 0.0, 0.0, 0.0, 0.0]",,0.00145722611342,-0.00167936296202,-0.0243693254888,"[0.0, 0.0, 0.0, 0.0, 0.0, 0.0, 0.0, 0.0, 0.0]",,0.435123205185,0.1535500139,-9.63449478149,"[0.0, 0.0, 0.0, 0.0, 0.0, 0.0, 0.0, 0.0, 0.0]"
1508259125869609394,,7193,,1508259125,869246530,imu,,-0.019230844453,0.0133264549077,0.646609306335,0.762462496758,"[0.0, 0.0, 0.0, 0.0, 0.0, 0.0, 0.0, 0.0, 0.0]",,0.000324289721902,-0.000160981726367,-0.0251264553517,"[0.0, 0.0, 0.0, 0.0, 0.0, 0.0, 0.0, 0.0, 0.0]",,0.466587662697,0.0603681318462,-9.47120666504,"[0.0, 0.0, 0.0, 0.0, 0.0, 0.0, 0.0, 0.0, 0.0]"
