rosbagTimestamp,header,seq,stamp,secs,nsecs,frame_id,pose,position,x,y,z,orientation,x,y,z,w
1508259965444099699,,1,,1508259965,443353891,0,,,4252.20703125,229.749023438,267.887969971,,-0.0106061697006,0.566653370857,0.0229318961501,-0.823568820953
1508259965463651522,,2,,1508259965,462694883,0,,,4253.16796875,226.381591797,268.887908936,,-0.0364798903465,0.550704479218,0.0530865490437,-0.832211315632
1508259965484963449,,3,,1508259965,484333992,0,,,4249.41552734,229.707275391,265.028106689,,-0.070224493742,0.527901649475,0.079135119915,-0.842689812183
1508259965502350793,,4,,1508259965,501843929,0,,,4244.81298828,219.636230469,269.272796631,,-0.0825839489698,0.533529281616,0.116567477584,-0.833629667759
1508259965522098085,,5,,1508259965,521662950,0,,,4235.98828125,212.571044922,274.46975708,,-0.0859051793814,0.550518035889,0.143043383956,-0.81797850132
1508259965542583032,,6,,1508259965,541825056,0,,,4237.70507812,212.274414062,277.995452881,,-0.0838828980923,0.555833697319,0.145105838776,-0.81422162056
1508259965561827043,,7,,1508259965,561376094,0,,,4236.06835938,213.848632812,278.177093506,,-0.0841534733772,0.551537275314,0.14344638586,-0.817403078079
1508259965583097251,,8,,1508259965,581654071,0,,,4239.66357422,214.170654297,274.980987549,,-0.0845503360033,0.55120164156,0.126167446375,-0.820432662964
1508259965601799022,,9,,1508259965,601018905,0,,,4247.55566406,221.821533203,271.637786865,,-0.0744544863701,0.539968371391,0.0842750743032,-0.834139406681
1508259965621637512,,10,,1508259965,620862007,0,,,4245.06835938,226.478759766,271.821502686,,-0.0762350410223,0.530564725399,0.0833518058062,-0.840084433556
1508259965641124230,,11,,1508259965,640497922,0,,,4242.62841797,228.696044922,270.397735596,,-0.0766214877367,0.52330994606,0.0805936902761,-0.844855427742
1508259965680668241,,12,,1508259965,680175065,0,,,4259.31054688,216.083251953,275.63381958,,-0.0471154153347,0.546254038811,0.0655390322208,-0.833721399307
1508259965700437095,,13,,1508259965,699915885,0,,,4256.01806641,217.765380859,273.722381592,,-0.0754809379578,0.549005866051,0.0968993380666,-0.82674407959
1508259965720175012,,14,,1508259965,719652891,0,,,4252.83544922,222.612548828,267.377349854,,-0.0870040208101,0.537517428398,0.0886609405279,-0.83405315876
1508259965740378553,,15,,1508259965,739723920,0,,,4260.24511719,223.333984375,274.016265869,,-0.102536633611,0.558118462563,0.0830068290234,-0.819206833839
1508259965760565220,,16,,1508259965,759542942,0,,,4280.09667969,189.159667969,302.528656006,,-0.0637944936752,0.642870426178,0.120313674212,-0.753772139549
1508259965783953709,,17,,1508259965,783171892,0,,,4272.53173828,207.595458984,295.269561768,,-0.0432144552469,0.61449110508,0.092955686152,-0.782235503197
1508259965800808918,,18,,1508259965,799797058,0,,,4265.43261719,213.677734375,294.611846924,,-0.0396141409874,0.630132615566,0.0906828418374,-0.770156025887
1508259965819544491,,19,,1508259965,818871974,0,,,4254.60693359,218.78515625,294.093231201,,-0.0586806982756,0.629820823669,0.0696783810854,-0.771380186081
1508259965841724647,,20,,1508259965,840908050,0,,,4253.90722656,222.788818359,284.1690979,,-0.0742575973272,0.590362250805,0.0642717629671,-0.801141321659
1508259965859612824,,21,,1508259965,858879089,0,,,4248.27246094,228.031982422,278.491912842,,-0.0603052079678,0.551981270313,0.0569370239973,-0.829721868038
1508259965882780220,,22,,1508259965,881871938,0,,,4239.99658203,229.721923828,278.367156982,,-0.0591767430305,0.555836856365,0.062508046627,-0.826823055744
1508259965899247407,,23,,1508259965,898493051,0,,,4224.06298828,232.339111328,269.312469482,,-0.0747106671333,0.540920734406,0.102969229221,-0.831396579742
1508259965919315584,,24,,1508259965,918365001,0,,,4210.19921875,236.717773438,265.397186279,,-0.0781170725822,0.524500310421,0.129169210792,-0.837921500206
1508259965939129647,,25,,1508259965,938342094,0,,,4275.48583984,200.366455078,288.077056885,,-0.0296720564365,0.588739693165,0.0753661245108,-0.804254293442
1508259965958679751,,26,,1508259965,957917928,0,,,4269.99511719,204.163330078,284.841461182,,-0.031352236867,0.595529437065,0.0651927441359,-0.800069689751
1508259965978771105,,27,,1508259965,978111028,0,,,4268.2265625,205.134277344,285.071624756,,-0.0309187471867,0.58803910017,0.072762735188,-0.804959416389
1508259965997931522,,28,,1508259965,997034072,0,,,4278.24951172,202.172607422,288.192901611,,-0.0180560648441,0.585275352001,0.0502978563309,-0.809071540833
1508259966016847407,,29,,1508259966,16367912,0,,,4277.67529297,199.165527344,287.515045166,,-0.0471531003714,0.585677683353,0.0740159526467,-0.80577903986
1508259966037480168,,30,,1508259966,36484003,0,,,4272.06054688,201.129150391,285.556427002,,-0.0291878581047,0.612311601639,0.0518691912293,-0.788372993469
1508259966057242355,,31,,1508259966,56379079,0,,,4267.640625,203.697021484,284.396759033,,-0.0156331956387,0.610076904297,0.0484486743808,-0.790705084801
1508259966076636366,,32,,1508259966,75987100,0,,,4269.015625,204.448974609,284.443206787,,-0.0221251547337,0.596959590912,0.0340301692486,-0.801243782043
1508259966100659907,,33,,1508259966,99101066,0,,,4266.78710938,205.138183594,284.082733154,,-0.0264774858952,0.61078286171,0.0285588502884,-0.790839791298
1508259966116310845,,34,,1508259966,115677118,0,,,4266.56982422,204.400634766,286.092803955,,-0.0219193100929,0.611672282219,0.0476010963321,-0.789373517036
1508259966136890116,,35,,1508259966,135906934,0,,,4262.40087891,207.841796875,287.528839111,,-0.0260397344828,0.606056272984,0.0597084164619,-0.792750060558
1508259966156438605,,36,,1508259966,155817985,0,,,4266.484375,207.252929688,287.256622314,,-0.0349496752024,0.593837738037,0.055482648313,-0.801908254623
1508259966176723657,,37,,1508259966,175757884,0,,,4266.79248047,206.097167969,283.44039917,,-0.0295315682888,0.600328743458,0.040582165122,-0.798176884651
1508259966195287095,,38,,1508259966,194755077,0,,,4276.51660156,199.775878906,283.185455322,,-0.0135527253151,0.612678706646,0.0426767989993,-0.789062619209
1508259966215389855,,39,,1508259966,214728116,0,,,4277.38525391,196.546142578,281.721466064,,-0.0129840970039,0.596395611763,0.0397165119648,-0.801602363586
1508259966235443084,,40,,1508259966,234462976,0,,,4281.22070312,198.076904297,288.904510498,,-0.0144109427929,0.622623443604,0.0507977455854,-0.780737996101
1508259966255230272,,41,,1508259966,254398107,0,,,4281.70849609,205.129638672,290.556610107,,-0.0429990440607,0.622723579407,0.0387164205313,-0.780299663544
1508259966286499022,,42,,1508259966,285357952,0,,,4293.95898438,200.614013672,294.49697876,,-0.0380893796682,0.622763872147,0.0403541848063,-0.78043949604
1508259966307287876,,43,,1508259966,306632995,0,,,4291.84228516,202.273925781,294.932403564,,-0.0558889210224,0.616101861,0.0626823678613,-0.783176720142
1508259966318416886,,44,,1508259966,317775964,0,,,4300.49267578,197.367675781,289.570404053,,-0.0452315360308,0.627665758133,0.00238501280546,-0.777164161205
1508259966335427407,,45,,1508259966,334325075,0,,,4297.27783203,192.385742188,289.029449463,,-0.00926773250103,0.620063245296,0.0692461058497,-0.781435012817
1508259966353773084,,46,,1508259966,353148937,0,,,4290.21240234,194.403808594,279.433807373,,0.0262210965157,0.635661900043,0.110638134181,-0.763548016548
1508259966373643813,,47,,1508259966,372946023,0,,,4291.56445312,194.9921875,276.544036865,,0.0295788943768,0.641428411007,0.124424219131,-0.756447792053
1508259966394352980,,48,,1508259966,392988920,0,,,4278.71191406,197.555908203,280.679779053,,-0.0190086960793,0.595267057419,0.0437242910266,-0.802112221718
1508259966413288136,,49,,1508259966,412442922,0,,,4273.67285156,202.320556641,283.851104736,,-0.0269086807966,0.592836678028,0.0397092029452,-0.80389291048
1508259966434950324,,50,,1508259966,433511018,0,,,4275.40917969,201.644775391,280.765838623,,-0.0279512405396,0.609340012074,0.0104624181986,-0.792347073555
1508259966454801626,,51,,1508259966,453715085,0,,,4272.66748047,202.366455078,283.260467529,,-0.0251447558403,0.643502831459,0.0257979035378,-0.76459556818
1508259966472625688,,52,,1508259966,471827030,0,,,4287.58007812,196.549804688,296.070404053,,-0.0181518346071,0.642384648323,0.0649046599865,-0.763413190842
1508259966492209803,,53,,1508259966,491694927,0,,,4296.703125,199.96875,292.800567627,,-0.00152257084846,0.643048644066,0.119819395244,-0.756392359734
1508259966512300272,,54,,1508259966,511383056,0,,,4291.80224609,197.508300781,290.603668213,,-0.0298590362072,0.640286386013,0.0761961489916,-0.763764381409
1508259966537032042,,55,,1508259966,536118984,0,,,4281.50146484,205.007568359,285.666168213,,-0.0609954893589,0.626441597939,0.0253927484155,-0.776663184166
1508259966553856886,,56,,1508259966,552849054,0,,,4280.95019531,199.990478516,281.468292236,,-0.0209988951683,0.591963112354,0.0360774472356,-0.804883420467
1508259966572528397,,57,,1508259966,571906089,0,,,4275.83154297,197.725341797,280.310455322,,-0.0217656493187,0.600629329681,0.0265116915107,-0.798791408539
1508259966591358970,,58,,1508259966,590646028,0,,,4270.17724609,199.681640625,279.554046631,,-0.0308965742588,0.606146037579,0.0476432219148,-0.793323636055
1508259966615114595,,59,,1508259966,613612890,0,,,4272.00488281,200.227783203,286.872650146,,-0.0262453556061,0.632408678532,0.0656718835235,-0.771399796009
1508259966631222094,,60,,1508259966,630295991,0,,,4271.84521484,199.411132812,286.331695557,,0.00443604588509,0.617675840855,0.106084495783,-0.779232263565
1508259966650936105,,61,,1508259966,650111913,0,,,4282.46289062,202.878173828,283.252716064,,0.00545319914818,0.635555207729,0.135847732425,-0.759990155697
1508259966671023657,,62,,1508259966,669985055,0,,,4278.62451172,201.766113281,278.481842041,,0.00963589549065,0.663821697235,0.143446445465,-0.73394203186
1508259966692332824,,63,,1508259966,689959049,0,,,4282.53271484,200.520996094,282.392913818,,0.0170332938433,0.663601636887,0.156864523888,-0.731256484985
1508259966710546730,,64,,1508259966,709676027,0,,,4286.16308594,198.785888672,282.560333252,,0.0213453918695,0.645119726658,0.121478676796,-0.754060983658
1508259966730302147,,65,,1508259966,729368925,0,,,4286.75732422,200.662109375,282.607574463,,0.00930070877075,0.63875579834,0.127651691437,-0.758689343929
1508259966750050376,,66,,1508259966,749294996,0,,,4281.06542969,200.202148438,281.752349854,,0.00456410646439,0.638619363308,0.123222894967,-0.759579181671
1508259966769453553,,67,,1508259966,768781900,0,,,4292.74658203,202.910888672,284.560394287,,0.0124958753586,0.658686041832,0.17076331377,-0.732677578926
1508259966789664334,,68,,1508259966,788918018,0,,,4291.40576172,200.173828125,279.188568115,,0.0289749056101,0.64677131176,0.124398477376,-0.751912415028
1508259966809539126,,69,,1508259966,808604001,0,,,4275.30712891,205.644775391,279.466278076,,-0.00769729912281,0.634674489498,0.134462207556,-0.760952651501
1508259966829576938,,70,,1508259966,828715085,0,,,4254.86376953,207.3125,274.166107178,,0.00787976384163,0.634570121765,0.207289725542,-0.7445063591
1508259966848832667,,71,,1508259966,848113059,0,,,4239.50585938,212.195068359,268.37411499,,0.00915361940861,0.618926405907,0.202475517988,-0.75884771347
1508259966868539646,,72,,1508259966,867744922,0,,,4241.85839844,207.727294922,271.201568604,,0.0148267894983,0.619314789772,0.18810275197,-0.762133061886
1508259966888742824,,73,,1508259966,887509107,0,,,4238.72900391,214.422119141,272.534820557,,0.00333680212498,0.62408220768,0.199407964945,-0.755477845669
1508259966907847511,,74,,1508259966,907263994,0,,,4239.00244141,218.997070312,270.410552979,,-0.00546614825726,0.621410131454,0.202230125666,-0.756916463375
1508259966927869282,,75,,1508259966,927052974,0,,,4232.74023438,221.701416016,266.445953369,,-0.0168808847666,0.597541987896,0.18192666769,-0.780744075775
1508259966947437928,,76,,1508259966,946829080,0,,,4298.77099609,197.816650391,275.711456299,,-0.0198155045509,0.572998404503,0.00572524219751,-0.819296896458
1508259966968214803,,77,,1508259966,967194080,0,,,4297.03613281,196.686035156,279.521697998,,-0.0203850269318,0.572394132614,0.0263194516301,-0.819302558899
1508259966987061157,,78,,1508259966,986394882,0,,,4297.82617188,195.470214844,283.590240479,,-0.00885957479477,0.580447375774,0.0163670703769,-0.814085066319
1508259967009366365,,79,,1508259967,7407903,0,,,4296.46240234,193.938476562,276.392852783,,-0.0187648534775,0.570784091949,0.0253465697169,-0.820494294167
1508259967029168657,,80,,1508259967,26992082,0,,,4289.65332031,202.677490234,276.380767822,,-0.0496030151844,0.562344431877,0.0347755551338,-0.824681162834
1508259967048766521,,81,,1508259967,46807050,0,,,4278.00048828,213.308105469,279.326202393,,-0.0652956217527,0.554668009281,0.0578259825706,-0.827487766743
1508259967071659646,,82,,1508259967,70826053,0,,,4252.8203125,214.804443359,276.251312256,,-0.0761885493994,0.585887491703,0.0709099173546,-0.803680837154
1508259967098739959,,83,,1508259967,97851991,0,,,4273.390625,203.764404297,288.882904053,,-0.0256984531879,0.675327718258,0.127719670534,-0.725920021534
1508259967110478657,,84,,1508259967,109745979,0,,,4285.80566406,203.838623047,291.158782959,,-0.0272366404533,0.668875277042,0.149610549212,-0.727654278278
1508259967125845740,,85,,1508259967,125260114,0,,,4293.22265625,204.109863281,290.170928955,,-0.0188852250576,0.665658712387,0.175314545631,-0.725125312805
1508259967145767303,,86,,1508259967,144949913,0,,,4285.94042969,198.026367188,286.853790283,,-0.0438955575228,0.639274716377,0.061275601387,-0.765275359154
1508259967166397094,,87,,1508259967,165365934,0,,,4266.859375,202.18359375,277.109466553,,-0.0594437867403,0.614707529545,0.0298466831446,-0.785945415497
1508259967190686417,,88,,1508259967,189815998,0,,,4263.93457031,202.864990234,277.956268311,,-0.0330233126879,0.586374402046,0.055523738265,-0.807459890842
1508259967207477042,,89,,1508259967,205447912,0,,,4272.98046875,204.194580078,278.523101807,,-0.0354416072369,0.595434844494,0.0279118940234,-0.802136003971
1508259967229506834,,90,,1508259967,228940963,0,,,4278.80029297,199.806396484,293.305755615,,-0.0443041175604,0.64948785305,0.0968508124352,-0.752876281738
1508259967245074230,,91,,1508259967,243813991,0,,,4271.18554688,202.011474609,293.340240479,,-0.0570551753044,0.642732918262,0.0961846634746,-0.757883608341
1508259967266055948,,92,,1508259967,265129089,0,,,4259.77294922,209.546630859,293.157989502,,-0.0769774615765,0.626129865646,0.0917382389307,-0.770467281342
1508259967290336521,,93,,1508259967,289565086,0,,,4264.41308594,209.117431641,296.020111084,,-0.0801870524883,0.608171701431,0.0883478373289,-0.784787774086
1508259967304489282,,94,,1508259967,303781032,0,,,4255.62402344,210.433837891,287.678070068,,-0.0726871490479,0.646244287491,0.0571944266558,-0.757504940033
1508259967323613605,,95,,1508259967,322947978,0,,,4269.62304688,200.119384766,287.223175049,,-0.0364908277988,0.650790691376,0.0635263696313,-0.755714476109
1508259967343692928,,96,,1508259967,342650890,0,,,4287.70556641,197.090332031,282.543304443,,0.0197293311357,0.619396030903,0.104412958026,-0.777854204178
1508259967363603865,,97,,1508259967,362682104,0,,,4295.64648438,195.956787109,281.028656006,,0.0041746199131,0.629507124424,0.134565621614,-0.765242099762
1508259967384373344,,98,,1508259967,383003950,0,,,4293.97753906,197.957275391,277.014251709,,-0.00452066957951,0.645605564117,0.143859162927,-0.749985098839
1508259967405000636,,99,,1508259967,403561115,0,,,4291.68505859,200.628417969,283.353240967,,-0.0130853503942,0.678568303585,0.153569921851,-0.718185186386
1508259967422614386,,100,,1508259967,421876907,0,,,4286.59375,197.67578125,292.50881958,,-0.0761668533087,0.623125731945,0.045409552753,-0.777078449726
1508259967442919073,,101,,1508259967,441871881,0,,,4273.28027344,200.914794922,284.349700928,,-0.0710857063532,0.646704077721,-0.00137301534414,-0.75942003727
1508259967462119646,,102,,1508259967,461489915,0,,,4259.28613281,206.551513672,279.612091064,,-0.0482131391764,0.682926356792,-0.0369844734669,-0.727955460548
1508259967482411678,,103,,1508259967,481400012,0,,,4255.27929688,211.060058594,280.088226318,,-0.039524808526,0.6869135499,-0.0244725942612,-0.725250720978
1508259967501657875,,104,,1508259967,501049041,0,,,4266.90917969,209.545166016,279.56350708,,-0.0224922150373,0.692077815533,0.0107465460896,-0.721392393112
1508259967521495167,,105,,1508259967,520880937,0,,,4274.05419922,205.199951172,287.97366333,,-0.0514042526484,0.628775775433,0.0538133531809,-0.774017393589
1508259967540928865,,106,,1508259967,540343999,0,,,4273.82763672,200.66796875,283.204620361,,-0.0473902821541,0.588112413883,0.0998536646366,-0.801190972328
1508259967561505844,,107,,1508259967,560477018,0,,,4272.14697266,199.488769531,281.527618408,,-0.0504208654165,0.575051426888,0.0857666060328,-0.812045395374
1508259967582383136,,108,,1508259967,581558942,0,,,4277.59082031,199.263427734,289.481170654,,-0.0456483066082,0.613702058792,0.0887106135488,-0.783209085464
1508259967601032302,,109,,1508259967,600284099,0,,,4273.35693359,200.134765625,293.425323486,,-0.0450726002455,0.644602000713,0.0824451223016,-0.758722305298
1508259967622360896,,110,,1508259967,621395111,0,,,4260.87011719,205.397705078,293.091094971,,-0.05306661129,0.652396023273,0.10085734725,-0.749260365963
1508259967644142563,,111,,1508259967,640727043,0,,,4262.55322266,202.809326172,300.513092041,,-0.0903677791357,0.630043804646,0.0952445864677,-0.765380263329
1508259967659658448,,112,,1508259967,659132003,0,,,4276.73193359,195.457763672,295.026092529,,-0.103765711188,0.623162567616,0.0620543658733,-0.772690415382
1508259967679736834,,113,,1508259967,679004907,0,,,4297.10791016,187.198974609,299.174468994,,-0.0947816669941,0.587773025036,0.112734645605,-0.795506238937
1508259967699267355,,114,,1508259967,698812961,0,,,4302.05664062,190.950439453,283.585357666,,-0.0441905856133,0.572918355465,0.0554371029139,-0.816540658474
1508259967730314490,,115,,1508259967,729922056,0,,,4297.90478516,187.336425781,293.054962158,,-0.0507095307112,0.632785022259,0.0906431227922,-0.767330169678
1508259967745955688,,116,,1508259967,741075992,0,,,4292.39501953,187.319091797,295.6980896,,-0.0626108944416,0.635106980801,0.0927963778377,-0.764269471169
1508259967762871782,,117,,1508259967,762391090,0,,,4296.16259766,191.670898438,294.081085205,,-0.058468028903,0.611507117748,0.0930605977774,-0.783568739891
1508259967778791729,,118,,1508259967,778362989,0,,,4298.59130859,192.381103516,292.145111084,,-0.0792167633772,0.610415935516,0.063246563077,-0.785567879677
1508259967798045479,,119,,1508259967,797637939,0,,,4285.29785156,202.819580078,279.139923096,,-0.0511791855097,0.654565691948,-0.0195712894201,-0.754016876221
1508259967817892094,,120,,1508259967,817461013,0,,,4277.24365234,208.604492188,273.501678467,,-0.000355824828148,0.69501388073,-0.047223739326,-0.71744376421
1508259967839489125,,121,,1508259967,838989973,0,,,4295.60498047,210.068115234,281.251251221,,0.0330238491297,0.6541416049,0.136078983545,-0.743297219276
1508259967857580375,,122,,1508259967,856962919,0,,,4308.93017578,194.733886719,277.271026611,,0.0296512693167,0.62322217226,0.114636786282,-0.773028612137
1508259967877242615,,123,,1508259967,876775026,0,,,4315.265625,193.522949219,267.418243408,,0.0563387423754,0.624337434769,0.0738931298256,-0.775608539581
1508259967896975271,,124,,1508259967,896529912,0,,,4314.67138672,196.567138672,272.747589111,,0.0405493974686,0.613881647587,0.0729596242309,-0.784972548485
1508259967916864386,,125,,1508259967,916412115,0,,,4307.24511719,197.680908203,285.123626709,,0.000908315181732,0.620277285576,0.107997849584,-0.776911616325
1508259967995954021,,126,,1508259967,995484113,0,,,4283.03662109,201.957763672,288.366119385,,-0.0303458571434,0.567728459835,0.0671113654971,-0.819914340973
1508259968015773969,,127,,1508259968,15358924,0,,,4266.16259766,206.286376953,284.729644775,,-0.0306774973869,0.609567761421,0.0829197689891,-0.787788271904
1508259968035428448,,128,,1508259968,35043954,0,,,4273.84667969,201.073486328,284.708770752,,0.00751569867134,0.619781374931,0.120116725564,-0.775491178036
1508259968055250896,,129,,1508259968,54853916,0,,,4280.32177734,204.325439453,284.15536499,,0.0331431031227,0.614944338799,0.108184561133,-0.780410826206
1508259968075031990,,130,,1508259968,74608087,0,,,4273.71386719,201.093505859,288.194610596,,-0.00242482125759,0.597426652908,0.0987633913755,-0.795814871788
1508259968096180948,,131,,1508259968,95129966,0,,,4252.22949219,208.027587891,280.54586792,,0.0205639153719,0.615586936474,0.166551917791,-0.769993662834
1508259968115082615,,132,,1508259968,114558935,0,,,4257.60986328,199.321044922,272.69229126,,0.0259616374969,0.58872705698,0.179708585143,-0.787674665451
1508259968134798136,,133,,1508259968,134304046,0,,,4248.31005859,204.393310547,269.171966553,,0.0197152644396,0.573936581612,0.171887487173,-0.800414085388
1508259968154071365,,134,,1508259968,153765916,0,,,4239.64550781,216.060302734,264.945770264,,-0.00413337349892,0.563095450401,0.171674191952,-0.808352947235
1508259968174873865,,135,,1508259968,174470901,0,,,4225.359375,225.9453125,260.504852295,,-0.0578954219818,0.489609748125,0.109738148749,-0.863068938255
1508259968200252563,,136,,1508259968,199348926,0,,,4237.23828125,204.568847656,262.826751709,,0.018157273531,0.516445755959,0.0978950858116,-0.850511908531
1508259968214144021,,137,,1508259968,213601112,0,,,4251.38427734,194.638916016,260.726470947,,0.0175594091415,0.500650823116,0.0919243320823,-0.86057561636
1508259968251490583,,138,,1508259968,250849008,0,,,4258.20800781,190.953613281,256.312469482,,0.00659087300301,0.481696486473,0.0897097066045,-0.871709346771
1508259968270042406,,139,,1508259968,269588947,0,,,4268.52978516,185.971435547,252.415252686,,0.0108756422997,0.482865214348,0.0919307246804,-0.870787978172
1508259968274287406,,140,,1508259968,273827075,0,,,4270.11621094,185.267333984,252.775848389,,0.00657752156258,0.476418912411,0.0921040102839,-0.874356031418
1508259968293310167,,141,,1508259968,292550086,0,,,4271.32958984,180.748046875,261.129058838,,0.037955224514,0.509973108768,0.104798480868,-0.852938532829
1508259968314355479,,142,,1508259968,313987970,0,,,4263.29248047,188.603027344,269.026519775,,0.0374308675528,0.540426254272,0.122008509934,-0.831656336784
1508259968333474646,,143,,1508259968,332909107,0,,,4273.10253906,192.222412109,257.560394287,,0.070633739233,0.571833610535,0.163726657629,-0.800756394863
1508259968352885740,,144,,1508259968,352519989,0,,,4272.04931641,191.741699219,251.701629639,,0.0846495628357,0.559451341629,0.177184462547,-0.805266559124
1508259968372802875,,145,,1508259968,372390985,0,,,4268.79394531,189.69140625,247.989776611,,0.0914162248373,0.546442985535,0.173890888691,-0.814128398895
1508259968392162250,,146,,1508259968,391634941,0,,,4267.99951172,191.587890625,253.325286865,,0.0784581452608,0.550681710243,0.175851881504,-0.812200903893
1508259968411456625,,147,,1508259968,411050081,0,,,4269.49511719,193.584716797,259.149078369,,0.0636902153492,0.562136828899,0.181715905666,-0.804316461086
1508259968434416729,,148,,1508259968,434009075,0,,,4265.6875,193.189697266,255.748931885,,0.0710852146149,0.560417950153,0.170759737492,-0.807291567326
1508259968455172667,,149,,1508259968,454328060,0,,,4264.57519531,192.864990234,253.861236572,,0.0796316117048,0.556505560875,0.168299198151,-0.809713423252
1508259968470818135,,150,,1508259968,470428943,0,,,4260.33935547,197.0390625,260.365631104,,0.0616293549538,0.561082720757,0.189296543598,-0.803464233875
1508259968491441365,,151,,1508259968,490823030,0,,,4265.08398438,193.004150391,254.551177979,,0.0688436925411,0.548278212547,0.154319599271,-0.81904643774
1508259968511823344,,152,,1508259968,511389017,0,,,4257.95410156,191.677734375,259.794158936,,0.048313125968,0.520503282547,0.124797686934,-0.843307614326
1508259968574659490,,153,,1508259968,574251890,0,,,4257.78125,206.069824219,286.165924072,,-0.00853395462036,0.661311328411,0.00586499273777,-0.750040054321
1508259968589472771,,154,,1508259968,589117050,0,,,4235.86621094,221.078613281,289.653900146,,-0.0575183928013,0.55238956213,0.068959005177,-0.828735232353
1508259968609990115,,155,,1508259968,609345912,0,,,4220.24902344,217.268066406,275.185943604,,-0.0478519797325,0.492215037346,0.0768874809146,-0.865749895573
1508259968629182458,,156,,1508259968,628770112,0,,,4205.08691406,211.333251953,276.652862549,,-0.0424394309521,0.495294332504,0.103696629405,-0.861469328403
1508259968649758552,,157,,1508259968,648674011,0,,,4179.53320312,216.405761719,268.531646729,,-0.0476500689983,0.467085897923,0.114161007106,-0.875515520573
1508259968668977198,,158,,1508259968,668497085,0,,,4161.87451172,224.310302734,267.727813721,,-0.0625714957714,0.452362209558,0.116569280624,-0.881966412067
1508259968688709229,,159,,1508259968,688288927,0,,,4139.60693359,229.078613281,266.384918213,,-0.0585803389549,0.442641764879,0.108104392886,-0.888228595257
1508259968708394698,,160,,1508259968,707998037,0,,,4124.09619141,231.388916016,269.294281006,,-0.0614796578884,0.450249105692,0.106603480875,-0.884382069111
1508259968728326677,,161,,1508259968,727804899,0,,,4119.95361328,228.967529297,286.051422119,,-0.0461754798889,0.516339063644,0.0970598757267,-0.849612474442
1508259968747820792,,162,,1508259968,747468948,0,,,4122.07958984,215.546875,302.982147217,,0.0158485472202,0.565675139427,0.0681181550026,-0.821657061577
1508259968767801104,,163,,1508259968,767363071,0,,,4115.70507812,210.196044922,309.394500732,,-0.0060501396656,0.557653129101,0.0728316903114,-0.826850652695
1508259968787950427,,164,,1508259968,787358999,0,,,4095.69335938,216.472412109,313.62387085,,-0.0206281542778,0.560106277466,0.0761551484466,-0.824654996395
1508259968807755219,,165,,1508259968,807243108,0,,,4083.78027344,213.380615234,307.714630127,,-0.0125328600407,0.562970817089,0.0654319748282,-0.823787271976
1508259968827285948,,166,,1508259968,826817035,0,,,4072.66699219,210.521972656,304.102264404,,-0.00854647159576,0.548510909081,0.0895732939243,-0.831287741661
1508259968848198500,,167,,1508259968,847368955,0,,,4052.56298828,196.702392578,292.5652771,,0.00753837823868,0.514949083328,0.123263604939,-0.848278582096
1508259968867849802,,168,,1508259968,867274045,0,,,4033.82275391,189.923095703,284.646392822,,0.0348675251007,0.501839637756,0.120863094926,-0.855764687061
1508259968889208396,,169,,1508259968,888431072,0,,,4024.02246094,200.621826172,276.513702393,,0.0189999639988,0.484777748585,0.0964160338044,-0.869099140167
1508259968907090219,,170,,1508259968,906512022,0,,,4000.91259766,210.698242188,274.998565674,,-0.00824394822121,0.459852874279,0.0928482189775,-0.883089065552
1508259968926712614,,171,,1508259968,926131010,0,,,3982.32666016,211.921386719,275.636138916,,0.00169548392296,0.463071167469,0.0848047658801,-0.882252991199
1508259968946175323,,172,,1508259968,945770978,0,,,3964.19042969,219.146728516,288.099945068,,-0.0217142999172,0.481441348791,0.0961219370365,-0.870920836926
1508259968972137719,,173,,1508259968,971666097,0,,,3959.40283203,225.755126953,299.768157959,,-0.0449208319187,0.513403832912,0.0959089919925,-0.851586818695
1508259968986496885,,174,,1508259968,986057043,0,,,3957.18212891,219.890869141,309.548797607,,-0.0298772454262,0.54475736618,0.103220850229,-0.831680357456
1508259969007611625,,175,,1508259969,6922006,0,,,3934.44970703,223.698486328,295.898040771,,-0.0424184203148,0.499717235565,0.0962872430682,-0.85977435112
1508259969031804802,,176,,1508259969,31255006,0,,,3925.30029297,223.174804688,297.91708374,,-0.0406702756882,0.495546370745,0.0993785709143,-0.861918449402
1508259969044986208,,177,,1508259969,44519901,0,,,3904.29248047,230.2109375,291.321868896,,-0.0582948029041,0.467174589634,0.0938019454479,-0.877240478992
1508259969064619698,,178,,1508259969,64130067,0,,,3889.46044922,222.062255859,292.809539795,,-0.018975764513,0.484662234783,0.100794829428,-0.868667304516
1508259969084455479,,179,,1508259969,84055900,0,,,3876.41699219,221.255859375,297.486114502,,-0.0119988620281,0.492414772511,0.107789449394,-0.863576948643
1508259969104435166,,180,,1508259969,103905916,0,,,3863.50439453,224.440917969,300.883087158,,-0.0197942554951,0.490919709206,0.117720447481,-0.862987816334
1508259969124235739,,181,,1508259969,123713970,0,,,3843.12939453,227.634765625,303.107513428,,-0.0191331207752,0.48531344533,0.122145622969,-0.86555492878
1508259969143646364,,182,,1508259969,143305063,0,,,3867.35791016,202.093505859,300.100311279,,-0.0071739256382,0.469694882631,0.0929735153913,-0.877890229225
1508259969163678500,,183,,1508259969,163161993,0,,,3854.41162109,214.022216797,308.375396729,,-0.0506441891193,0.493834078312,0.0956207960844,-0.862797617912
1508259969184489073,,184,,1508259969,184061050,0,,,3845.15673828,216.658691406,337.65914917,,-0.0399125516415,0.568016648293,0.0843363851309,-0.817711174488
1508259969203251364,,185,,1508259969,202841043,0,,,3817.79394531,213.061035156,331.100616455,,-0.0134080052376,0.560630440712,0.0805544406176,-0.824029564857
1508259969222879073,,186,,1508259969,222450017,0,,,3790.11767578,207.616943359,324.611419678,,-0.00564962625504,0.536506295204,0.0903727933764,-0.839024305344
1508259969242602406,,187,,1508259969,242274999,0,,,3772.30566406,202.043945312,320.82699585,,-0.0137803256512,0.505732178688,0.109048195183,-0.855659782887
1508259969262757927,,188,,1508259969,262315988,0,,,3760.91894531,200.208251953,326.06149292,,-0.0332127511501,0.487317949533,0.1283736974,-0.863098084927
1508259969282219646,,189,,1508259969,281833887,0,,,3724.51513672,208.144287109,323.19241333,,-0.0246641635895,0.509301900864,0.12106923759,-0.851672291756
1508259969302238448,,190,,1508259969,301731109,0,,,3695.89648438,208.821777344,327.900970459,,-0.0207259953022,0.51574164629,0.106746464968,-0.849815428257
1508259969322721521,,191,,1508259969,321891069,0,,,3696.27148438,213.589355469,366.367156982,,-0.0496106594801,0.591516971588,0.103956326842,-0.798022150993
1508259969341673812,,192,,1508259969,341223001,0,,,3666.67236328,215.529785156,371.559173584,,-0.0551544725895,0.579038023949,0.11933209002,-0.80463218689
1508259969361476833,,193,,1508259969,360974073,0,,,3638.39697266,212.209716797,372.878265381,,-0.0529835522175,0.582769632339,0.149387508631,-0.797029137611
1508259969381373291,,194,,1508259969,380831003,0,,,3616.80810547,208.649902344,365.51663208,,-0.0403723120689,0.567830622196,0.10468288511,-0.815462946892
1508259969400970635,,195,,1508259969,400564908,0,,,3594.94091797,208.290771484,368.572113037,,-0.0376616716385,0.567288458347,0.0528209283948,-0.820959985256
1508259969420811468,,196,,1508259969,420362949,0,,,3556.59082031,209.413330078,373.481719971,,-0.0417004227638,0.555389523506,0.057649962604,-0.828540980816
1508259969440909281,,197,,1508259969,440195083,0,,,3520.71533203,213.258544922,373.483306885,,-0.0376242399216,0.57220184803,0.0551107227802,-0.817393600941
1508259969461862823,,198,,1508259969,461431980,0,,,3494.06201172,210.464599609,371.99105835,,-0.0248492360115,0.570057272911,0.0568105429411,-0.819261670113
1508259969481761000,,199,,1508259969,480983972,0,,,3461.16943359,209.60546875,383.301422119,,-0.0187774896622,0.575838208199,0.0380750447512,-0.816460728645
1508259969501208448,,200,,1508259969,500773906,0,,,3426.80761719,211.748535156,397.498504639,,-0.0239313840866,0.580575704575,0.0159311369061,-0.813698530197
1508259969520042770,,201,,1508259969,519617080,0,,,3390.21582031,209.446533203,400.239349365,,-0.0282548367977,0.584789097309,0.0399153679609,-0.809709906578
1508259969541060583,,202,,1508259969,540174007,0,,,3357.23730469,214.372558594,399.407073975,,-0.0170837640762,0.591181337833,0.0209641382098,-0.806085109711
1508259969559516156,,203,,1508259969,559113025,0,,,3322.65527344,211.967529297,402.21194458,,-0.0161025524139,0.594673871994,0.0400585830212,-0.802806973457
1508259969580538343,,204,,1508259969,579845905,0,,,3281.375,217.081298828,419.136077881,,-0.0233395844698,0.598672926426,0.0425729006529,-0.799520909786
1508259969599465843,,205,,1508259969,598856925,0,,,3243.87109375,217.884521484,414.10043335,,-0.022251829505,0.605677962303,0.032706335187,-0.794725835323
1508259969620131104,,206,,1508259969,619669914,0,,,3207.33447266,218.758056641,422.557006836,,-0.0139638930559,0.621148943901,0.0190182328224,-0.783337295055
1508259969638946052,,207,,1508259969,638473033,0,,,3172.37451172,218.852539062,425.72833252,,-0.0194624811411,0.610090494156,0.0197946131229,-0.791845321655
1508259969659153500,,208,,1508259969,658812046,0,,,3131.32373047,222.593261719,430.97845459,,-0.0312913060188,0.589455962181,0.0298671498895,-0.806641340256
1508259969682743968,,209,,1508259969,682244062,0,,,3095.21728516,221.014892578,430.840698242,,-0.00994934141636,0.622750759125,0.0242922753096,-0.781979799271
1508259969701235010,,210,,1508259969,700797080,0,,,3052.40527344,219.063476562,436.035095215,,-0.0250134766102,0.613008677959,0.0257335677743,-0.789260625839
1508259969720064437,,211,,1508259969,719654083,0,,,3016.79394531,218.3515625,443.660095215,,-0.0157552659512,0.609888792038,0.0206538140774,-0.792061090469
1508259969743185375,,212,,1508259969,742381095,0,,,2981.40673828,216.512207031,446.683807373,,-0.0111839175224,0.602787017822,0.0377209112048,-0.796931624413
1508259969760297927,,213,,1508259969,759926080,0,,,2939.62744141,217.927246094,446.305175781,,-0.0137221068144,0.628561019897,0.0300857722759,-0.777056932449
1508259969778175895,,214,,1508259969,776745080,0,,,2896.4152832,217.182128906,450.421966553,,-0.00936338305473,0.629387497902,0.0319010168314,-0.776380121708
1508259969796942510,,215,,1508259969,796490907,0,,,2860.4921875,218.424804688,455.030456543,,-0.00510528683662,0.62554615736,0.0281585752964,-0.779662132263
1508259969821450114,,216,,1508259969,817245006,0,,,2819.11621094,220.912109375,461.385772705,,-0.00224435329437,0.615426003933,0.0331457331777,-0.787494182587
1508259969836583656,,217,,1508259969,836095094,0,,,2775.10058594,222.830078125,460.436798096,,-0.00908200442791,0.640857219696,0.0176015645266,-0.767404556274
1508259969856246416,,218,,1508259969,855837106,0,,,2733.22851562,219.731201172,465.526184082,,-0.00886045396328,0.639503180981,0.0107530802488,-0.768662214279
1508259969876224333,,219,,1508259969,875771999,0,,,2695.57324219,221.493896484,469.480926514,,-0.00289882719517,0.627368807793,0.0182764306664,-0.778502345085
1508259969895857145,,220,,1508259969,895417928,0,,,2652.4519043,222.841552734,474.58493042,,-0.0126982778311,0.615329861641,0.0134343877435,-0.788052856922
1508259969915822510,,221,,1508259969,915421962,0,,,2611.70092773,220.597900391,472.333648682,,-0.0102716684341,0.644518077374,0.0150152221322,-0.764372587204
1508259969936985427,,222,,1508259969,936485052,0,,,2571.20507812,222.651367188,475.328674316,,-0.00543239712715,0.643464326859,0.0253078937531,-0.765038311481
1508259969955309749,,223,,1508259969,954852104,0,,,2533.2109375,222.577880859,481.022705078,,-0.00810903310776,0.631922483444,0.0240786075592,-0.774615108967
1508259969975544177,,224,,1508259969,975156068,0,,,2486.21972656,223.265869141,488.134002686,,-0.0178772807121,0.620111346245,0.0189155563712,-0.784081935883
1508259969995038812,,225,,1508259969,994590997,0,,,2446.34570312,222.339599609,483.910461426,,-0.0179008841515,0.64037078619,0.00323598086834,-0.767850518227
1508259970014799229,,226,,1508259970,14317035,0,,,2406.95703125,224.586181641,485.126190186,,-0.0129880160093,0.63532102108,0.00892356783152,-0.772087335587
1508259970036064385,,227,,1508259970,35626888,0,,,2369.90869141,224.332275391,490.125610352,,-0.0109557509422,0.630343794823,0.00570640712976,-0.77621781826
1508259970054504437,,228,,1508259970,53960084,0,,,2329.01464844,223.443603516,493.895904541,,-0.0163535922766,0.617745876312,0.0112422630191,-0.786127328873
1508259970074057666,,229,,1508259970,73645114,0,,,2292.9765625,223.831054688,491.805267334,,-0.00953096151352,0.637626290321,0.0097273811698,-0.770225524902
1508259970094132822,,230,,1508259970,93496084,0,,,2254.46728516,222.327392578,495.497497559,,-0.00820438563824,0.637724578381,0.0106906294823,-0.770146608353
1508259970114767979,,231,,1508259970,113872051,0,,,2216.50048828,221.876708984,500.704498291,,-0.0106754004955,0.628218114376,0.0139028578997,-0.777839779854
1508259970134333135,,232,,1508259970,133399963,0,,,2176.71337891,223.384521484,505.429962158,,-0.0180664807558,0.618790864944,0.0113530158997,-0.785265922546
1508259970155088083,,233,,1508259970,154359102,0,,,2140.64550781,224.695068359,501.847839355,,-0.0157726407051,0.638290882111,0.00586714595556,-0.769611239433
1508259970173423499,,234,,1508259970,172748088,0,,,2102.00439453,225.833251953,505.201141357,,-0.00631852447987,0.641730308533,0.00221806764603,-0.766901135445
1508259970195920531,,235,,1508259970,195187091,0,,,2065.27783203,226.306152344,506.674255371,,-0.00567054748535,0.638722598553,0.0101073011756,-0.769349813461
1508259970213760687,,236,,1508259970,212816953,0,,,2028.68115234,226.584716797,511.621704102,,-0.00343027710915,0.626668274403,0.0158526226878,-0.77911734581
1508259970235879072,,237,,1508259970,232100963,0,,,1993.4173584,225.737304688,507.959625244,,-0.00060798227787,0.646647155285,0.0214926823974,-0.762486100197
1508259970254352562,,238,,1508259970,253541946,0,,,1956.49975586,224.189941406,512.604736328,,-0.00475101172924,0.648038744926,0.0142542794347,-0.761459112167
1508259970271939124,,239,,1508259970,271534919,0,,,1923.296875,223.919677734,516.866027832,,-0.00102151930332,0.642901539803,0.0172258615494,-0.765754401684
1508259970293355739,,240,,1508259970,292835950,0,,,1887.16894531,225.369384766,520.211914062,,-0.00336623191833,0.633012712002,0.0227038636804,-0.773801088333
1508259970312018499,,241,,1508259970,311065912,0,,,1851.43212891,226.986083984,518.133178711,,-0.00183844566345,0.65260797739,0.0188407674432,-0.757459163666
1508259970333139489,,242,,1508259970,332588911,0,,,1815.19946289,227.212402344,521.212219238,,-0.00471074879169,0.654762864113,0.0179469883442,-0.755606591702
1508259970351441051,,243,,1508259970,350990056,0,,,1783.13891602,226.090820312,524.437866211,,-0.00514133274555,0.644385814667,0.0107354521751,-0.764607787132
1508259970370765322,,244,,1508259970,370352983,0,,,1749.18920898,226.709472656,527.987731934,,-0.00172407925129,0.63274115324,0.0210124626756,-0.774076223373
1508259970390614176,,245,,1508259970,390239953,0,,,1714.99157715,226.683349609,525.637817383,,-0.00447146594524,0.655082643032,0.00963480770588,-0.755482554436
1508259970411953760,,246,,1508259970,411583900,0,,,1681.66345215,227.312011719,527.775878906,,-0.00581341981888,0.655841231346,0.0139417424798,-0.754747629166
1508259970431864801,,247,,1508259970,431482076,0,,,1650.94750977,228.378417969,530.331542969,,0.000250339508057,0.647537648678,0.0210069864988,-0.761743783951
1508259970449995114,,248,,1508259970,449618101,0,,,1616.24133301,226.933105469,534.696655273,,-0.00481224060059,0.633604228497,0.0175256356597,-0.773443818092
1508259970469753708,,249,,1508259970,469329118,0,,,1582.87634277,227.097167969,532.208862305,,-0.00616952776909,0.65639936924,0.0157765224576,-0.75422334671
1508259970489784906,,250,,1508259970,489341020,0,,,1552.13977051,227.049804688,534.48425293,,-0.00779527425766,0.656937837601,0.0106683894992,-0.753828942776
1508259970509477666,,251,,1508259970,508999109,0,,,1524.08837891,228.237060547,538.149169922,,-0.00485891103745,0.647581458092,0.0210900381207,-0.761688828468
1508259970529222145,,252,,1508259970,528728961,0,,,1489.5279541,228.687011719,542.530517578,,-0.00509613752365,0.635066866875,0.0104209035635,-0.772369980812
1508259970551823499,,253,,1508259970,551250934,0,,,1456.69165039,228.380615234,537.686279297,,-0.00679552555084,0.661204218864,0.0105731710792,-0.750100672245
1508259970569003395,,254,,1508259970,568603038,0,,,1426.22607422,228.763671875,539.767456055,,-0.0020993500948,0.65926527977,0.0131905004382,-0.751791834831
1508259970589064697,,255,,1508259970,588597059,0,,,1397.60388184,228.656494141,542.877929688,,-0.00124099850655,0.648519873619,0.0167380198836,-0.761012613773
1508259970608781728,,256,,1508259970,608139038,0,,,1365.02539062,228.582275391,546.493164062,,-0.00677789747715,0.637955546379,0.0185467004776,-0.769819915295
1508259970629491572,,257,,1508259970,629103899,0,,,1334.60949707,228.833496094,542.242553711,,-0.00461679697037,0.661776423454,0.014131963253,-0.749553799629
1508259970649191468,,258,,1508259970,648718118,0,,,1305.19555664,228.474609375,543.852783203,,-0.00719912350178,0.66199016571,0.0185968130827,-0.749247252941
1508259970668209853,,259,,1508259970,667711973,0,,,1276.14660645,229.092529297,548.273681641,,0.00105126202106,0.649864435196,0.0111472606659,-0.759967565536
1508259970688182666,,260,,1508259970,687608957,0,,,1244.67504883,230.037841797,550.694091797,,-0.0054144859314,0.642023980618,0.0115729570389,-0.766578137875
1508259970709915270,,261,,1508259970,709511995,0,,,1215.7019043,230.323974609,545.124755859,,-0.00325638055801,0.666048109531,0.0150380507112,-0.745750010014
1508259970728862458,,262,,1508259970,728389024,0,,,1187.33959961,229.880126953,549.002319336,,-0.0035742521286,0.660948216915,0.0210624039173,-0.750127434731
1508259970748581780,,263,,1508259970,748007059,0,,,1158.65771484,228.626953125,552.252075195,,-0.00580012798309,0.651985347271,0.0114552378654,-0.758122801781
1508259970771670270,,264,,1508259970,771228075,0,,,1127.12145996,229.009033203,554.278015137,,-0.006487429142,0.64236342907,0.0128967165947,-0.766264200211
1508259970788563239,,265,,1508259970,787954092,0,,,1099.60070801,230.959472656,548.930053711,,-0.00224015116692,0.666621208191,0.0176287665963,-0.745184719563
1508259970809280010,,266,,1508259970,808713912,0,,,1071.07983398,230.221435547,554.229248047,,-0.00354166328907,0.660120248795,0.0106799528003,-0.751075685024
1508259970826964697,,267,,1508259970,826430082,0,,,1043.44042969,230.699951172,556.030334473,,-0.00412544608116,0.652489483356,0.0124233663082,-0.757684707642
1508259970847041572,,268,,1508259970,846389055,0,,,1014.24188232,228.647460938,558.240966797,,-0.0135604888201,0.639688372612,0.00981086492538,-0.768452167511
1508259970866063187,,269,,1508259970,865680932,0,,,985.936523438,228.866699219,552.351806641,,-0.0078946352005,0.663658082485,0.0137437433004,-0.747868180275
1508259970885536624,,270,,1508259970,885149002,0,,,956.938720703,228.135742188,554.991455078,,-0.00780907273293,0.662791609764,0.00650273263454,-0.748735010624
1508259970905242874,,271,,1508259970,904810905,0,,,931.575195312,229.447509766,557.216674805,,-0.00649429857731,0.653630554676,0.0110122337937,-0.756705641747
1508259970924961572,,272,,1508259970,924510002,0,,,902.91418457,230.87890625,559.846069336,,-0.00558719038963,0.641282916069,0.0231479108334,-0.766934871674
1508259970944881520,,273,,1508259970,944474935,0,,,874.164550781,230.612060547,556.143859863,,-0.00424046814442,0.661566257477,0.0132930576801,-0.749756991863
1508259970964640218,,274,,1508259970,964211940,0,,,843.522094727,230.108398438,558.08215332,,-0.00966194272041,0.661053657532,0.0116698145866,-0.750185608864
1508259970984416572,,275,,1508259970,984049081,0,,,817.34387207,228.592041016,560.239990234,,-0.0103644430637,0.651183307171,0.00561693310738,-0.758828878403
1508259971006490895,,276,,1508259971,4702091,0,,,787.779907227,230.246826172,562.101806641,,-0.0111110806465,0.639127075672,0.0127133280039,-0.768915891647
1508259971024053343,,277,,1508259971,23636102,0,,,758.643981934,231.730957031,559.079589844,,-0.00267112255096,0.659734964371,0.0100608021021,-0.751426339149
1508259971043944593,,278,,1508259971,43477058,0,,,729.041259766,231.349121094,560.951416016,,-0.00790891051292,0.66088283062,0.0114642009139,-0.750359892845
1508259971063435478,,279,,1508259971,63097953,0,,,703.545898438,231.179931641,564.468383789,,-0.00692810118198,0.645523846149,0.0153224095702,-0.763554871082
1508259971083306259,,280,,1508259971,82865953,0,,,671.48046875,231.212402344,563.320556641,,-0.00333261489868,0.648946881294,0.0254236906767,-0.76040148735
1508259971103739124,,281,,1508259971,103300094,0,,,640.291137695,228.306640625,563.546142578,,-0.012224316597,0.655431509018,0.00587551295757,-0.755132853985
1508259971123144332,,282,,1508259971,122493028,0,,,611.345275879,228.930419922,565.640380859,,-0.00902329385281,0.655840039253,0.00931495428085,-0.754788517952
1508259971142735009,,283,,1508259971,142317056,0,,,585.184265137,229.792480469,568.167358398,,-0.0109031200409,0.645503282547,0.0215960368514,-0.763374269009
1508259971163474072,,284,,1508259971,163070917,0,,,552.657348633,232.839599609,573.349365234,,-0.00510188937187,0.634435176849,0.0148625001311,-0.772816359997
1508259971182815687,,285,,1508259971,182389020,0,,,519.998474121,233.099609375,568.291992188,,-0.00708447396755,0.656388282776,0.0120117217302,-0.754294335842
1508259971203900009,,286,,1508259971,203422069,0,,,490.840209961,231.366699219,569.451782227,,-0.00382107496262,0.656976997852,0.00469426810741,-0.753886461258
1508259971221846989,,287,,1508259971,221457958,0,,,463.846740723,231.590576172,573.523193359,,0.00119444727898,0.64578717947,0.00604341179132,-0.763492524624
1508259971241780843,,288,,1508259971,241357088,0,,,431.710083008,231.628173828,577.540771484,,-0.00145089626312,0.636202394962,0.00661192089319,-0.771492421627
1508259971261502874,,289,,1508259971,261044025,0,,,400.813720703,233.276123047,571.588012695,,0.00237183272839,0.659519255161,0.0078391879797,-0.751643061638
1508259971282552509,,290,,1508259971,282146930,0,,,371.645385742,234.966552734,574.318847656,,0.00412045419216,0.657495260239,0.0155326649547,-0.753287315369
1508259971300958707,,291,,1508259971,300582885,0,,,342.475524902,232.552001953,581.123779297,,0.00371506810188,0.637259602547,0.00832808017731,-0.770595312119
1508259971323001364,,292,,1508259971,322660923,0,,,309.242126465,233.369140625,583.125671387,,0.000849932432175,0.637145280838,0.0123539045453,-0.770644187927
1508259971345942301,,293,,1508259971,344914913,0,,,278.452941895,231.2578125,578.684814453,,-0.00560103356838,0.654030203819,0.00700312852859,-0.756415247917
1508259971362637509,,294,,1508259971,362257957,0,,,248.734436035,234.527587891,581.731689453,,0.00170859694481,0.655874729156,0.0128302946687,-0.75475871563
1508259971381496416,,295,,1508259971,381050109,0,,,219.417053223,235.556884766,588.110717773,,0.00939597189426,0.641853749752,0.00167689472437,-0.76676762104
1508259971402856572,,296,,1508259971,400701999,0,,,186.397583008,235.029541016,590.584594727,,0.00632938742638,0.631898522377,0.00483272224665,-0.775010168552
1508259971420358343,,297,,1508259971,419687032,0,,,154.916137695,234.710693359,585.735351562,,0.00922229886055,0.650082468987,0.00707655400038,-0.759774804115
1508259971440722145,,298,,1508259971,440363883,0,,,123.056030273,234.342529297,586.069763184,,0.00796589255333,0.658165574074,0.00900388509035,-0.752777218819
1508259971459316520,,299,,1508259971,458972930,0,,,93.1145019531,234.167480469,593.658813477,,0.00628657639027,0.639510214329,0.00540418922901,-0.768737792969
1508259971479215270,,300,,1508259971,478792905,0,,,61.5247802734,234.348632812,597.838623047,,0.0033114105463,0.628493905067,0.00689425319433,-0.777776956558
1508259971498864176,,301,,1508259971,498495101,0,,,29.5604858398,235.279052734,593.484985352,,0.00594763457775,0.648811459541,0.00886085629463,-0.760874390602
1508259971518837822,,302,,1508259971,518400907,0,,,-2.64215087891,235.306640625,598.618041992,,0.0103058516979,0.642217755318,0.00294413417578,-0.766447305679
1508259971538546207,,303,,1508259971,538170099,0,,,-33.5612792969,235.195800781,601.308349609,,0.0073793977499,0.63659965992,0.00298842042685,-0.771153390408
1508259971558775374,,304,,1508259971,558336019,0,,,-66.209777832,235.779541016,606.112670898,,0.00909107923508,0.620141327381,0.00228830426931,-0.784434080124
1508259971578734280,,305,,1508259971,577792882,0,,,-98.2293701172,235.094238281,603.521240234,,0.00336360931396,0.640633702278,0.00952008366585,-0.76778024435
1508259971598085895,,306,,1508259971,597661018,0,,,-131.362121582,235.516845703,608.345458984,,0.0040618032217,0.641543209553,0.000976704061031,-0.767075538635
1508259971618854697,,307,,1508259971,618452072,0,,,-161.746582031,235.531005859,614.244445801,,0.0127238929272,0.62875688076,-0.00361291319132,-0.777489542961
1508259971639004436,,308,,1508259971,638582944,0,,,-194.48034668,235.477050781,618.164306641,,0.00838050246239,0.616972565651,0.00232505053282,-0.786936581135
1508259971657958603,,309,,1508259971,657362937,0,,,-228.555419922,235.925048828,616.927124023,,0.00857849419117,0.633564591408,0.00472982227802,-0.773627758026
1508259971678218551,,310,,1508259971,677582025,0,,,-261.580322266,236.485595703,621.058837891,,0.0067727714777,0.635240614414,0.00448170304298,-0.772271513939
1508259971696904853,,311,,1508259971,696480989,0,,,-292.013305664,234.633300781,625.840209961,,0.00479993224144,0.622943758965,0.000491842627525,-0.782251656055
1508259971716649228,,312,,1508259971,716214895,0,,,-324.964355469,235.255126953,630.202880859,,0.00490766763687,0.610208809376,0.009407363832,-0.792169451714
1508259971736472197,,313,,1508259971,736068010,0,,,-360.00012207,234.959472656,629.126403809,,0.00415456295013,0.632264137268,-0.00362854450941,-0.774733185768
1508259971756150634,,314,,1508259971,755759954,0,,,-392.967895508,235.402587891,634.426391602,,0.00164833664894,0.631312549114,0.00290386378765,-0.775521218777
1508259971776256520,,315,,1508259971,775810003,0,,,-423.103393555,237.014648438,640.394775391,,0.00701129436493,0.620463967323,0.00562138855457,-0.784183502197
1508259971795734645,,316,,1508259971,795353889,0,,,-459.216186523,235.653076172,646.262329102,,0.00335517525673,0.606831431389,0.00294800102711,-0.794818043709
1508259971815623915,,317,,1508259971,815160989,0,,,-494.097167969,235.690673828,645.735107422,,0.00180873274803,0.628160357475,-0.00148289650679,-0.7780803442
1508259971835950113,,318,,1508259971,835366010,0,,,-527.493041992,233.320068359,650.04296875,,-0.00582233071327,0.627069652081,-0.00299654901028,-0.778935611248
1508259971855927405,,319,,1508259971,855164051,0,,,-557.673706055,235.147216797,655.452148438,,0.00128817558289,0.618429303169,0.00132179260254,-0.785838365555
1508259971875438499,,320,,1508259971,874867916,0,,,-593.031616211,235.395019531,662.686401367,,0.00359290838242,0.605202555656,-0.00462543219328,-0.796049952507
1508259971895918499,,321,,1508259971,895385026,0,,,-629.047363281,233.794433594,658.599243164,,0.00420737266541,0.628892362118,-0.00493744015694,-0.777465343475
1508259971914808499,,322,,1508259971,914382934,0,,,-662.078369141,233.751220703,664.272827148,,-0.00113549828529,0.624617397785,0.00353406369686,-0.780922055244
1508259971936135061,,323,,1508259971,935554027,0,,,-695.108764648,232.775146484,671.922241211,,-0.00129860639572,0.614219486713,0.00177880376577,-0.789132118225
1508259971955892978,,324,,1508259971,955015897,0,,,-731.12902832,232.947265625,679.071899414,,-0.0126743018627,0.602618694305,0.00713561475277,-0.797896742821
1508259971975667092,,325,,1508259971,975178956,0,,,-764.860839844,232.028076172,676.883300781,,-0.0096856802702,0.625086843967,0.00103763490915,-0.780494511127
1508259971994297978,,326,,1508259971,993855953,0,,,-798.170654297,232.616455078,681.577636719,,-0.00677536427975,0.62590444088,0.000799112021923,-0.779869914055
1508259972015654436,,327,,1508259972,14756917,0,,,-830.265014648,232.259033203,689.400390625,,0.000148355960846,0.612995624542,-0.00263154506683,-0.79008191824
1508259972036008915,,328,,1508259972,35489082,0,,,-865.795043945,230.165527344,694.844238281,,-0.00771942734718,0.605884611607,-0.00167810916901,-0.795513272285
1508259972053693342,,329,,1508259972,53127050,0,,,-898.642456055,229.066894531,694.169555664,,-0.00725685060024,0.623337268829,0.000859908759594,-0.781918942928
1508259972074300947,,330,,1508259972,73765039,0,,,-931.33581543,230.883789062,695.453125,,-0.00842274725437,0.631632566452,0.00721161067486,-0.775188565254
1508259972092660165,,331,,1508259972,92297077,0,,,-964.430664062,228.580810547,702.203613281,,-0.00454959273338,0.620061993599,-0.00588785111904,-0.784517407417
1508259972113815322,,332,,1508259972,113409042,0,,,-998.995605469,226.836425781,707.758911133,,-0.00824624300003,0.609825193882,-0.00851702690125,-0.792447209358
1508259972132422040,,333,,1508259972,132006883,0,,,-1030.86694336,227.983154297,703.444458008,,-0.0120100677013,0.637605428696,0.00115877389908,-0.770268559456
1508259972153438499,,334,,1508259972,152962923,0,,,-1063.12194824,229.415039062,705.938354492,,-0.0128061920404,0.642531454563,0.00915244966745,-0.766097545624
1508259972174000947,,335,,1508259972,173576116,0,,,-1095.28894043,226.174560547,709.945678711,,-0.016541749239,0.638572633266,-0.00355429947376,-0.769375562668
1508259972191589957,,336,,1508259972,191133022,0,,,-1128.4654541,223.041503906,711.953369141,,-0.0254569351673,0.630491495132,-0.00565381348133,-0.775757968426
1508259972211677926,,337,,1508259972,211158037,0,,,-1160.39050293,223.5546875,702.330810547,,-0.0192529410124,0.663707256317,0.00437154620886,-0.747731685638
1508259972231823967,,338,,1508259972,231122016,0,,,-1194.8338623,218.336914062,700.276367188,,-0.0243115723133,0.6797503829,-0.0186730474234,-0.732802629471
1508259972252284488,,339,,1508259972,251326084,0,,,-1223.13562012,216.60546875,700.042236328,,-0.0285120755434,0.678877770901,-0.0157660841942,-0.733528017998
1508259972272508655,,340,,1508259972,270979881,0,,,-1250.24645996,219.079833984,698.577636719,,-0.0219675600529,0.676460921764,-0.00296827405691,-0.736144840717
1508259972294317613,,341,,1508259972,292503118,0,,,-1282.75695801,214.198730469,687.038208008,,-0.0328694432974,0.707419991493,-0.00648315995932,-0.705998897552
1508259972312141311,,342,,1508259972,311150074,0,,,-1308.98474121,220.336914062,689.751953125,,-0.0235635489225,0.709059476852,0.0195155069232,-0.704484641552
1508259972330806051,,343,,1508259972,330271005,0,,,-1338.23474121,215.086181641,686.790039062,,-0.0265144109726,0.7073097229,0.0111058354378,-0.706319153309
1508259972353016467,,344,,1508259972,350130081,0,,,-1368.61071777,213.656494141,678.783569336,,-0.0277298241854,0.712990641594,0.0138505771756,-0.700488209724
1508259972370515217,,345,,1508259972,370052099,0,,,-1396.53161621,216.601806641,661.530761719,,-0.0181774199009,0.744303226471,0.0127438902855,-0.667472720146
1508259972389466676,,346,,1508259972,389106035,0,,,-1425.16760254,213.603515625,653.473999023,,-0.0290950834751,0.750956594944,0.0126478113234,-0.6595890522
1508259972409985061,,347,,1508259972,409553050,0,,,-1445.86804199,214.209228516,642.07421875,,-0.0331206321716,0.761235415936,0.019331201911,-0.647340655327
1508259972429314436,,348,,1508259972,428881883,0,,,-1474.69714355,210.357421875,637.344848633,,-0.0395509451628,0.75830489397,0.0210258811712,-0.650359511375
1508259972449223186,,349,,1508259972,448770046,0,,,-1501.5892334,209.038818359,627.582397461,,-0.038452655077,0.772873342037,0.0109174326062,-0.633300065994
1508259972470024905,,350,,1508259972,469635009,0,,,-1518.59289551,218.072021484,614.769165039,,-0.0327186584473,0.788030147552,0.0277587473392,-0.61413949728
1508259972488547196,,351,,1508259972,488126993,0,,,-1534.4552002,221.33203125,604.485717773,,-0.0214527845383,0.79904204607,0.0263888016343,-0.600312530994
1508259972508936051,,352,,1508259972,508344888,0,,,-1566.10925293,220.3359375,596.751708984,,-0.00946691632271,0.785980582237,0.0305783413351,-0.617421984673
1508259972528712665,,353,,1508259972,528115034,0,,,-1593.35998535,215.717285156,581.213500977,,-0.00866757333279,0.811514377594,0.0243683792651,-0.583759903908
1508259972550579905,,354,,1508259972,550175905,0,,,-1602.09777832,224.135009766,561.831298828,,-0.00802914053202,0.820270299911,0.0191508755088,-0.571599006653
1508259972569418030,,355,,1508259972,568881988,0,,,-1611.43908691,235.2421875,551.615844727,,0.0153436586261,0.822744369507,0.00935539603233,-0.568127512932
1508259972590801103,,356,,1508259972,588640928,0,,,-1644.17712402,225.810058594,529.89440918,,-0.0157666057348,0.835816800594,0.0298505648971,-0.547969579697
1508259972610150165,,357,,1508259972,609776973,0,,,-1657.84777832,225.834716797,505.561065674,,-0.0218600481749,0.845723152161,0.00738154351711,-0.533123016357
1508259972626993186,,358,,1508259972,626610040,0,,,-1686.4395752,228.307128906,488.033966064,,0.000396922230721,0.854691982269,0.0125468634069,-0.518983602524
1508259972646826623,,359,,1508259972,646452903,0,,,-1718.5604248,219.778076172,470.683135986,,-0.00105706602335,0.851584970951,0.00936182960868,-0.524131953716
1508259972666587926,,360,,1508259972,666205883,0,,,-1734.01867676,227.234375,458.96572876,,0.000281512737274,0.850130438805,0.0189547352493,-0.526230692863
1508259972691045269,,361,,1508259972,690582036,0,,,-1745.58996582,232.846435547,443.576507568,,-0.0133804157376,0.86393648386,0.0318784788251,-0.502412676811
1508259972706547926,,362,,1508259972,706070899,0,,,-1774.63122559,225.377685547,425.010253906,,-0.0248421728611,0.864547789097,0.0177544690669,-0.501622140408
1508259972727269748,,363,,1508259972,726713895,0,,,-1799.07556152,224.007324219,409.302947998,,-0.0178612694144,0.859111368656,0.00733172893524,-0.511424303055
1508259972746913707,,364,,1508259972,745927095,0,,,-1827.09094238,223.402099609,389.799224854,,-0.0282405987382,0.857459723949,0.00921219214797,-0.51369291544
1508259972766427300,,365,,1508259972,765460968,0,,,-1847.85681152,225.462158203,369.450256348,,-0.0277246758342,0.863702476025,0.00992812402546,-0.50314104557
1508259972787432613,,366,,1508259972,786485910,0,,,-1863.96813965,228.054931641,351.657684326,,-0.0305233374238,0.867043197155,0.0105635467917,-0.497184962034
1508259972805069332,,367,,1508259972,804712057,0,,,-1893.0123291,227.150634766,334.386108398,,-0.0222852528095,0.86085498333,0.0171267315745,-0.508073508739
1508259972826186571,,368,,1508259972,824505090,0,,,-1915.05090332,230.761962891,327.173217773,,-0.0238466858864,0.848828554153,0.0212799422443,-0.527701199055
1508259972844906623,,369,,1508259972,844352960,0,,,-1924.77038574,237.729003906,313.525512695,,-0.0248173996806,0.85325551033,0.0166639834642,-0.520635604858
1508259972864616988,,370,,1508259972,864175081,0,,,-1934.53430176,248.305419922,300.94821167,,0.000734932720661,0.849548637867,0.00119708105922,-0.527508378029
1508259972884382144,,371,,1508259972,883856058,0,,,-1954.4588623,252.946289062,289.763366699,,0.0160095691681,0.841492831707,-0.0136592574418,-0.539858222008
1508259972906497561,,372,,1508259972,906053066,0,,,-1972.0814209,252.414550781,281.357910156,,0.0108717307448,0.824359536171,-0.0246195159853,-0.565426468849
1508259972923821259,,373,,1508259972,923445940,0,,,-1991.8404541,257.692871094,266.379119873,,0.0172287970781,0.832042992115,-0.0140920653939,-0.554264426231
1508259972944597769,,374,,1508259972,943398952,0,,,-2014.20715332,260.681396484,258.39553833,,0.028578273952,0.822677612305,-0.0227373689413,-0.567333936691
1508259972963889384,,375,,1508259972,963077068,0,,,-2030.0447998,263.915527344,251.662841797,,0.0206324458122,0.808757245541,-0.0214788764715,-0.587388038635
1508259972984516050,,376,,1508259972,984097003,0,,,-2048.60693359,268.596435547,248.859710693,,0.0263105332851,0.792552769184,-0.0376627631485,-0.608070254326
1508259973004820321,,377,,1508259973,4352092,0,,,-2068.56005859,258.789306641,237.450958252,,-0.0111367553473,0.783604025841,-0.00701007992029,-0.621121168137
1508259973023281780,,378,,1508259973,22846937,0,,,-2095.05322266,266.037353516,236.173370361,,0.0321529060602,0.758083462715,-0.0480802357197,-0.649587571621
