rosbagTimestamp,header,seq,stamp,secs,nsecs,frame_id,pose,position,x,y,z,orientation,x,y,z,w
1512000122973916006,,1,,1512000122,972544908,0,,,-832.415039062,-11.5734863281,983.117431641,,-0.00148664414883,-0.999687254429,-0.0232984982431,-0.00896133482456
1512000122993377569,,2,,1512000122,992604970,0,,,-832.277587891,-11.5185546875,983.102966309,,-0.00165158510208,-0.999687969685,-0.0232668966055,-0.00894443690777
1512000123012681736,,3,,1512000123,12111902,0,,,-832.174682617,-11.4631347656,983.145202637,,-0.00160701572895,-0.99969047308,-0.0231296941638,-0.00901851058006
1512000123032397100,,4,,1512000123,31497001,0,,,-832.292480469,-11.5405273438,983.167236328,,-0.00157658755779,-0.999690890312,-0.0231165550649,-0.00902193784714
1512000123051763506,,5,,1512000123,51094055,0,,,-832.380126953,-11.5202636719,983.208129883,,-0.00157660245895,-0.999689698219,-0.023186840117,-0.00897499918938
1512000123071497413,,6,,1512000123,71001052,0,,,-832.401123047,-11.5537109375,983.241577148,,-0.00151216983795,-0.999690175056,-0.0231654644012,-0.00897750258446
1512000123093887361,,7,,1512000123,92096090,0,,,-832.366088867,-11.53515625,983.274230957,,-0.00157733261585,-0.999690711498,-0.0231707803905,-0.00889372825623
1512000123112204444,,8,,1512000123,110950946,0,,,-832.361938477,-11.517578125,983.343688965,,-0.00166386365891,-0.999690055847,-0.0231936573982,-0.00889670848846
1512000123131342361,,9,,1512000123,130541086,0,,,-832.348144531,-11.4428710938,983.396240234,,-0.00170651078224,-0.999690949917,-0.0231245197356,-0.00895215570927
1512000123161238610,,10,,1512000123,159882068,0,,,-832.259277344,-11.3161621094,983.41204834,,-0.00165747106075,-0.999693930149,-0.0230147875845,-0.00891679525375
1512000123172539235,,11,,1512000123,171114921,0,,,-832.33581543,-11.3850097656,983.277893066,,-0.00163795053959,-0.999691426754,-0.0230909511447,-0.00900593400002
1512000123191796110,,12,,1512000123,190804004,0,,,-832.326293945,-11.4445800781,983.128356934,,-0.00163061916828,-0.999689221382,-0.0232044346631,-0.00895893573761
1512000123212050329,,13,,1512000123,210551023,0,,,-832.322509766,-11.4885253906,983.069274902,,-0.00156204402447,-0.999689519405,-0.0232072286308,-0.00893938541412
1512000123232988506,,14,,1512000123,231713056,0,,,-832.316772461,-11.4743652344,983.153442383,,-0.00156846642494,-0.999689996243,-0.0231883823872,-0.00892843306065
1512000123249943819,,15,,1512000123,249342918,0,,,-832.294067383,-11.3278808594,983.251403809,,-0.00172908604145,-0.999691605568,-0.0231085270643,-0.00892399251461
1512000123269854913,,16,,1512000123,269081115,0,,,-832.275878906,-11.3142089844,983.260925293,,-0.00164173543453,-0.999691128731,-0.0231070928276,-0.00899781286716
1512000123289898038,,17,,1512000123,289112091,0,,,-832.282348633,-11.4333496094,983.266113281,,-0.00140877068043,-0.999691426754,-0.023113373667,-0.00898422300816
1512000123309475850,,18,,1512000123,308831930,0,,,-832.439208984,-11.5920410156,983.28704834,,-0.00155617296696,-0.999690532684,-0.023168720305,-0.00892595946789
1512000123339527308,,19,,1512000123,338920116,0,,,-832.46105957,-11.6159667969,983.301513672,,-0.00156247615814,-0.999690830708,-0.0231533497572,-0.00893020629883
1512000123348514340,,20,,1512000123,347996950,0,,,-832.398803711,-11.4958496094,983.352050781,,-0.00174990296364,-0.999692380428,-0.0230841673911,-0.00890475511551
1512000123368398715,,21,,1512000123,367924928,0,,,-832.375976562,-11.4360351562,983.422851562,,-0.00166144967079,-0.999693393707,-0.0230388715863,-0.00891502201557
1512000123389624287,,22,,1512000123,387727022,0,,,-832.361083984,-11.4697265625,983.336730957,,-0.00171375274658,-0.999693334103,-0.0230209566653,-0.00896573066711
1512000123408596058,,23,,1512000123,407685995,0,,,-832.408935547,-11.5971679688,983.190673828,,-0.00162193179131,-0.999691367149,-0.023099899292,-0.0089980661869
1512000123427753610,,24,,1512000123,427217006,0,,,-832.376464844,-11.6713867188,983.116638184,,-0.00145210325718,-0.99969124794,-0.0231165923178,-0.00899608433247
1512000123447663298,,25,,1512000123,447189092,0,,,-832.366333008,-11.5329589844,983.164123535,,-0.00161671638489,-0.999691843987,-0.0231128782034,-0.00891584157944
1512000123473216058,,26,,1512000123,468286991,0,,,-832.342285156,-11.3154296875,983.285095215,,-0.00183461606503,-0.999694943428,-0.0229735150933,-0.00887550413609
1512000123489555590,,27,,1512000123,487597942,0,,,-832.322875977,-11.259765625,983.428222656,,-0.00179032981396,-0.999695658684,-0.0229248814285,-0.00893360376358
1512000123513730485,,28,,1512000123,511759042,0,,,-832.406982422,-11.46484375,983.401672363,,-0.00165472924709,-0.999693095684,-0.0230214931071,-0.00900341570377
1512000123526886267,,29,,1512000123,526335954,0,,,-832.463623047,-11.5817871094,983.304382324,,-0.00160875916481,-0.999691486359,-0.0231123678386,-0.00895881652832
1512000123546650590,,30,,1512000123,546166896,0,,,-832.39074707,-11.5439453125,983.248718262,,-0.00160931050777,-0.999691188335,-0.023144043982,-0.00890900194645
1512000123566113558,,31,,1512000123,565679073,0,,,-832.244018555,-11.3916015625,983.359313965,,-0.0015944391489,-0.999693512917,-0.0230273529887,-0.00894545018673
1512000123587444027,,32,,1512000123,586580038,0,,,-832.282470703,-11.3076171875,983.422302246,,-0.00178289413452,-0.99969637394,-0.0229303725064,-0.0088462382555
1512000123611011839,,33,,1512000123,606580018,0,,,-832.438720703,-11.4655761719,983.404602051,,-0.00181220471859,-0.999697685242,-0.0228380747139,-0.00892376899719
1512000123626544131,,34,,1512000123,625799894,0,,,-832.551879883,-11.6662597656,983.288330078,,-0.00176858901978,-0.999694883823,-0.0229509994388,-0.00896260142326
1512000123645860433,,35,,1512000123,645200967,0,,,-832.469116211,-11.5595703125,983.238891602,,-0.00170169770718,-0.999694287777,-0.0229911059141,-0.00893585383892
1512000123667324027,,36,,1512000123,666157007,0,,,-832.400756836,-11.3432617188,983.209655762,,-0.00178250670433,-0.999691903591,-0.023057334125,-0.00902006030083
1512000123686999548,,37,,1512000123,685889005,0,,,-832.237548828,-11.2553710938,983.289978027,,-0.00160363316536,-0.999694406986,-0.0229980275035,-0.00891734659672
1512000123707303350,,38,,1512000123,706095933,0,,,-832.395263672,-11.4860839844,983.407592773,,-0.00168146193027,-0.999696731567,-0.0228671878576,-0.00897258520126
1512000123726295121,,39,,1512000123,725263118,0,,,-832.549560547,-11.6828613281,983.377990723,,-0.00174437463284,-0.999695360661,-0.0229387059808,-0.0089352875948
1512000123745375225,,40,,1512000123,744391918,0,,,-832.560058594,-11.6279296875,983.356628418,,-0.00185571610928,-0.999694824219,-0.0229587107897,-0.00892263650894
1512000123764717412,,41,,1512000123,764108896,0,,,-832.402954102,-11.521484375,983.304138184,,-0.00172723829746,-0.999692976475,-0.0230556279421,-0.00891104340553
1512000123786025537,,42,,1512000123,784939050,0,,,-832.26159668,-11.4243164062,983.34588623,,-0.00151987373829,-0.999695181847,-0.0229623094201,-0.00894431769848
1512000123808002464,,43,,1512000123,806229114,0,,,-832.32824707,-11.4169921875,983.325439453,,-0.00163903832436,-0.999694943428,-0.0229420103133,-0.00899907946587
1512000123827739548,,44,,1512000123,825938940,0,,,-832.468994141,-11.4565429688,983.363037109,,-0.00175429880619,-0.999696731567,-0.0228817388415,-0.00893202424049
1512000123846688662,,45,,1512000123,846106052,0,,,-832.540893555,-11.5192871094,983.342590332,,-0.00183564424515,-0.999695062637,-0.0229436084628,-0.00893554091454
1512000123863089496,,46,,1512000123,862593889,0,,,-832.450439453,-11.390625,983.331848145,,-0.00181466341019,-0.99969637394,-0.022916328162,-0.00887721776962
1512000123882899391,,47,,1512000123,882409095,0,,,-832.302246094,-11.2429199219,983.279724121,,-0.00164476037025,-0.999695122242,-0.0229742825031,-0.00889536738396
1512000123904815746,,48,,1512000123,903388023,0,,,-832.336547852,-11.2788085938,983.261535645,,-0.00161112844944,-0.999695241451,-0.0229527615011,-0.00894469022751
1512000123922965069,,49,,1512000123,922238111,0,,,-832.432983398,-11.4025878906,983.316589355,,-0.00165089964867,-0.99969625473,-0.0228814147413,-0.00899797677994
1512000123942560016,,50,,1512000123,942015886,0,,,-832.488525391,-11.521484375,983.416259766,,-0.00182734429836,-0.999699413776,-0.0227702856064,-0.00890009105206
1512000123963438819,,51,,1512000123,962538003,0,,,-832.555175781,-11.5893554688,983.457458496,,-0.00191858410835,-0.999699175358,-0.022762503475,-0.00893442332745
1512000123983306371,,52,,1512000123,982274055,0,,,-832.434326172,-11.5456542969,983.405639648,,-0.00176309049129,-0.999697089195,-0.0228805914521,-0.00890447199345
1512000124004291996,,53,,1512000124,2232074,0,,,-832.350708008,-11.4182128906,983.397094727,,-0.00167353451252,-0.999697506428,-0.0228673964739,-0.00889058411121
1512000124022678037,,54,,1512000124,21235942,0,,,-832.406982422,-11.3994140625,983.357727051,,-0.00162670016289,-0.999696135521,-0.0229101330042,-0.00895331799984
1512000124042212048,,55,,1512000124,41663885,0,,,-832.477172852,-11.46875,983.319091797,,-0.00163957476616,-0.999695777893,-0.0229326300323,-0.00893487036228
1512000124061165641,,56,,1512000124,60554981,0,,,-832.478515625,-11.462890625,983.348937988,,-0.00172978639603,-0.999696075916,-0.0228873156011,-0.0089955329895
1512000124083187673,,57,,1512000124,80782890,0,,,-832.430419922,-11.3999023438,983.383728027,,-0.00181445479393,-0.99969881773,-0.0227972082794,-0.00890026986599
1512000124112295225,,58,,1512000124,110296964,0,,,-832.400146484,-11.3493652344,983.390258789,,-0.00180250406265,-0.999698638916,-0.0228075459599,-0.00890219211578
1512000124120983923,,59,,1512000124,120270967,0,,,-832.458496094,-11.3166503906,983.374389648,,-0.00182871520519,-0.999697268009,-0.0228520706296,-0.00893545150757
1512000124140399496,,60,,1512000124,139724969,0,,,-832.443237305,-11.3225097656,983.347167969,,-0.00168983638287,-0.999698698521,-0.0227981135249,-0.00893729925156
1512000124160115329,,61,,1512000124,159586906,0,,,-832.539306641,-11.4370117188,983.303710938,,-0.00175784528255,-0.999695897102,-0.0229063071311,-0.00895856320858
1512000124180219235,,62,,1512000124,179501056,0,,,-832.517456055,-11.4719238281,983.395935059,,-0.00182962417603,-0.999697029591,-0.0228505283594,-0.00896386802197
1512000124200174704,,63,,1512000124,199362993,0,,,-832.440795898,-11.5285644531,983.47052002,,-0.00182375311852,-0.99969959259,-0.0227504000068,-0.00893577933311
1512000124219877308,,64,,1512000124,219008922,0,,,-832.400024414,-11.5317382812,983.481811523,,-0.00181432068348,-0.99969881773,-0.0227977521718,-0.00890180468559
1512000124239627725,,65,,1512000124,238970994,0,,,-832.364990234,-11.4658203125,983.45098877,,-0.00176554918289,-0.999698460102,-0.0228018574417,-0.00893943011761
1512000124259280068,,66,,1512000124,258601903,0,,,-832.408203125,-11.453125,983.315979004,,-0.00163321197033,-0.999695956707,-0.0229399576783,-0.00890366733074
1512000124280474756,,67,,1512000124,279356956,0,,,-832.504882812,-11.4753417969,983.289001465,,-0.00161460042,-0.999697446823,-0.0228549130261,-0.00895205140114
1512000124300501110,,68,,1512000124,299077033,0,,,-832.533447266,-11.4379882812,983.353942871,,-0.00184246897697,-0.99969881773,-0.0227932035923,-0.00890097022057
1512000124318941527,,69,,1512000124,318154096,0,,,-832.48046875,-11.4130859375,983.453796387,,-0.00187422335148,-0.999701142311,-0.022699765861,-0.00888274610043
1512000124338533193,,70,,1512000124,337831020,0,,,-832.4296875,-11.4270019531,983.504394531,,-0.00194643437862,-0.999701142311,-0.0226720944047,-0.00893250107765
1512000124358180693,,71,,1512000124,357690095,0,,,-832.481445312,-11.4799804688,983.452575684,,-0.00179448723793,-0.999700605869,-0.0226814821362,-0.00900064408779
1512000124379763662,,72,,1512000124,378508090,0,,,-832.619628906,-11.5336914062,983.341918945,,-0.00180177390575,-0.999698698521,-0.0227652303874,-0.00899755954742
1512000124405209287,,73,,1512000124,403314113,0,,,-832.614379883,-11.5532226562,983.336791992,,-0.00173528492451,-0.999696910381,-0.022870477289,-0.00893607735634
1512000124419144912,,74,,1512000124,418025016,0,,,-832.459838867,-11.4748535156,983.432312012,,-0.00172945857048,-0.99969959259,-0.0227948762476,-0.0088437050581
1512000124437981839,,75,,1512000124,437141895,0,,,-832.340209961,-11.3842773438,983.446594238,,-0.00187455117702,-0.999699175358,-0.0228099934757,-0.00882750749588
1512000124460204704,,76,,1512000124,459625005,0,,,-832.353149414,-11.4560546875,983.428527832,,-0.00179168581963,-0.999699771404,-0.0227807313204,-0.0088467746973
1512000124478747725,,77,,1512000124,477128028,0,,,-832.474121094,-11.5322265625,983.369873047,,-0.00188639760017,-0.999697864056,-0.0228304006159,-0.00890925526619
1512000124505449079,,78,,1512000124,503500938,0,,,-832.523071289,-11.5358886719,983.350524902,,-0.00180523097515,-0.999699950218,-0.0227672122419,-0.00885334610939
1512000124518593558,,79,,1512000124,517545938,0,,,-832.565673828,-11.4020996094,983.322143555,,-0.00197485089302,-0.999696612358,-0.0228899791837,-0.00888383388519
1512000124537149912,,80,,1512000124,536257982,0,,,-832.447998047,-11.2275390625,983.400878906,,-0.00198015570641,-0.999698579311,-0.0228081271052,-0.00886337459087
1512000124556842516,,81,,1512000124,555985927,0,,,-832.403320312,-11.2458496094,983.466064453,,-0.00186303257942,-0.999700665474,-0.0227354355156,-0.00884810090065
1512000124577281891,,82,,1512000124,576386928,0,,,-832.570800781,-11.419921875,983.475158691,,-0.00196671485901,-0.999701499939,-0.0226707905531,-0.00888223946095
1512000124607684808,,83,,1512000124,606602907,0,,,-832.735229492,-11.5808105469,983.435913086,,-0.00203734636307,-0.999700546265,-0.0226838923991,-0.00895348191261
1512000124621252777,,84,,1512000124,620098114,0,,,-832.647583008,-11.51953125,983.408081055,,-0.00205744802952,-0.999698877335,-0.0227636024356,-0.00892432034016
1512000124635609131,,85,,1512000124,634788990,0,,,-832.446655273,-11.3334960938,983.43939209,,-0.00195117294788,-0.999699175358,-0.0227612107992,-0.00893498957157
1512000124659095745,,86,,1512000124,657994031,0,,,-832.359008789,-11.2717285156,983.420227051,,-0.00163513422012,-0.999698460102,-0.0228509344161,-0.0088434368372
1512000124677170954,,87,,1512000124,676099061,0,,,-832.45690918,-11.400390625,983.404296875,,-0.00158713757992,-0.999698698521,-0.0228565558791,-0.00880344212055
1512000124697621318,,88,,1512000124,695931911,0,,,-832.622558594,-11.5732421875,983.394226074,,-0.00181841850281,-0.99969959259,-0.0227979794145,-0.00881743431091
1512000124716574443,,89,,1512000124,714020967,0,,,-832.628173828,-11.5336914062,983.452941895,,-0.00207044184208,-0.999701082706,-0.0226810313761,-0.00889115035534
1512000124734334547,,90,,1512000124,733669042,0,,,-832.511352539,-11.5141601562,983.387695312,,-0.00205379724503,-0.999699532986,-0.0227424502373,-0.00890791416168
1512000124754146214,,91,,1512000124,753447055,0,,,-832.47644043,-11.36328125,983.424438477,,-0.00195762515068,-0.999699234962,-0.0227539427578,-0.00893114507198
1512000124780005277,,92,,1512000124,775124073,0,,,-832.42590332,-11.2634277344,983.450805664,,-0.0017951130867,-0.999701082706,-0.0226968191564,-0.0089121311903
1512000124796015277,,93,,1512000124,794277906,0,,,-832.555908203,-11.3103027344,983.444763184,,-0.00175732374191,-0.999700665474,-0.0227655433118,-0.0087883323431
1512000124815030537,,94,,1512000124,813971042,0,,,-832.705322266,-11.4577636719,983.481323242,,-0.00195877254009,-0.999701976776,-0.0226651504636,-0.00884847342968
1512000124835097985,,95,,1512000124,833759069,0,,,-832.654663086,-11.490234375,983.452636719,,-0.00220017135143,-0.999701023102,-0.0226571634412,-0.00891807675362
1512000124857546579,,96,,1512000124,856509923,0,,,-832.471557617,-11.357421875,983.488037109,,-0.00224895775318,-0.999701559544,-0.02262622118,-0.00893346965313
1512000124874324443,,97,,1512000124,873370885,0,,,-832.310058594,-11.3217773438,983.406433105,,-0.00185532867908,-0.999701738358,-0.0226632133126,-0.0088996142149
1512000124897759912,,98,,1512000124,897150993,0,,,-832.437133789,-11.3994140625,983.402099609,,-0.00169941782951,-0.9996997118,-0.0227994993329,-0.00880950689316
1512000124914846214,,99,,1512000124,914052963,0,,,-832.543701172,-11.3862304688,983.486877441,,-0.00165121257305,-0.999701440334,-0.022736210376,-0.00879509747028
1512000124932965641,,100,,1512000124,932173013,0,,,-832.647827148,-11.4128417969,983.476623535,,-0.00185710191727,-0.99970138073,-0.0227232575417,-0.00879441201687
1512000124952716839,,101,,1512000124,952095031,0,,,-832.652587891,-11.3637695312,983.503967285,,-0.0022169649601,-0.999701619148,-0.0226629190147,-0.00883999466896
1512000124973918454,,102,,1512000124,972814083,0,,,-832.49987793,-11.3371582031,983.475524902,,-0.00219185650349,-0.999703347683,-0.0225495547056,-0.00893175601959
1512000124992542620,,103,,1512000124,991333961,0,,,-832.50390625,-11.384765625,983.468200684,,-0.00193969905376,-0.999704360962,-0.0225284919143,-0.00893695652485
1512000125014900224,,104,,1512000125,13530969,0,,,-832.723388672,-11.4738769531,983.397033691,,-0.0019498616457,-0.999700665474,-0.02267896384,-0.00896896421909
1512000125035244964,,105,,1512000125,32927036,0,,,-832.667236328,-11.4538574219,983.475036621,,-0.00185924768448,-0.999700546265,-0.0227031446993,-0.00893375277519
1512000125055801474,,106,,1512000125,55003881,0,,,-832.536865234,-11.3225097656,983.458984375,,-0.00194531679153,-0.999701321125,-0.0227021314204,-0.00883691012859
1512000125080205954,,107,,1512000125,79317092,0,,,-832.452758789,-11.2690429688,983.511657715,,-0.00204199552536,-0.999702274799,-0.0226551368833,-0.00882267951965
1512000125090756631,,108,,1512000125,90050935,0,,,-832.431640625,-11.392578125,983.468322754,,-0.00193475186825,-0.999702811241,-0.0226440168917,-0.00881668925285
1512000125110764183,,109,,1512000125,109755992,0,,,-832.529785156,-11.5397949219,983.422302246,,-0.00188608467579,-0.999702036381,-0.0226569660008,-0.00888605415821
1512000125130510016,,110,,1512000125,129528999,0,,,-832.640258789,-11.5419921875,983.466064453,,-0.00191941857338,-0.999702095985,-0.0226374231279,-0.00892342627048
1512000125153516474,,111,,1512000125,152865886,0,,,-832.614990234,-11.3598632812,983.543762207,,-0.0020372569561,-0.999702394009,-0.0226293504238,-0.00888201594353
1512000125169375693,,112,,1512000125,168780088,0,,,-832.473754883,-11.181640625,983.586486816,,-0.00208996236324,-0.999705195427,-0.0225279890001,-0.00880987942219
1512000125190125589,,113,,1512000125,189160108,0,,,-832.439819336,-11.1884765625,983.524475098,,-0.00195097923279,-0.999704241753,-0.0225846804678,-0.00881141424179
1512000125211303558,,114,,1512000125,209532022,0,,,-832.592651367,-11.4226074219,983.543457031,,-0.00179669260979,-0.999703884125,-0.0226221084595,-0.00879248976707
1512000125230123922,,115,,1512000125,229252099,0,,,-832.771118164,-11.6030273438,983.45690918,,-0.00202214717865,-0.99970382452,-0.0225597247481,-0.0089049488306
1512000125248454131,,116,,1512000125,247965097,0,,,-832.638549805,-11.4697265625,983.462036133,,-0.00210970640182,-0.99970293045,-0.022581346333,-0.00892955064774
1512000125268111162,,117,,1512000125,267695903,0,,,-832.459106445,-11.2644042969,983.45111084,,-0.0021134018898,-0.999703347683,-0.022559069097,-0.00894357264042
1512000125289757203,,118,,1512000125,288292884,0,,,-832.403564453,-11.2421875,983.531799316,,-0.00203442573547,-0.999704241753,-0.0225795991719,-0.00880225002766
1512000125310043558,,119,,1512000125,308542966,0,,,-832.563110352,-11.4970703125,983.544677734,,-0.00189185142517,-0.999704480171,-0.0225867442787,-0.00878797471523
1512000125328350172,,120,,1512000125,327600955,0,,,-832.746337891,-11.6164550781,983.518127441,,-0.00202219188213,-0.999702572823,-0.0226737111807,-0.00875364243984
1512000125347627203,,121,,1512000125,347018957,0,,,-832.746826172,-11.5771484375,983.571472168,,-0.00200222432613,-0.999705731869,-0.0225373469293,-0.00874674320221
1512000125367220693,,122,,1512000125,366722106,0,,,-832.572509766,-11.3874511719,983.583557129,,-0.00222882628441,-0.999704957008,-0.0224863812327,-0.00891196727753
1512000125388638558,,123,,1512000125,387645006,0,,,-832.334228516,-11.294921875,983.550476074,,-0.00208242237568,-0.999706089497,-0.0224553197622,-0.00890630483627
1512000125408863870,,124,,1512000125,407454967,0,,,-832.460693359,-11.4045410156,983.510498047,,-0.00192046165466,-0.999705374241,-0.0224959589541,-0.00890612602234
1512000125428307933,,125,,1512000125,427119970,0,,,-832.700561523,-11.5654296875,983.467773438,,-0.00186355412006,-0.999704062939,-0.0225834697485,-0.00884889066219
1512000125446863089,,126,,1512000125,446135044,0,,,-832.840332031,-11.4916992188,983.473327637,,-0.00212959945202,-0.999704122543,-0.0225755833089,-0.00880086421967
1512000125466370172,,127,,1512000125,465783119,0,,,-832.610473633,-11.3210449219,983.491699219,,-0.0021256506443,-0.999704360962,-0.0225503109396,-0.00884667038918
1512000125488336735,,128,,1512000125,486977100,0,,,-832.419189453,-11.232421875,983.522155762,,-0.00198701024055,-0.999706804752,-0.0224735066295,-0.00879150629044
1512000125509902933,,129,,1512000125,506721019,0,,,-832.412597656,-11.2829589844,983.495727539,,-0.00186412036419,-0.999704957008,-0.0225158333778,-0.00891910493374
1512000125527483922,,130,,1512000125,526309967,0,,,-832.536621094,-11.4035644531,983.475585938,,-0.00189207494259,-0.999704778194,-0.0225311033428,-0.00888769328594
1512000125545708505,,131,,1512000125,545140027,0,,,-832.714477539,-11.5270996094,983.525939941,,-0.0019416809082,-0.999704778194,-0.0225495360792,-0.00883759558201
1512000125565166891,,132,,1512000125,564649105,0,,,-832.74597168,-11.4360351562,983.612060547,,-0.00205409526825,-0.999707102776,-0.0224579572678,-0.00878216326237
1512000125588366995,,133,,1512000125,587501049,0,,,-832.638916016,-11.2631835938,983.60925293,,-0.00213211774826,-0.999706447124,-0.0224822163582,-0.00877125561237
1512000125607348766,,134,,1512000125,606054067,0,,,-832.504394531,-11.2639160156,983.644042969,,-0.00202439725399,-0.999707937241,-0.0224193260074,-0.00879870355129
1512000125627560485,,135,,1512000125,626027107,0,,,-832.562744141,-11.4052734375,983.567993164,,-0.00193904340267,-0.999707579613,-0.0223966762424,-0.00891891121864
1512000125647204235,,136,,1512000125,644948959,0,,,-832.684570312,-11.5051269531,983.46673584,,-0.00210680067539,-0.999706149101,-0.022441688925,-0.00892859697342
1512000125665460224,,137,,1512000125,664566040,0,,,-832.662597656,-11.4309082031,983.418640137,,-0.00202356278896,-0.99970549345,-0.0224886462092,-0.00889883935452
1512000125689601474,,138,,1512000125,688735008,0,,,-832.598266602,-11.3366699219,983.464599609,,-0.00196740031242,-0.99970471859,-0.0225540027022,-0.00882288813591
1512000125705538557,,139,,1512000125,704452037,0,,,-832.532470703,-11.2526855469,983.564453125,,-0.00204153358936,-0.999706923962,-0.0224662199616,-0.00878015160561
1512000125730460276,,140,,1512000125,728693962,0,,,-832.504516602,-11.2507324219,983.562744141,,-0.00198286771774,-0.99970716238,-0.0224522612989,-0.00881057977676
1512000125744036370,,141,,1512000125,743283987,0,,,-832.551025391,-11.41015625,983.551269531,,-0.00189243257046,-0.999706804752,-0.0224691852927,-0.00882014632225
1512000125763440537,,142,,1512000125,762798070,0,,,-832.656616211,-11.5576171875,983.543945312,,-0.00195878744125,-0.999705970287,-0.0224722214043,-0.0088998824358
1512000125785368505,,143,,1512000125,783966064,0,,,-832.647460938,-11.4482421875,983.58807373,,-0.00211781263351,-0.999707818031,-0.0223975479603,-0.00883641839027
1512000125805379287,,144,,1512000125,804060935,0,,,-832.621826172,-11.2253417969,983.652954102,,-0.0021229237318,-0.999709427357,-0.0223309621215,-0.00882913172245
1512000125831457412,,145,,1512000125,830357074,0,,,-832.701171875,-11.1943359375,983.716186523,,-0.00217472016811,-0.999709784985,-0.0223299451172,-0.00877359509468
1512000125846216214,,146,,1512000125,844018936,0,,,-832.688354492,-11.251953125,983.71270752,,-0.00215764343739,-0.999711751938,-0.0222542621195,-0.00874608755112
1512000125863520380,,147,,1512000125,862572908,0,,,-832.674682617,-11.3901367188,983.544250488,,-0.00216761231422,-0.999707996845,-0.0223855935037,-0.00882989168167
1512000125884291526,,148,,1512000125,882500886,0,,,-832.573364258,-11.4392089844,983.385925293,,-0.00196765363216,-0.999705255032,-0.0225014202297,-0.00889882445335
1512000125908563141,,149,,1512000125,905803918,0,,,-832.497192383,-11.3830566406,983.332824707,,-0.00194354355335,-0.999704539776,-0.0225421600044,-0.00888161361217
1512000125924220901,,150,,1512000125,922961950,0,,,-832.524291992,-11.3706054688,983.461120605,,-0.00196351110935,-0.999706804752,-0.022455021739,-0.00884138047695
1512000125942175693,,151,,1512000125,941049098,0,,,-832.657592773,-11.3764648438,983.650268555,,-0.00209148228168,-0.99970972538,-0.0223261788487,-0.0088202804327
1512000125961008766,,152,,1512000125,960395097,0,,,-832.701171875,-11.4431152344,983.681884766,,-0.00212502479553,-0.999710202217,-0.0223137661815,-0.00877349078655
1512000125982249547,,153,,1512000125,980811119,0,,,-832.704345703,-11.4812011719,983.642822266,,-0.0021498054266,-0.999708473682,-0.022363204509,-0.00884540379047
1512000126002565328,,154,,1512000126,622987,0,,,-832.636352539,-11.3955078125,983.592712402,,-0.00212500989437,-0.999706804752,-0.0224220566452,-0.00888735055923
1512000126025936526,,155,,1512000126,21523952,0,,,-832.550537109,-11.3369140625,983.556213379,,-0.00193391740322,-0.999706745148,-0.0224432423711,-0.00888080894947
1512000126040701161,,156,,1512000126,39839029,0,,,-832.646118164,-11.3430175781,983.611083984,,-0.00198164582253,-0.999707937241,-0.0224048234522,-0.00884276628494
1512000126060199234,,157,,1512000126,59513092,0,,,-832.724609375,-11.2548828125,983.708435059,,-0.00219692289829,-0.999710798264,-0.0222852528095,-0.00876426696777
1512000126080305745,,158,,1512000126,79610109,0,,,-832.71862793,-11.2395019531,983.649108887,,-0.00227843225002,-0.999710261822,-0.0222864709795,-0.00879959762096
1512000126099780953,,159,,1512000126,99153995,0,,,-832.630249023,-11.3154296875,983.585449219,,-0.00216025114059,-0.999709486961,-0.0223096869886,-0.00886672735214
1512000126122821422,,160,,1512000126,119677066,0,,,-832.545654297,-11.384765625,983.433532715,,-0.00198318064213,-0.999707460403,-0.0223924666643,-0.00891967117786
1512000126139103870,,161,,1512000126,138505935,0,,,-832.557373047,-11.42578125,983.365722656,,-0.00196953117847,-0.999706625938,-0.0224476307631,-0.00887867808342
1512000126158850276,,162,,1512000126,158353090,0,,,-832.580932617,-11.3940429688,983.483215332,,-0.00198549032211,-0.999706506729,-0.0224782675505,-0.00881339609623
1512000126178989234,,163,,1512000126,178376913,0,,,-832.649658203,-11.3852539062,983.69128418,,-0.00209529697895,-0.999708414078,-0.022390846163,-0.00879091024399
1512000126201047047,,164,,1512000126,200362920,0,,,-832.724853516,-11.3366699219,983.8203125,,-0.00225968658924,-0.999711513519,-0.0222542099655,-0.00873765349388
1512000126221686318,,165,,1512000126,219680070,0,,,-832.68347168,-11.2634277344,983.738830566,,-0.00220935046673,-0.999710321426,-0.0222902037203,-0.00880366563797
1512000126238569859,,166,,1512000126,237777948,0,,,-832.636962891,-11.3527832031,983.588867188,,-0.0021139383316,-0.999709606171,-0.0223072469234,-0.00885739922523
1512000126257997203,,167,,1512000126,257406949,0,,,-832.675048828,-11.4609375,983.481750488,,-0.00204481184483,-0.999708414078,-0.0223595015705,-0.00888900458813
1512000126278404078,,168,,1512000126,277641057,0,,,-832.731079102,-11.4267578125,983.554016113,,-0.0022145062685,-0.999709963799,-0.0223071426153,-0.00880961120129
1512000126297864963,,169,,1512000126,297154903,0,,,-832.777099609,-11.2729492188,983.675231934,,-0.00231900811195,-0.999711453915,-0.0222172550857,-0.00882895290852
1512000126320846161,,170,,1512000126,318897008,0,,,-832.712280273,-11.1796875,983.727294922,,-0.00224767625332,-0.999712467194,-0.0221903137863,-0.00879439711571
1512000126337919495,,171,,1512000126,337132930,0,,,-832.623901367,-11.2431640625,983.650634766,,-0.0021513402462,-0.999712347984,-0.0222110636532,-0.00879004597664
1512000126356984026,,172,,1512000126,356394052,0,,,-832.60144043,-11.4494628906,983.415466309,,-0.00195764005184,-0.999707400799,-0.0224214047194,-0.00886191427708
1512000126376733036,,173,,1512000126,376214027,0,,,-832.579101562,-11.544921875,983.38269043,,-0.00183409452438,-0.999706625938,-0.0224727392197,-0.00884263217449
1512000126406635953,,174,,1512000126,397378921,0,,,-832.605712891,-11.5002441406,983.517456055,,-0.00197033584118,-0.999707996845,-0.0224097296596,-0.0088222771883
1512000126422498036,,175,,1512000126,420478105,0,,,-832.602172852,-11.3444824219,983.74041748,,-0.00213250517845,-0.999711453915,-0.0222450681031,-0.00881387293339
1512000126438279390,,176,,1512000126,436837911,0,,,-832.716552734,-11.2548828125,983.838439941,,-0.00230641663074,-0.999713420868,-0.0221437588334,-0.0088002383709
1512000126459605901,,177,,1512000126,457108020,0,,,-832.776977539,-11.3107910156,983.755187988,,-0.00230728089809,-0.999713361263,-0.0221445821226,-0.00880782306194
1512000126476099599,,178,,1512000126,475461006,0,,,-832.742919922,-11.3911132812,983.59942627,,-0.00212189555168,-0.999711811543,-0.0222110599279,-0.00885666906834
1512000126495932568,,179,,1512000126,495292901,0,,,-832.754150391,-11.3918457031,983.485534668,,-0.00220401585102,-0.999709963799,-0.022297911346,-0.00881394743919
1512000126516183088,,180,,1512000126,515372991,0,,,-832.634155273,-11.2453613281,983.522644043,,-0.002161860466,-0.999710261822,-0.0222796015441,-0.00884930789471
1512000126535838661,,181,,1512000126,535067081,0,,,-832.604736328,-11.185546875,983.636901855,,-0.00223775207996,-0.999711751938,-0.022207710892,-0.0088522285223
1512000126555446890,,182,,1512000126,554621934,0,,,-832.65222168,-11.1389160156,983.78112793,,-0.00230042636395,-0.999714374542,-0.0221076570451,-0.00878529250622
1512000126577813870,,183,,1512000126,575978994,0,,,-832.719604492,-11.2995605469,983.69140625,,-0.0021433532238,-0.999712586403,-0.0222030244768,-0.00879487395287
1512000126597467776,,184,,1512000126,596149921,0,,,-832.755981445,-11.4489746094,983.541442871,,-0.00202567875385,-0.999709308147,-0.0223715566099,-0.00876450538635
1512000126628148818,,185,,1512000126,623280048,0,,,-832.646728516,-11.4916992188,983.48840332,,-0.00199753046036,-0.999708652496,-0.0223810710013,-0.00881588459015
1512000126638664755,,186,,1512000126,637959003,0,,,-832.586669922,-11.4228515625,983.60168457,,-0.00211021304131,-0.999710381031,-0.0223086029291,-0.00877238810062
1512000126654333297,,187,,1512000126,653544902,0,,,-832.582397461,-11.2971191406,983.701538086,,-0.00215841829777,-0.999712646008,-0.0221895352006,-0.00881205499172
1512000126673756734,,188,,1512000126,673142910,0,,,-832.675048828,-11.2280273438,983.814941406,,-0.00220115482807,-0.999714434147,-0.022106051445,-0.00879864394665
1512000126697331265,,189,,1512000126,695501089,0,,,-832.780761719,-11.2783203125,983.790588379,,-0.00216870009899,-0.999716699123,-0.0220427028835,-0.00870940089226
1512000126720559234,,190,,1512000126,716315984,0,,,-832.910888672,-11.341796875,983.645385742,,-0.00232414901257,-0.999713301659,-0.0221478492022,-0.00879444181919
1512000126733628349,,191,,1512000126,733021020,0,,,-832.758422852,-11.2731933594,983.514038086,,-0.00229589641094,-0.99971139431,-0.0222183391452,-0.00884252786636
1512000126752622984,,192,,1512000126,752121925,0,,,-832.568847656,-11.1511230469,983.535766602,,-0.0023051649332,-0.999710798264,-0.0222587920725,-0.00881066918373
1512000126772593192,,193,,1512000126,772131919,0,,,-832.579345703,-11.1784667969,983.66583252,,-0.00223952531815,-0.999713242054,-0.0221467204392,-0.00882764160633
1512000126792430328,,194,,1512000126,791964054,0,,,-832.807983398,-11.341796875,983.750793457,,-0.00224266946316,-0.999715328217,-0.0220914892852,-0.00874274969101
1512000126822851005,,195,,1512000126,816310882,0,,,-832.885742188,-11.4001464844,983.74041748,,-0.00219558179379,-0.999714195728,-0.0221376866102,-0.00875164568424
1512000126837698765,,196,,1512000126,836819887,0,,,-832.791625977,-11.3903808594,983.735412598,,-0.00229938328266,-0.999714195728,-0.0221399068832,-0.00872682034969
1512000126852931526,,197,,1512000126,851824045,0,,,-832.59765625,-11.4167480469,983.58782959,,-0.00214228034019,-0.999711096287,-0.0222512893379,-0.00884748995304
1512000126872461265,,198,,1512000126,871922969,0,,,-832.463256836,-11.4228515625,983.553527832,,-0.00202177464962,-0.99971228838,-0.0222094766796,-0.00883220136166
1512000126891229078,,199,,1512000126,890691995,0,,,-832.572387695,-11.4411621094,983.586486816,,-0.00197413563728,-0.999712049961,-0.0222416818142,-0.00879287719727
1512000126912720536,,200,,1512000126,910936117,0,,,-832.763305664,-11.4074707031,983.723693848,,-0.002092897892,-0.999714136124,-0.0221368893981,-0.00878331065178
1512000126933890953,,201,,1512000126,932466030,0,,,-832.897460938,-11.2392578125,983.78302002,,-0.00238588452339,-0.999714136124,-0.0221100598574,-0.00877675414085
1512000126951072203,,202,,1512000126,950222015,0,,,-832.791015625,-11.1643066406,983.714172363,,-0.00237944722176,-0.999714255333,-0.0221002548933,-0.00879803299904
1512000126970894651,,203,,1512000126,970288991,0,,,-832.622314453,-11.1770019531,983.636291504,,-0.00222782790661,-0.999714016914,-0.0220983922482,-0.00886744260788
1512000126990268036,,204,,1512000126,989691972,0,,,-832.604248047,-11.2416992188,983.543701172,,-0.0021984577179,-0.999715745449,-0.0220878496766,-0.00870801508427
1512000127014984599,,205,,1512000127,10231018,0,,,-832.697265625,-11.3737792969,983.570007324,,-0.00211021304131,-0.999712765217,-0.022183559835,-0.00882411003113
1512000127035459130,,206,,1512000127,32331943,0,,,-832.82421875,-11.3771972656,983.713745117,,-0.00228524208069,-0.999713540077,-0.0221339836717,-0.00882372260094
1512000127049872567,,207,,1512000127,49089908,0,,,-832.818725586,-11.2829589844,983.866882324,,-0.00233532488346,-0.99971562624,-0.0220453329384,-0.00878620147705
1512000127069490797,,208,,1512000127,68810939,0,,,-832.750366211,-11.3249511719,983.780761719,,-0.00220543146133,-0.999715983868,-0.0220315009356,-0.00880046188831
1512000127090482619,,209,,1512000127,89435100,0,,,-832.573730469,-11.3601074219,983.591247559,,-0.00217093527317,-0.999713182449,-0.0221885740757,-0.00874865055084
1512000127110200849,,210,,1512000127,109076976,0,,,-832.480712891,-11.3439941406,983.450927734,,-0.00199994444847,-0.999712467194,-0.0222200118005,-0.00877815485001
1512000127132636161,,211,,1512000127,130518913,0,,,-832.616455078,-11.3920898438,983.511535645,,-0.00202351808548,-0.999712109566,-0.0222359336913,-0.00878536701202
1512000127153165171,,212,,1512000127,151993036,0,,,-832.865356445,-11.365234375,983.730834961,,-0.0021997243166,-0.999714612961,-0.0220973864198,-0.00881098210812
1512000127168225171,,213,,1512000127,167764902,0,,,-832.883056641,-11.201171875,983.833557129,,-0.00247690081596,-0.999716520309,-0.0219725370407,-0.00882165133953
1512000127187835015,,214,,1512000127,187402963,0,,,-832.784179688,-11.03515625,983.874328613,,-0.00251632928848,-0.999718427658,-0.0219168514013,-0.00873586535454
1512000127208147307,,215,,1512000127,207566976,0,,,-832.684326172,-11.1044921875,983.721862793,,-0.00231885910034,-0.999716818333,-0.0219806320965,-0.0088142156601
1512000127229321369,,216,,1512000127,227902889,0,,,-832.691162109,-11.3269042969,983.544189453,,-0.00205497443676,-0.999714434147,-0.0221121311188,-0.00882805883884
1512000127247869078,,217,,1512000127,247124910,0,,,-832.833129883,-11.4599609375,983.569213867,,-0.00217859447002,-0.999712467194,-0.0221915505826,-0.00881065428257
1512000127267673713,,218,,1512000127,267026901,0,,,-832.854370117,-11.3830566406,983.75378418,,-0.00224705040455,-0.999716758728,-0.0220114514232,-0.00877642631531
1512000127287261578,,219,,1512000127,286609888,0,,,-832.853271484,-11.2055664062,983.894104004,,-0.00248743593693,-0.999716758728,-0.0219666585326,-0.00880789756775
1512000127308214546,,220,,1512000127,307136058,0,,,-832.635742188,-11.1364746094,983.836853027,,-0.00228680670261,-0.999716699123,-0.0220045261085,-0.00878544151783
1512000127330386526,,221,,1512000127,329391002,0,,,-832.526733398,-11.2600097656,983.666625977,,-0.00205194950104,-0.99971550703,-0.0220897905529,-0.00876031816006
1512000127349671421,,222,,1512000127,347172021,0,,,-832.662353516,-11.4985351562,983.470336914,,-0.00201563537121,-0.999713420868,-0.0221701785922,-0.00879693031311
1512000127366724703,,223,,1512000127,366031885,0,,,-832.757446289,-11.4975585938,983.468200684,,-0.00213153660297,-0.999712109566,-0.0221979878843,-0.00885532796383
1512000127387383713,,224,,1512000127,386646986,0,,,-832.821044922,-11.2873535156,983.654846191,,-0.00226567685604,-0.999714493752,-0.0221041925251,-0.0087857991457
1512000127412774703,,225,,1512000127,406640052,0,,,-832.80078125,-11.0993652344,983.935119629,,-0.00247260928154,-0.999718904495,-0.0218884833157,-0.00877094268799
1512000127433884911,,226,,1512000127,432411909,0,,,-832.737182617,-11.0642089844,983.931884766,,-0.00245647132397,-0.999719381332,-0.021869327873,-0.00876344740391
1512000127447639234,,227,,1512000127,446285009,0,,,-832.736206055,-11.220703125,983.800048828,,-0.00230653584003,-0.999718248844,-0.0219213068485,-0.00880494713783
1512000127466669651,,228,,1512000127,465471982,0,,,-832.739746094,-11.3703613281,983.603027344,,-0.00206072628498,-0.999716103077,-0.022020291537,-0.00886172056198
1512000127485587567,,229,,1512000127,484764099,0,,,-832.868164062,-11.3811035156,983.56652832,,-0.00224237143993,-0.999714851379,-0.0221086293459,-0.00873954594135
1512000127506822776,,230,,1512000127,505440950,0,,,-832.84753418,-11.2233886719,983.687133789,,-0.00239659845829,-0.999716341496,-0.022019457072,-0.00875070691109
1512000127527248765,,231,,1512000127,525938987,0,,,-832.624755859,-11.1687011719,983.816955566,,-0.00215263664722,-0.999715805054,-0.0220811367035,-0.00872901082039
1512000127550791109,,232,,1512000127,550117969,0,,,-832.588256836,-11.1784667969,983.881530762,,-0.00225530564785,-0.999718248844,-0.0219553858042,-0.00872853398323
1512000127566035275,,233,,1512000127,564814090,0,,,-832.559814453,-11.384765625,983.682495117,,-0.00201708078384,-0.999718308449,-0.0219548791647,-0.00878508388996
1512000127593128765,,234,,1512000127,592499017,0,,,-832.674194336,-11.5227050781,983.538085938,,-0.00201837718487,-0.99971550703,-0.0220861621201,-0.00877453386784
1512000127603830380,,235,,1512000127,603226900,0,,,-832.952636719,-11.4462890625,983.53302002,,-0.00241659581661,-0.999714195728,-0.0220748484135,-0.00885531306267
1512000127627800119,,236,,1512000127,623650074,0,,,-832.894287109,-11.1843261719,983.692810059,,-0.0025864392519,-0.999715328217,-0.0220161825418,-0.00881913304329
1512000127645057932,,237,,1512000127,644193887,0,,,-832.805419922,-10.9807128906,983.922546387,,-0.00270107388496,-0.999719142914,-0.0218277834356,-0.00881758332253
1512000127664411994,,238,,1512000127,663496971,0,,,-832.739624023,-11.1481933594,983.923156738,,-0.00255955755711,-0.999720454216,-0.0217835567892,-0.00883086025715
1512000127683446473,,239,,1512000127,682688951,0,,,-832.744140625,-11.3371582031,983.777282715,,-0.0022714138031,-0.999719023705,-0.0218887999654,-0.00880959630013
1512000127705240588,,240,,1512000127,703438997,0,,,-832.936157227,-11.4455566406,983.568359375,,-0.0023160725832,-0.999715447426,-0.0220293961465,-0.00885479152203
1512000127726636734,,241,,1512000127,723808050,0,,,-832.845458984,-11.341796875,983.465515137,,-0.0023113489151,-0.999713599682,-0.0220983102918,-0.0088861733675
1512000127744368609,,242,,1512000127,742948055,0,,,-832.647827148,-11.115234375,983.575195312,,-0.00246651470661,-0.999714434147,-0.0220681354403,-0.00883212685585
1512000127762147359,,243,,1512000127,761679887,0,,,-832.588256836,-11.0849609375,983.740905762,,-0.00237908959389,-0.999717056751,-0.0219583585858,-0.00883071124554
1512000127781692827,,244,,1512000127,781229019,0,,,-832.78515625,-11.3403320312,983.796691895,,-0.00225646793842,-0.999718368053,-0.0219372063875,-0.00877982378006
1512000127803338921,,245,,1512000127,801600933,0,,,-832.932739258,-11.4782714844,983.747497559,,-0.002366065979,-0.999717414379,-0.021950405091,-0.00881347060204
1512000127822157880,,246,,1512000127,821160078,0,,,-832.872558594,-11.3679199219,983.67364502,,-0.00240696966648,-0.999716639519,-0.0219562128186,-0.0088766515255
1512000127844084390,,247,,1512000127,842461109,0,,,-832.776000977,-11.1088867188,983.635803223,,-0.00245131552219,-0.999716579914,-0.0219657942653,-0.00884744524956
1512000127861624130,,248,,1512000127,860462903,0,,,-832.728149414,-10.9812011719,983.73223877,,-0.00251513719559,-0.999718248844,-0.021905656904,-0.00879369676113
1512000127880573036,,249,,1512000127,880112886,0,,,-832.834960938,-11.1381835938,983.809143066,,-0.00242935121059,-0.999718904495,-0.0218781866133,-0.00880220532417
1512000127901570015,,250,,1512000127,900415897,0,,,-832.954589844,-11.3505859375,983.851379395,,-0.00246024131775,-0.99971985817,-0.021829366684,-0.00880533456802
1512000127921168452,,251,,1512000127,920171976,0,,,-832.976074219,-11.3408203125,983.775817871,,-0.00255300104618,-0.999718546867,-0.0218775011599,-0.008824467659
1512000127943241421,,252,,1512000127,942033052,0,,,-832.666381836,-11.1748046875,983.61138916,,-0.00252003967762,-0.999717712402,-0.0219210609794,-0.00881093740463
1512000127960248557,,253,,1512000127,959588050,0,,,-832.489013672,-11.1567382812,983.45489502,,-0.00219784677029,-0.999715089798,-0.0220731236041,-0.0088132917881
1512000127979734286,,254,,1512000127,979171037,0,,,-832.665649414,-11.2348632812,983.579589844,,-0.00221239030361,-0.999716639519,-0.0220124274492,-0.00878655910492
1512000128001106838,,255,,1512000128,56982,0,,,-832.855712891,-11.3388671875,983.744995117,,-0.00221320986748,-0.999720096588,-0.0218745619059,-0.00874003767967
1512000128020274182,,256,,1512000128,19141912,0,,,-832.965576172,-11.3464355469,983.839477539,,-0.00245654582977,-0.999717235565,-0.0219564773142,-0.00879764556885
1512000128051321473,,257,,1512000128,49941062,0,,,-832.840087891,-11.1306152344,983.936767578,,-0.00261098146439,-0.999720931053,-0.0217925570905,-0.00873452425003
1512000128059038192,,258,,1512000128,58434963,0,,,-832.682373047,-11.0209960938,983.744934082,,-0.0025175511837,-0.999719083309,-0.0218427293003,-0.00884883105755
1512000128078871525,,259,,1512000128,78213930,0,,,-832.687988281,-11.1088867188,983.626098633,,-0.0022656917572,-0.99971818924,-0.0219186916947,-0.00881786644459
1512000128099541994,,260,,1512000128,98547935,0,,,-832.951293945,-11.2946777344,983.604309082,,-0.00240272283554,-0.999717533588,-0.0219300054014,-0.00883939862251
1512000128119145379,,261,,1512000128,118220090,0,,,-833.054077148,-11.3273925781,983.739318848,,-0.00245347619057,-0.999718725681,-0.0218805223703,-0.00880901515484
1512000128142236577,,262,,1512000128,138819932,0,,,-832.972290039,-11.15234375,983.842651367,,-0.00265748798847,-0.999720692635,-0.0217796079814,-0.00877705216408
1512000128158252932,,263,,1512000128,157612085,0,,,-832.652832031,-10.9743652344,983.858764648,,-0.00250354409218,-0.999720275402,-0.0218196772039,-0.00877396762371
1512000128177625015,,264,,1512000128,177113056,0,,,-832.526245117,-11.0256347656,983.723327637,,-0.00233262777328,-0.999720692635,-0.0218217484653,-0.0087696313858
1512000128199140015,,265,,1512000128,197890043,0,,,-832.64831543,-11.310546875,983.560913086,,-0.00215789675713,-0.999718666077,-0.0219277441502,-0.00878915190697
1512000128218559859,,266,,1512000128,217534065,0,,,-832.954467773,-11.4978027344,983.622802734,,-0.00226040184498,-0.999716103077,-0.0220053605735,-0.00884488224983
1512000128245326421,,267,,1512000128,242697954,0,,,-832.985473633,-11.3132324219,983.756713867,,-0.0025869011879,-0.999717414379,-0.0219373852015,-0.00878411531448
1512000128256959806,,268,,1512000128,256325006,0,,,-832.802856445,-11.0227050781,983.945068359,,-0.00264379382133,-0.999720096588,-0.0218269452453,-0.00873586535454
1512000128276833556,,269,,1512000128,276288986,0,,,-832.651000977,-10.9731445312,983.923034668,,-0.00244545936584,-0.999722480774,-0.0217416621745,-0.00873346626759
1512000128296296942,,270,,1512000128,295838117,0,,,-832.73449707,-11.0832519531,983.781616211,,-0.00239892303944,-0.999723434448,-0.0216908305883,-0.00875926017761
1512000128316031369,,271,,1512000128,315526962,0,,,-832.93359375,-11.3022460938,983.63885498,,-0.002357006073,-0.99972063303,-0.021761726588,-0.00891250371933
1512000128337020327,,272,,1512000128,335484981,0,,,-833.041259766,-11.3442382812,983.610229492,,-0.00255897641182,-0.999719142914,-0.0218409523368,-0.00883468985558
1512000128355769546,,273,,1512000128,355294942,0,,,-832.927246094,-11.173828125,983.700683594,,-0.00271679461002,-0.999719321728,-0.0218262150884,-0.00880591571331
1512000128375505379,,274,,1512000128,374948978,0,,,-832.673095703,-11.0192871094,983.831237793,,-0.00246338546276,-0.999720394611,-0.0218266956508,-0.00876003503799
1512000128395180796,,275,,1512000128,394675970,0,,,-832.605102539,-11.0524902344,983.897277832,,-0.00230371952057,-0.999720871449,-0.0218370854855,-0.00871661305428
1512000128415197098,,276,,1512000128,414613962,0,,,-832.776489258,-11.3078613281,983.786560059,,-0.0022084414959,-0.999721646309,-0.0217803195119,-0.00878967344761
1512000128436646056,,277,,1512000128,434844017,0,,,-832.917480469,-11.4799804688,983.675415039,,-0.00233028829098,-0.999719321728,-0.021869674325,-0.00880274176598
1512000128455302827,,278,,1512000128,454413890,0,,,-832.930908203,-11.4614257812,983.640991211,,-0.00251503288746,-0.99971818924,-0.0218942239881,-0.00882424414158
1512000128474982775,,279,,1512000128,474308013,0,,,-832.842529297,-11.2707519531,983.829101562,,-0.0026330947876,-0.999720811844,-0.0217678658664,-0.00880788266659
1512000128498537983,,280,,1512000128,495203018,0,,,-832.742675781,-11.0764160156,983.881958008,,-0.00259007513523,-0.999722480774,-0.0217129252851,-0.00876277685165
1512000128517009702,,281,,1512000128,514434099,0,,,-832.729492188,-11.0461425781,983.873535156,,-0.0024573802948,-0.99972319603,-0.0216896124184,-0.00877356529236
1512000128538962567,,282,,1512000128,537096977,0,,,-832.83581543,-11.1391601562,983.830322266,,-0.00235150754452,-0.999724566936,-0.0216777212918,-0.00868517160416
1512000128557378452,,283,,1512000128,556442975,0,,,-833.04309082,-11.1953125,983.710144043,,-0.00263804197311,-0.999721348286,-0.0217665433884,-0.00874572992325
1512000128574354911,,284,,1512000128,573616027,0,,,-832.849121094,-11.0854492188,983.664123535,,-0.00263531506062,-0.999719440937,-0.0218299552798,-0.00879834592342
1512000128593690796,,285,,1512000128,593060970,0,,,-832.678466797,-11.068359375,983.739135742,,-0.00253029167652,-0.999720573425,-0.0217987932265,-0.00878454744816
1512000128613200588,,286,,1512000128,612591028,0,,,-832.693969727,-11.1342773438,983.818969727,,-0.00239902734756,-0.999722361565,-0.021747790277,-0.00875037908554
1512000128635102202,,287,,1512000128,632713079,0,,,-832.845825195,-11.2438964844,983.86730957,,-0.00231938064098,-0.999722480774,-0.0217488706112,-0.00875057280064
1512000128653299910,,288,,1512000128,652648925,0,,,-832.95324707,-11.3200683594,983.837036133,,-0.00229376554489,-0.999722719193,-0.0217428505421,-0.00875243544579
1512000128672678296,,289,,1512000128,672178983,0,,,-832.941772461,-11.2854003906,983.80279541,,-0.00244930386543,-0.999722480774,-0.0217163749039,-0.00879929959774
1512000128692035223,,290,,1512000128,691579103,0,,,-832.796020508,-11.22265625,983.718261719,,-0.00243951380253,-0.999721288681,-0.021763484925,-0.00882202386856
1512000128715245900,,291,,1512000128,712378978,0,,,-832.651977539,-11.1474609375,983.73236084,,-0.0024266242981,-0.999722361565,-0.0217320881784,-0.0087758153677
1512000128750836838,,292,,1512000128,749593973,0,,,-832.808959961,-11.2548828125,983.747375488,,-0.00234182178974,-0.999722063541,-0.0217432379723,-0.00880378484726
1512000128753203921,,293,,1512000128,752123117,0,,,-832.877075195,-11.2607421875,983.827270508,,-0.0023073554039,-0.999723374844,-0.0217503607273,-0.00864951312542
1512000128772242983,,294,,1512000128,771560907,0,,,-832.922241211,-11.0895996094,983.860229492,,-0.00250473618507,-0.999722599983,-0.0217166654766,-0.00875975191593
1512000128791016108,,295,,1512000128,790407896,0,,,-832.789428711,-10.9265136719,983.877258301,,-0.00256478786469,-0.999721944332,-0.0217471122742,-0.00874544680119
1512000128813721004,,296,,1512000128,810798883,0,,,-832.67199707,-10.919921875,983.855529785,,-0.00240260362625,-0.999726176262,-0.0215646550059,-0.00876347720623
1512000128840112723,,297,,1512000128,830941915,0,,,-832.847900391,-11.1809082031,983.774475098,,-0.0025449693203,-0.999723494053,-0.0216626003385,-0.00877884030342
1512000128852561108,,298,,1512000128,850322008,0,,,-832.949584961,-11.3635253906,983.759155273,,-0.00251825153828,-0.999721646309,-0.021713513881,-0.00887034833431
1512000128870710535,,299,,1512000128,869961023,0,,,-832.962280273,-11.3732910156,983.877319336,,-0.00259937345982,-0.999722003937,-0.0217052772641,-0.00883677601814
1512000128890365900,,300,,1512000128,889607906,0,,,-832.836669922,-11.1706542969,983.954406738,,-0.00262016057968,-0.999722957611,-0.0216799043119,-0.00878006219864
1512000128909992202,,301,,1512000128,909370899,0,,,-832.631591797,-10.9731445312,983.909179688,,-0.00245712697506,-0.999723315239,-0.0216878987849,-0.00877290964127
1512000128929840848,,302,,1512000128,929164886,0,,,-832.665649414,-10.9887695312,983.79498291,,-0.00228078663349,-0.999723315239,-0.0217424556613,-0.00867289304733
1512000128953103556,,303,,1512000128,950455904,0,,,-832.872680664,-11.2202148438,983.653076172,,-0.00223329663277,-0.999720811844,-0.0218403041363,-0.00874447822571
1512000128969755483,,304,,1512000128,968812942,0,,,-832.977661133,-11.3232421875,983.704162598,,-0.00247706472874,-0.99972230196,-0.0217203907669,-0.00879912078381
1512000128989270848,,305,,1512000128,988615036,0,,,-832.920166016,-11.1804199219,983.838317871,,-0.00271180272102,-0.999723494053,-0.0216604247689,-0.00874276459217
1512000129010291212,,306,,1512000129,9017944,0,,,-832.817504883,-10.9860839844,983.96472168,,-0.00268706679344,-0.999726712704,-0.0214934498072,-0.00879214704037
1512000129033421212,,307,,1512000129,29253005,0,,,-832.762207031,-10.9416503906,983.989929199,,-0.00254152715206,-0.999727964401,-0.0214771255851,-0.00874157249928
1512000129053668973,,308,,1512000129,52714109,0,,,-832.933227539,-11.1750488281,983.859741211,,-0.00244252383709,-0.999723613262,-0.0216557495296,-0.00881446897984
1512000129068208660,,309,,1512000129,67779064,0,,,-832.999389648,-11.4375,983.768920898,,-0.00234021246433,-0.999722123146,-0.0217315368354,-0.00883333384991
1512000129087750483,,310,,1512000129,87274074,0,,,-832.936645508,-11.4267578125,983.795593262,,-0.00248400866985,-0.999721109867,-0.0217607319355,-0.00883054733276
1512000129108120535,,311,,1512000129,107458114,0,,,-832.731201172,-11.2023925781,983.967102051,,-0.00253653526306,-0.999724209309,-0.0216248817742,-0.00879766047001
1512000129127825067,,312,,1512000129,127165079,0,,,-832.603515625,-11.0895996094,983.938293457,,-0.00247775018215,-0.999724388123,-0.021627664566,-0.00879018008709
1512000129149410639,,313,,1512000129,147675037,0,,,-832.696533203,-11.1481933594,983.859680176,,-0.0022314041853,-0.999723792076,-0.0216822586954,-0.00878636538982
1512000129170724181,,314,,1512000129,170214891,0,,,-832.91418457,-11.2023925781,983.795959473,,-0.00231917202473,-0.999722957611,-0.0217090882361,-0.00879372656345
1512000129187350327,,315,,1512000129,186867952,0,,,-832.9140625,-11.1669921875,983.701721191,,-0.00239755213261,-0.999724566936,-0.0216543972492,-0.00873255729675
1512000129207403348,,316,,1512000129,206794977,0,,,-832.823364258,-11.134765625,983.714660645,,-0.00256343185902,-0.999722480774,-0.0216940902174,-0.00881314277649
1512000129227395639,,317,,1512000129,226696014,0,,,-832.750610352,-11.0949707031,983.80645752,,-0.00258156657219,-0.999723553658,-0.0216429382563,-0.00881829857826
1512000129247880848,,318,,1512000129,247070074,0,,,-832.797973633,-11.0417480469,983.950195312,,-0.00261168181896,-0.99972563982,-0.0215330049396,-0.0088357180357
1512000129266460535,,319,,1512000129,265912055,0,,,-832.946777344,-11.1103515625,983.997741699,,-0.00254884362221,-0.99972563982,-0.021524053067,-0.00888212025166
1512000129286439129,,320,,1512000129,285698890,0,,,-833.030639648,-11.2163085938,983.949645996,,-0.00250518321991,-0.999724805355,-0.0215997323394,-0.00880619883537
1512000129306936837,,321,,1512000129,305850982,0,,,-832.926025391,-11.2897949219,983.856262207,,-0.00248259305954,-0.99972307682,-0.0216774381697,-0.00881887972355
1512000129327038504,,322,,1512000129,325790882,0,,,-832.744628906,-11.1865234375,983.84576416,,-0.00243540108204,-0.999722957611,-0.0217349678278,-0.0086964815855
1512000129347511577,,323,,1512000129,346352100,0,,,-832.681762695,-11.1323242188,983.852050781,,-0.00235253572464,-0.999724984169,-0.0216557979584,-0.00867654383183
1512000129365416837,,324,,1512000129,364784002,0,,,-832.809326172,-11.1557617188,983.901611328,,-0.00242272019386,-0.999724686146,-0.0216030478477,-0.00882029533386
1512000129385830171,,325,,1512000129,385248899,0,,,-832.958129883,-11.1857910156,983.927490234,,-0.00255940854549,-0.999727427959,-0.0214734338224,-0.0087980479002
1512000129414310952,,326,,1512000129,410536050,0,,,-833.062866211,-11.2351074219,983.854187012,,-0.00264401733875,-0.999725759029,-0.0215177871287,-0.00886207818985
1512000129425530483,,327,,1512000129,424666881,0,,,-832.925170898,-11.173828125,983.760925293,,-0.00260722637177,-0.999723553658,-0.0216366387904,-0.00881440937519
1512000129446527046,,328,,1512000129,444789886,0,,,-832.685424805,-11.0610351562,983.767822266,,-0.00252516567707,-0.999723911285,-0.0216610394418,-0.00874343514442
1512000129464753504,,329,,1512000129,464055061,0,,,-832.744384766,-11.0209960938,983.871154785,,-0.00244809687138,-0.999724507332,-0.0216132067144,-0.00881095230579
1512000129484018816,,330,,1512000129,483494043,0,,,-833.001220703,-11.1069335938,983.991455078,,-0.00251561403275,-0.99972641468,-0.0215146243572,-0.0088234692812
1512000129504680639,,331,,1512000129,503823041,0,,,-833.100341797,-11.1765136719,984.090454102,,-0.00251768529415,-0.999727725983,-0.0214398615062,-0.00885519385338
1512000129530131004,,332,,1512000129,529246091,0,,,-832.959472656,-11.0510253906,984.010253906,,-0.00268490612507,-0.99972653389,-0.0215020887554,-0.00879570841789
1512000129551831264,,333,,1512000129,543843030,0,,,-832.717773438,-10.99609375,983.921691895,,-0.00250525772572,-0.999725461006,-0.0215717330575,-0.00879321992397
1512000129563461577,,334,,1512000129,562728881,0,,,-832.62121582,-11.0581054688,983.839660645,,-0.00233155488968,-0.99972474575,-0.0216352306306,-0.00876550376415
1512000129583329650,,335,,1512000129,582537889,0,,,-832.827636719,-11.263671875,983.771179199,,-0.002277597785,-0.999723553658,-0.0216921307147,-0.0087730884552
1512000129603013973,,336,,1512000129,602387905,0,,,-833.009155273,-11.3430175781,983.851013184,,-0.00240877270699,-0.999725222588,-0.0215852707624,-0.00882111489773
1512000129622794754,,337,,1512000129,622076988,0,,,-833.102783203,-11.2192382812,983.891967773,,-0.00274564325809,-0.999725520611,-0.0215198509395,-0.00884692370892
1512000129642930118,,338,,1512000129,642038106,0,,,-832.913330078,-11.0537109375,983.889831543,,-0.00281567871571,-0.999725341797,-0.0215092115104,-0.00886933505535
1512000129662647202,,339,,1512000129,662036895,0,,,-832.696289062,-10.9704589844,983.903686523,,-0.00253708660603,-0.999725401402,-0.0215513408184,-0.00884498655796
1512000129682722514,,340,,1512000129,682168960,0,,,-832.799804688,-11.1586914062,983.893615723,,-0.00241093337536,-0.999725461006,-0.0216000899673,-0.00875855982304
1512000129706372045,,341,,1512000129,705461978,0,,,-832.978515625,-11.2961425781,983.910522461,,-0.00235794484615,-0.999725282192,-0.0215964950621,-0.00880138576031
1512000129722886212,,342,,1512000129,721446990,0,,,-833.108154297,-11.1716308594,983.954406738,,-0.00264424085617,-0.999724447727,-0.0215910412371,-0.00882197916508
1512000129743107254,,343,,1512000129,741720914,0,,,-833.012817383,-11.0112304688,984.096252441,,-0.00267235934734,-0.99972730875,-0.0214569866657,-0.00881469249725
1512000129762018400,,344,,1512000129,760709047,0,,,-832.852905273,-11.0036621094,984.091430664,,-0.00269992649555,-0.999728262424,-0.0213750377297,-0.00890398025513
1512000129786930795,,345,,1512000129,785252094,0,,,-832.709838867,-11.1335449219,983.963623047,,-0.002481341362,-0.999727368355,-0.0214659795165,-0.00883746147156
1512000129800657983,,346,,1512000129,799973964,0,,,-832.780395508,-11.2644042969,983.784057617,,-0.00238318741322,-0.999725461006,-0.0215628147125,-0.0088576823473
1512000129820540691,,347,,1512000129,819880008,0,,,-832.911132812,-11.2341308594,983.734558105,,-0.00239427387714,-0.999724507332,-0.0216284245253,-0.00879599153996
1512000129840725275,,348,,1512000129,839776039,0,,,-833.008544922,-11.0864257812,983.838439941,,-0.00263480842113,-0.999725520611,-0.0215483792126,-0.00880955159664
1512000129860567827,,349,,1512000129,859690904,0,,,-832.868041992,-10.9582519531,983.8984375,,-0.00259557366371,-0.999726295471,-0.0215301960707,-0.00877186655998
1512000129880058868,,350,,1512000129,879297971,0,,,-832.822631836,-10.9973144531,984.027954102,,-0.00256322324276,-0.999727904797,-0.0214684419334,-0.00874871015549
1512000129899575223,,351,,1512000129,898943901,0,,,-832.858276367,-11.1291503906,984.022277832,,-0.00256541371346,-0.999727427959,-0.0214522331953,-0.00884835422039
1512000129920327722,,352,,1512000129,919028997,0,,,-832.868652344,-11.2321777344,983.903747559,,-0.00248216092587,-0.999726474285,-0.0215139202774,-0.0088224709034
1512000129939750379,,353,,1512000129,938950061,0,,,-832.956542969,-11.3142089844,983.850036621,,-0.00246328115463,-0.999725401402,-0.0215740688145,-0.00880642235279
1512000129959076108,,354,,1512000129,958362102,0,,,-832.983764648,-11.2651367188,983.968933105,,-0.00252890586853,-0.999727606773,-0.0214796811342,-0.00876800715923
1512000129979167566,,355,,1512000129,978153944,0,,,-832.999267578,-11.18359375,984.044677734,,-0.00275906920433,-0.999728739262,-0.0213789045811,-0.00881297886372
1512000130000775952,,356,,1512000129,999057054,0,,,-832.906860352,-11.1052246094,984.07824707,,-0.00270272791386,-0.999729216099,-0.0213633552194,-0.00881040096283
1512000130019461212,,357,,1512000130,18280982,0,,,-832.814941406,-11.0666503906,983.999450684,,-0.00246061384678,-0.999728083611,-0.0214373245835,-0.00884467363358
1512000130040149025,,358,,1512000130,38395881,0,,,-832.79699707,-11.1689453125,983.824401855,,-0.00239631533623,-0.99972563982,-0.0215525925159,-0.00884588062763
1512000130059512514,,359,,1512000130,58101892,0,,,-832.826904297,-11.1730957031,983.752197266,,-0.00237676501274,-0.999724268913,-0.0216398127377,-0.0087992399931
1512000130078247931,,360,,1512000130,77317953,0,,,-832.912719727,-11.1704101562,983.854309082,,-0.00244052708149,-0.999725580215,-0.0215927399695,-0.00875432789326
1512000130097756160,,361,,1512000130,97117900,0,,,-832.993286133,-11.0690917969,983.959838867,,-0.00263649225235,-0.999727904797,-0.0214465223253,-0.0087858736515
1512000130117245275,,362,,1512000130,116683959,0,,,-832.905639648,-10.9348144531,984.033447266,,-0.00275245308876,-0.999728262424,-0.0214085318148,-0.00880198180676
1512000130137499702,,363,,1512000130,136826038,0,,,-832.865478516,-11.0773925781,984.052124023,,-0.00255666673183,-0.999729156494,-0.0213606916368,-0.00887425243855
